timestamp,indicated_airspeed_m_s,true_airspeed_m_s,air_temperature_celsius,confidence
68223840,-2.8717802,-2.948492,29.755,1.0
68234543,-2.876026,-2.9528513,29.755,1.0
68288269,-2.9001071,-2.977477,29.734999,1.0
68299011,-2.9041488,-2.9816024,29.73,1.0
68309799,-2.9079046,-2.9855072,29.74,1.0
68320499,-2.9115427,-2.989334,29.76,1.0
68331197,-2.9147575,-2.9924617,29.724998,1.0
68341893,-2.9173293,-2.9952254,29.75,1.0
68352584,-2.9192195,-2.9971416,29.744999,1.0
68363284,-2.920092,-2.9979386,29.724998,1.0
68374008,-2.919721,-2.9978085,29.775,1.0
68384773,-2.9182997,-2.996201,29.744999,1.0
68395567,-2.9161167,-2.9941077,29.775,1.0
68406272,-2.9134169,-2.9910147,29.71,1.0
68417016,-2.9104044,-2.9881935,29.765,1.0
68427707,-2.9072452,-2.9848623,29.744999,1.0
68438401,-2.9040713,-2.9815547,29.734999,1.0
68449154,-2.900985,-2.978435,29.744999,1.0
68459897,-2.898062,-2.9754586,29.75,1.0
68470607,-2.8953547,-2.9727526,29.765,1.0
68481310,-2.8930082,-2.9701889,29.734999,1.0
68492015,-2.8912327,-2.968415,29.744999,1.0
68502722,-2.8900607,-2.9672854,29.76,1.0
68513427,-2.8893888,-2.9665217,29.744999,1.0
68524133,-2.8891203,-2.9663444,29.765,1.0
68534917,-2.8891702,-2.9662938,29.744999,1.0
68545670,-2.8894618,-2.9665933,29.744999,1.0
68556371,-2.8899295,-2.967098,29.75,1.0
68567062,-2.8905177,-2.9677262,29.755,1.0
68577942,-2.8911793,-2.9682832,29.73,1.0
68588746,-2.8917665,-2.9689522,29.744999,1.0
68599460,-2.8920572,-2.9693244,29.76,1.0
68610164,-2.8916702,-2.9689512,29.765,1.0
68620866,-2.8902242,-2.9675403,29.779999,1.0
68631565,-2.8879,-2.9650319,29.755,1.0
68642386,-2.8850849,-2.9620812,29.744999,1.0
68653129,-2.8820908,-2.9590073,29.744999,1.0
68663824,-2.879274,-2.955969,29.715,1.0
68674520,-2.876792,-2.9535184,29.734999,1.0
68685229,-2.874755,-2.9515243,29.755,1.0
68695941,-2.8733456,-2.9499776,29.744999,1.0
68706671,-2.8726838,-2.9492738,29.74,1.0
68717397,-2.872838,-2.9494321,29.74,1.0
68728093,-2.8738344,-2.950674,29.785,1.0
68738877,-2.8756661,-2.9524574,29.765,1.0
68749569,-2.87819,-2.9549198,29.724998,1.0
68760470,-2.8811634,-2.9582162,29.775,1.0
68771235,-2.8842754,-2.961265,29.744999,1.0
68781992,-2.8871744,-2.964339,29.765,1.0
68792704,-2.8895988,-2.9668038,29.76,1.0
68803413,-2.8913634,-2.9686108,29.765,1.0
68814226,-2.8924577,-2.9695625,29.73,1.0
68824966,-2.8930047,-2.9701977,29.744999,1.0
68835665,-2.893116,-2.9705572,29.795,1.0
68846367,-2.8927794,-2.9699662,29.744999,1.0
68857091,-2.8918896,-2.9690318,29.74,1.0
68867904,-2.8907137,-2.9679472,29.765,1.0
68878629,-2.8896866,-2.9667947,29.744999,1.0
68889337,-2.8885846,-2.96559,29.73,1.0
68900053,-2.8869066,-2.9639895,29.755,1.0
68910767,-2.884729,-2.961833,29.76,1.0
68921458,-2.8823454,-2.9592638,29.734999,1.0
68932161,-2.8798785,-2.95678,29.744999,1.0
68942952,-2.877535,-2.954447,29.76,1.0
68953654,-2.8755815,-2.9523683,29.744999,1.0
68964352,-2.8742101,-2.951045,29.769999,1.0
68975046,-2.8734393,-2.9501808,29.755,1.0
68985758,-2.8729305,-2.9495854,29.74,1.0
68996481,-2.8718605,-2.9485111,29.744999,1.0
69007180,-2.8695042,-2.9462378,29.775,1.0
69017932,-2.8658993,-2.9424455,29.76,1.0
69028678,-2.8614461,-2.9378493,29.755,1.0
69039380,-2.8564785,-2.9328215,29.769999,1.0
69050081,-2.8512683,-2.9274237,29.76,1.0
69060787,-2.8460324,-2.9220238,29.755,1.0
69071484,-2.8409388,-2.9168522,29.755,1.0
69082274,-2.8362253,-2.9119887,29.75,1.0
69093078,-2.832288,-2.907922,29.744999,1.0
69103807,-2.829634,-2.905365,29.779999,1.0
69114513,-2.8286128,-2.9041486,29.744999,1.0
69125223,-2.8291013,-2.904552,29.734999,1.0
69135942,-2.8307304,-2.9063683,29.765,1.0
69146760,-2.8330677,-2.908504,29.71,1.0
69157471,-2.8355355,-2.9113019,29.765,1.0
69168195,-2.8376875,-2.9134393,29.75,1.0
69178950,-2.8391936,-2.914999,29.755,1.0
69189656,-2.8397088,-2.9154077,29.73,1.0
69200426,-2.839112,-2.9149394,29.76,1.0
69211133,-2.8374565,-2.9132156,29.755,1.0
69221897,-2.8352656,-2.9110138,29.765,1.0
69232602,-2.833633,-2.9093978,29.769999,1.0
69243304,-2.8331559,-2.9087877,29.744999,1.0
69254054,-2.8336916,-2.909362,29.75,1.0
69264757,-2.835099,-2.9107826,29.744999,1.0
69275500,-2.8372414,-2.9129822,29.744999,1.0
69286207,-2.8397655,-2.915645,29.765,1.0
69296908,-2.842502,-2.9183824,29.75,1.0
69307629,-2.8457637,-2.921731,29.75,1.0
69318322,-2.8496594,-2.9258273,29.769999,1.0
69329122,-2.853804,-2.9300585,29.765,1.0
69339896,-2.857896,-2.9342017,29.75,1.0
69350613,-2.861819,-2.938205,29.744999,1.0
69361355,-2.8656006,-2.942282,29.785,1.0
69372049,-2.869155,-2.945737,29.744999,1.0
69382947,-2.8720908,-2.9488487,29.765,1.0
69393700,-2.8741283,-2.9510088,29.785,1.0
69404394,-2.8749714,-2.9516063,29.73,1.0
69415097,-2.8743188,-2.9509852,29.74,1.0
69425829,-2.8722067,-2.9490356,29.785,1.0
69436541,-2.8688178,-2.9452887,29.73,1.0
69447284,-2.864552,-2.9411035,29.769999,1.0
69458014,-2.8600793,-2.9365256,29.769999,1.0
69468716,-2.8560328,-2.932226,29.74,1.0
69479431,-2.8528874,-2.929166,29.775,1.0
69490136,-2.850756,-2.9268324,29.744999,1.0
69500830,-2.8493574,-2.9255111,29.765,1.0
69511541,-2.8484528,-2.924534,29.755,1.0
69522245,-2.8479548,-2.9239023,29.73,1.0
69532962,-2.8477845,-2.9237516,29.734999,1.0
69543657,-2.8478703,-2.9237914,29.724998,1.0
69554364,-2.8480372,-2.9241424,29.76,1.0
69565062,-2.8481498,-2.9241614,29.74,1.0
69575771,-2.8482163,-2.9242058,29.734999,1.0
69586475,-2.848022,-2.9240544,29.744999,1.0
69597174,-2.8472972,-2.9234066,29.765,1.0
69607916,-2.8465252,-2.9223487,29.71,1.0
69618653,-2.8464136,-2.9223733,29.75,1.0
69629370,-2.846363,-2.9224417,29.775,1.0
69640061,-2.8451273,-2.9210281,29.744999,1.0
69650764,-2.8423471,-2.918102,29.73,1.0
69661493,-2.8384671,-2.9142406,29.744999,1.0
69672203,-2.8339741,-2.9096277,29.744999,1.0
69682954,-2.8293743,-2.9047854,29.72,1.0
69693652,-2.8257387,-2.9011486,29.74,1.0
69704361,-2.8237486,-2.8992014,29.76,1.0
69715073,-2.823423,-2.8987665,29.744999,1.0
69725791,-2.8249478,-2.9004278,29.765,1.0
69736507,-2.828179,-2.9037452,29.765,1.0
69747212,-2.8328364,-2.9084313,29.744999,1.0
69757972,-2.8387709,-2.9143555,29.71,1.0
69768673,-2.8453782,-2.9213507,29.744999,1.0
69779443,-2.8518398,-2.927985,29.744999,1.0
69790140,-2.8577623,-2.933993,29.73,1.0
69800856,-2.8629751,-2.9395387,29.769999,1.0
69811601,-2.8672602,-2.9436474,29.71,1.0
69822300,-2.8705912,-2.9470925,29.724998,1.0
69833023,-2.8730888,-2.9497542,29.744999,1.0
69843719,-2.8748713,-2.951584,29.744999,1.0
69854428,-2.8758292,-2.9523969,29.71,1.0
69865167,-2.875349,-2.952099,29.75,1.0
69875897,-2.8730042,-2.9497588,29.76,1.0
69886622,-2.8693008,-2.9459321,29.755,1.0
69897327,-2.8647788,-2.9412162,29.74,1.0
69908061,-2.8596556,-2.9359562,29.74,1.0
69918784,-2.854787,-2.9309096,29.73,1.0
69929505,-2.8510492,-2.927136,29.734999,1.0
69940449,-2.8482966,-2.9242375,29.72,1.0
69951153,-2.8463867,-2.9224455,29.755,1.0
69961914,-2.8456318,-2.9215498,29.73,1.0
69972608,-2.845786,-2.9217806,29.744999,1.0
69983303,-2.8464074,-2.9224353,29.75,1.0
69994010,-2.8474789,-2.9233422,29.71,1.0
70004710,-2.8489735,-2.9251423,29.765,1.0
70015461,-2.8508565,-2.9270759,29.765,1.0
70026189,-2.8533132,-2.929574,29.76,1.0
70036903,-2.8563542,-2.9326224,29.75,1.0
70047603,-2.8596344,-2.9360874,29.769999,1.0
70058311,-2.8628821,-2.9393973,29.765,1.0
70069010,-2.866003,-2.9427474,29.795,1.0
70079736,-2.8690398,-2.9456708,29.755,1.0
70090469,-2.8721392,-2.9487972,29.744999,1.0
70101168,-2.8751888,-2.951855,29.73,1.0
70111917,-2.8778825,-2.954767,29.76,1.0
70122657,-2.8802195,-2.9570932,29.744999,1.0
70133364,-2.882543,-2.9594545,29.74,1.0
70144064,-2.8850043,-2.962111,29.765,1.0
70154813,-2.8873827,-2.9644554,29.744999,1.0
70165571,-2.889513,-2.9666913,29.755,1.0
70176343,-2.8913863,-2.9686635,29.765,1.0
70187042,-2.8930047,-2.9702518,29.75,1.0
70197915,-2.894377,-2.9715245,29.72,1.0
70208617,-2.8956285,-2.9731038,29.779999,1.0
70219449,-2.897299,-2.9746716,29.75,1.0
70230139,-2.899898,-2.9774137,29.765,1.0
70240833,-2.9030151,-2.9804912,29.74,1.0
70251570,-2.90588,-2.9835553,29.765,1.0
70262271,-2.9083526,-2.9859626,29.744999,1.0
70273062,-2.9108865,-2.9884658,29.724998,1.0
70283762,-2.913935,-2.9917188,29.75,1.0
70294460,-2.91739,-2.9954393,29.785,1.0
70305181,-2.9210467,-2.9991128,29.765,1.0
70315878,-2.9245238,-3.0026338,29.755,1.0
70326582,-2.926227,-3.0042584,29.73,1.0
70337292,-2.9248848,-3.0029545,29.744999,1.0
70348079,-2.9209201,-2.9988346,29.734999,1.0
70358783,-2.9155002,-2.9931467,29.71,1.0
70369535,-2.910443,-2.9881768,29.755,1.0
70380482,-2.9071398,-2.9847195,29.744999,1.0
70391218,-2.9045181,-2.9820771,29.755,1.0
70401984,-2.9008517,-2.9783616,29.765,1.0
70412681,-2.8967159,-2.9738946,29.72,1.0
70423383,-2.894223,-2.9714007,29.73,1.0
70434084,-2.894834,-2.9721997,29.765,1.0
70444795,-2.8985732,-2.975842,29.724998,1.0
70455718,-2.9045823,-2.9820113,29.724998,1.0
70466446,-2.9118001,-2.9895203,29.744999,1.0
70477198,-2.9195986,-2.9975755,29.76,1.0
70487936,-2.927809,-3.0059555,29.75,1.0
70498693,-2.9358532,-3.014339,29.775,1.0
70509397,-2.9424312,-3.020943,29.744999,1.0
70520164,-2.9463851,-3.0250025,29.744999,1.0
70530868,-2.9473464,-3.0261145,29.769999,1.0
70541574,-2.945554,-3.0243485,29.785,1.0
70552301,-2.9415965,-3.0201855,29.765,1.0
70563010,-2.9360964,-3.014389,29.734999,1.0
70573706,-2.9297962,-3.0079956,29.75,1.0
70584516,-2.9234014,-3.001428,29.744999,1.0
70595217,-2.9171312,-2.995188,29.785,1.0
70606085,-2.9108217,-2.9886358,29.769999,1.0
70616785,-2.9044564,-2.9819775,29.744999,1.0
70627500,-2.8986857,-2.9761508,29.765,1.0
70638206,-2.8944335,-2.971911,29.789999,1.0
70648919,-2.8919234,-2.9692602,29.775,1.0
70659620,-2.8907185,-2.967876,29.744999,1.0
70670427,-2.8904421,-2.9676166,29.75,1.0
70681156,-2.8911068,-2.9684708,29.785,1.0
70691876,-2.8928018,-2.97026,29.795,1.0
70702579,-2.8951213,-2.972502,29.765,1.0
70713279,-2.8972948,-2.9747088,29.76,1.0
70723987,-2.898737,-2.9762387,29.769999,1.0
70734684,-2.8994653,-2.9770606,29.785,1.0
70745465,-2.8999543,-2.9775083,29.779999,1.0
70756161,-2.9009051,-2.9782877,29.74,1.0
70766870,-2.9022896,-2.9799309,29.785,1.0
70777607,-2.9026427,-2.9800472,29.734999,1.0
70788309,-2.9012055,-2.9788425,29.789999,1.0
70799115,-2.8987699,-2.9760647,29.73,1.0
70809919,-2.8959742,-2.9732192,29.734999,1.0
70820668,-2.8932092,-2.9705765,29.775,1.0
70831364,-2.8911064,-2.968295,29.75,1.0
70842104,-2.8902397,-2.967381,29.744999,1.0
70852979,-2.8912313,-2.9684968,29.765,1.0
70863713,-2.894717,-2.971893,29.73,1.0
70874411,-2.9006567,-2.9781144,29.755,1.0
70885130,-2.907948,-2.985649,29.765,1.0
70895886,-2.9153786,-2.9931796,29.744999,1.0
70906628,-2.9225695,-3.0005772,29.744999,1.0
70917383,-2.9290233,-3.007203,29.744999,1.0
70928173,-2.9339504,-3.0121377,29.72,1.0
70938874,-2.9371233,-3.0155694,29.755,1.0
70949572,-2.9388568,-3.0172744,29.74,1.0
70960397,-2.9394357,-3.0179856,29.765,1.0
70971241,-2.938352,-3.0166492,29.72,1.0
70981976,-2.93494,-3.013196,29.73,1.0
70992747,-2.9291909,-3.0073926,29.75,1.0
71003609,-2.921928,-3.0001092,29.785,1.0
71014305,-2.9140494,-2.9918966,29.76,1.0
71025025,-2.9053888,-2.9829729,29.755,1.0
71035724,-2.8956182,-2.97299,29.765,1.0
71046433,-2.8848457,-2.9618564,29.75,1.0
71057133,-2.8735158,-2.950297,29.765,1.0
71067962,-2.8632147,-2.939745,29.769999,1.0
71078671,-2.8555908,-2.9318035,29.744999,1.0
71089382,-2.8506048,-2.926781,29.765,1.0
71100075,-2.8474684,-2.9234402,29.74,1.0
71110842,-2.8450654,-2.920925,29.73,1.0
71121556,-2.8418407,-2.917759,29.76,1.0
71132258,-2.8372974,-2.9131663,29.775,1.0
71143002,-2.8322184,-2.9078555,29.755,1.0
71153697,-2.8277864,-2.9033527,29.765,1.0
71164418,-2.8245556,-2.9001555,29.789999,1.0
71175137,-2.822235,-2.8976295,29.76,1.0
71185876,-2.8209121,-2.89613,29.734999,1.0
71196590,-2.8208482,-2.896208,29.765,1.0
71207300,-2.821751,-2.8970633,29.75,1.0
71218013,-2.822913,-2.8983996,29.779999,1.0
71228713,-2.8235586,-2.8991091,29.779999,1.0
71239463,-2.8231103,-2.8984096,29.73,1.0
71250181,-2.8211594,-2.8964067,29.73,1.0
71261164,-2.8175492,-2.892891,29.769999,1.0
71271858,-2.8125484,-2.887709,29.76,1.0
71282568,-2.8067453,-2.8817012,29.76,1.0
71293279,-2.800503,-2.8751497,29.73,1.0
71304039,-2.7940009,-2.868782,29.795,1.0
71314744,-2.7879567,-2.8625052,29.779999,1.0
71325480,-2.7833693,-2.85763,29.744999,1.0
71336221,-2.7805054,-2.8546896,29.744999,1.0
71346922,-2.7789395,-2.853224,29.769999,1.0
71357624,-2.778189,-2.8523593,29.75,1.0
71368338,-2.7778568,-2.8520184,29.75,1.0
71379036,-2.7778559,-2.8521824,29.785,1.0
71389761,-2.7784534,-2.8528404,29.789999,1.0
71400463,-2.780064,-2.8544707,29.785,1.0
71411173,-2.7828584,-2.8570333,29.72,1.0
71421869,-2.7862394,-2.8606932,29.76,1.0
71432563,-2.7893894,-2.863833,29.74,1.0
71443322,-2.7920356,-2.8666515,29.76,1.0
71454018,-2.794099,-2.8686993,29.744999,1.0
71464739,-2.7955387,-2.8701773,29.744999,1.0
71475515,-2.7965696,-2.8713305,29.765,1.0
71486215,-2.7972558,-2.8720348,29.765,1.0
71496943,-2.7974284,-2.872331,29.789999,1.0
71507641,-2.797202,-2.8719409,29.765,1.0
71518350,-2.7969055,-2.8714938,29.734999,1.0
71529075,-2.7970212,-2.8716364,29.74,1.0
71539782,-2.798247,-2.8731084,29.785,1.0
71550485,-2.8008542,-2.8756273,29.744999,1.0
71561187,-2.8044343,-2.8794222,29.769999,1.0
71571885,-2.8085306,-2.8835087,29.744999,1.0
71582592,-2.813118,-2.888266,29.755,1.0
71593303,-2.8181617,-2.8934448,29.755,1.0
71604029,-2.823167,-2.8985925,29.765,1.0
71614762,-2.8278728,-2.9034238,29.765,1.0
71625472,-2.8325388,-2.9083586,29.795,1.0
71636210,-2.8371403,-2.9130352,29.785,1.0
71646914,-2.8413224,-2.917329,29.785,1.0
71657605,-2.8449402,-2.9209232,29.76,1.0
71668436,-2.8477893,-2.9239547,29.785,1.0
71679142,-2.849514,-2.9258702,29.814999,1.0
71689898,-2.8503244,-2.9264126,29.755,1.0
71700652,-2.850858,-2.9269602,29.755,1.0
71711356,-2.8513863,-2.9276295,29.769999,1.0
71722115,-2.8517826,-2.9281087,29.785,1.0
71732947,-2.852065,-2.9282055,29.744999,1.0
71743645,-2.8524756,-2.9287963,29.779999,1.0
71754342,-2.8529713,-2.9291599,29.75,1.0
71765070,-2.8534045,-2.9295049,29.73,1.0
71775785,-2.8537767,-2.929959,29.744999,1.0
71786533,-2.8538666,-2.929979,29.73,1.0
71797243,-2.853514,-2.9298828,29.785,1.0
71807942,-2.8531687,-2.9293592,29.75,1.0
71818653,-2.853511,-2.9296863,29.744999,1.0
71829363,-2.8550403,-2.931242,29.744999,1.0
71840056,-2.8574293,-2.9336948,29.744999,1.0
71850762,-2.8597305,-2.9361057,29.755,1.0
71861471,-2.8616693,-2.9380722,29.75,1.0
71872236,-2.8633814,-2.9399755,29.779999,1.0
71882988,-2.8647552,-2.94141,29.785,1.0
71893742,-2.8658268,-2.9424272,29.765,1.0
71904441,-2.8671908,-2.9436576,29.73,1.0
71915156,-2.8694031,-2.946075,29.76,1.0
71925879,-2.872305,-2.9490783,29.765,1.0
71936614,-2.8753092,-2.952163,29.765,1.0
71947410,-2.877632,-2.9546428,29.785,1.0
71958109,-2.878917,-2.9558644,29.765,1.0
71968862,-2.8795903,-2.9564826,29.75,1.0
71979564,-2.8796625,-2.9567277,29.785,1.0
71990431,-2.878608,-2.955401,29.734999,1.0
72001164,-2.8763883,-2.9531746,29.744999,1.0
72011865,-2.873455,-2.9502602,29.765,1.0
72022589,-2.8700647,-2.946828,29.775,1.0
72033290,-2.8662052,-2.9428651,29.775,1.0
72044004,-2.8619933,-2.9384923,29.765,1.0
72054911,-2.8577526,-2.934114,29.76,1.0
72065610,-2.8538451,-2.930099,29.765,1.0
72076306,-2.8504267,-2.926638,29.775,1.0
72087022,-2.8471546,-2.9232297,29.765,1.0
72097725,-2.8434227,-2.919398,29.765,1.0
72108438,-2.8394532,-2.915299,29.76,1.0
72119144,-2.8360994,-2.911899,29.765,1.0
72129895,-2.8337739,-2.9095833,29.779999,1.0
72140603,-2.8327608,-2.9083753,29.744999,1.0
72151295,-2.8333495,-2.9090517,29.76,1.0
72162012,-2.8354836,-2.9113626,29.785,1.0
72172702,-2.8389564,-2.9147387,29.75,1.0
72183409,-2.843342,-2.9191933,29.74,1.0
72194109,-2.8478367,-2.9239283,29.765,1.0
72204811,-2.8518255,-2.9278548,29.73,1.0
72215578,-2.855078,-2.931363,29.765,1.0
72226291,-2.8571084,-2.9335227,29.785,1.0
72237014,-2.8575819,-2.933912,29.765,1.0
72247725,-2.857072,-2.9333887,29.765,1.0
72258657,-2.8564954,-2.9327483,29.755,1.0
72269377,-2.8561087,-2.9323025,29.744999,1.0
72280086,-2.8553214,-2.9315453,29.744999,1.0
72290788,-2.8533561,-2.9297936,29.8,1.0
72301535,-2.8503242,-2.926487,29.76,1.0
72312331,-2.8473516,-2.923411,29.755,1.0
72323062,-2.8450785,-2.9211252,29.765,1.0
72333765,-2.8428512,-2.9188662,29.769999,1.0
72344465,-2.839605,-2.915413,29.744999,1.0
72355174,-2.8348887,-2.9105465,29.74,1.0
72365873,-2.8289607,-2.904508,29.75,1.0
72376568,-2.822395,-2.8976479,29.724998,1.0
72387399,-2.8155406,-2.8907657,29.765,1.0
72398204,-2.8086739,-2.8835962,29.74,1.0
72408908,-2.8023517,-2.877272,29.775,1.0
72419639,-2.7968724,-2.8715513,29.755,1.0
72430431,-2.7917547,-2.8664863,29.795,1.0
72441284,-2.7862723,-2.8605347,29.72,1.0
72452042,-2.7803335,-2.854485,29.73,1.0
72462909,-2.7738812,-2.8480718,29.775,1.0
72473651,-2.767117,-2.840986,29.744999,1.0
72484345,-2.7610137,-2.8347058,29.744999,1.0
72495098,-2.7563038,-2.8298001,29.73,1.0
72505824,-2.752928,-2.8264043,29.744999,1.0
72516525,-2.7495224,-2.8229778,29.76,1.0
72527424,-2.7450373,-2.8183262,29.75,1.0
72538123,-2.7400928,-2.813412,29.785,1.0
72548833,-2.734364,-2.8074772,29.775,1.0
72559581,-2.7269206,-2.7996728,29.74,1.0
72570469,-2.7182646,-2.790878,29.76,1.0
72581170,-2.7097611,-2.7821703,29.765,1.0
72591864,-2.7030544,-2.7752156,29.75,1.0
72602620,-2.6986501,-2.770848,29.779999,1.0
72613389,-2.6957998,-2.7677388,29.74,1.0
72624083,-2.6939955,-2.7659092,29.744999,1.0
72634942,-2.69305,-2.7649384,29.744999,1.0
72645646,-2.6931481,-2.7652447,29.789999,1.0
72656357,-2.6949904,-2.7669065,29.744999,1.0
72667075,-2.6988177,-2.7708817,29.755,1.0
72677784,-2.7040389,-2.7762654,29.76,1.0
72688688,-2.7100387,-2.7824023,29.755,1.0
72699495,-2.7165582,-2.788981,29.73,1.0
72710189,-2.7233834,-2.7960274,29.74,1.0
72720895,-2.7302241,-2.8030736,29.744999,1.0
72731653,-2.7369766,-2.8101919,29.785,1.0
72742446,-2.7436798,-2.8169816,29.765,1.0
72753142,-2.7504814,-2.8239648,29.765,1.0
72763840,-2.7572572,-2.8309813,29.779999,1.0
72774547,-2.763568,-2.8375075,29.789999,1.0
72785276,-2.769324,-2.8433473,29.775,1.0
72796186,-2.7747061,-2.8488498,29.769999,1.0
72806877,-2.7799773,-2.8542852,29.775,1.0
72817582,-2.7852268,-2.8596244,29.765,1.0
72828311,-2.7902935,-2.8648262,29.765,1.0
72839037,-2.7951748,-2.869838,29.765,1.0
72849732,-2.799989,-2.8747334,29.755,1.0
72860601,-2.8049405,-2.880031,29.8,1.0
72871323,-2.8104088,-2.8854933,29.765,1.0
72882031,-2.8164372,-2.8917305,29.775,1.0
72892725,-2.8225884,-2.898094,29.785,1.0
72903468,-2.8287504,-2.9040613,29.71,1.0
72914169,-2.835176,-2.9109223,29.765,1.0
72924969,-2.8420477,-2.917988,29.765,1.0
72935739,-2.8492646,-2.9252532,29.734999,1.0
72946435,-2.8562913,-2.9326122,29.765,1.0
72957141,-2.862616,-2.939276,29.8,1.0
72967995,-2.8679833,-2.9446409,29.769999,1.0
72978711,-2.8723404,-2.9490716,29.765,1.0
72989406,-2.8760116,-2.952841,29.765,1.0
73000104,-2.8793766,-2.956296,29.765,1.0
73010805,-2.8825123,-2.9594178,29.744999,1.0
73021500,-2.8854847,-2.9624205,29.734999,1.0
73032224,-2.8883495,-2.9653838,29.734999,1.0
73043046,-2.8908215,-2.9678972,29.73,1.0
73053741,-2.8928049,-2.9700558,29.755,1.0
73064436,-2.8946834,-2.9720092,29.76,1.0
73075186,-2.8965328,-2.9739327,29.765,1.0
73085921,-2.898192,-2.9756818,29.775,1.0
73096631,-2.8997636,-2.977246,29.765,1.0
73107457,-2.901439,-2.9791138,29.795,1.0
73118183,-2.903471,-2.9811265,29.779999,1.0
73128927,-2.9058216,-2.9834268,29.76,1.0
73139626,-2.9080122,-2.9857497,29.775,1.0
73150324,-2.9096832,-2.9874408,29.769999,1.0
73161126,-2.9109042,-2.9887683,29.785,1.0
73171820,-2.911852,-2.989618,29.76,1.0
73182552,-2.9123418,-2.9900966,29.755,1.0
73193297,-2.9123564,-2.990168,29.765,1.0
73204008,-2.9122257,-2.9901576,29.789999,1.0
73214715,-2.9123163,-2.9902258,29.785,1.0
73225627,-2.9126835,-2.990652,29.795,1.0
73236401,-2.9129221,-2.9908478,29.785,1.0
73247123,-2.9128356,-2.9906528,29.765,1.0
73257928,-2.912393,-2.990297,29.785,1.0
73268635,-2.9114726,-2.9893026,29.775,1.0
73279333,-2.9101043,-2.987873,29.769999,1.0
73290033,-2.9085453,-2.9862845,29.765,1.0
73300781,-2.907108,-2.984809,29.765,1.0
73311490,-2.9061384,-2.983838,29.769999,1.0
73322204,-2.9058874,-2.9836545,29.785,1.0
73332993,-2.9066339,-2.9842484,29.75,1.0
73343691,-2.9083405,-2.9860744,29.765,1.0
73354402,-2.910069,-2.9878654,29.775,1.0
73365098,-2.9109933,-2.9887652,29.765,1.0
73375830,-2.9109435,-2.9885411,29.73,1.0
73386534,-2.9100401,-2.987811,29.769999,1.0
73397244,-2.90851,-2.9862647,29.775,1.0
73407965,-2.9064372,-2.9841413,29.769999,1.0
73418742,-2.9039025,-2.9813912,29.74,1.0
73429464,-2.9012017,-2.9786432,29.744999,1.0
73440160,-2.8986778,-2.9760764,29.75,1.0
73450921,-2.896699,-2.974069,29.755,1.0
73461621,-2.8953102,-2.9726923,29.765,1.0
73472407,-2.8940864,-2.9715338,29.785,1.0
73483108,-2.892807,-2.9701355,29.769999,1.0
73493856,-2.891304,-2.968617,29.775,1.0
73504602,-2.8894553,-2.9666696,29.765,1.0
73515466,-2.8876202,-2.9648836,29.785,1.0
73526168,-2.8860736,-2.9632394,29.76,1.0
73536862,-2.8849075,-2.9620667,29.765,1.0
73547569,-2.8842905,-2.9613352,29.744999,1.0
73558287,-2.884225,-2.9613166,29.755,1.0
73569016,-2.8845835,-2.9618073,29.779999,1.0
73579720,-2.8853662,-2.962584,29.785,1.0
73590452,-2.8865597,-2.9638095,29.785,1.0
73601152,-2.88803,-2.965368,29.795,1.0
73611850,-2.889887,-2.9670544,29.75,1.0
73622576,-2.8920918,-2.9694648,29.779999,1.0
73633289,-2.894162,-2.9716458,29.795,1.0
73644007,-2.8958435,-2.973323,29.785,1.0
73654728,-2.897286,-2.974755,29.775,1.0
73665485,-2.8986099,-2.97609,29.769999,1.0
73676196,-2.8998017,-2.977289,29.765,1.0
73686900,-2.9009652,-2.9785058,29.765,1.0
73697648,-2.9022908,-2.9799404,29.779999,1.0
73708389,-2.903808,-2.9813263,29.744999,1.0
73719124,-2.9052052,-2.9828346,29.76,1.0
73729922,-2.9062467,-2.98383,29.744999,1.0
73740618,-2.9072032,-2.984829,29.75,1.0
73751321,-2.9082837,-2.9859138,29.744999,1.0
73762080,-2.9092064,-2.987083,29.789999,1.0
73772986,-2.9096498,-2.9875383,29.789999,1.0
73783681,-2.909603,-2.9873176,29.755,1.0
73794376,-2.9092917,-2.9870496,29.769999,1.0
73805103,-2.9090073,-2.9867086,29.76,1.0
73815811,-2.9088616,-2.9865835,29.765,1.0
73826504,-2.9088268,-2.9863753,29.73,1.0
73837232,-2.908988,-2.9867132,29.765,1.0
73847957,-2.909514,-2.987395,29.789999,1.0
73858685,-2.9104116,-2.988169,29.76,1.0
73869393,-2.9115663,-2.9894283,29.775,1.0
73880138,-2.9127712,-2.9906902,29.779999,1.0
73890857,-2.913868,-2.991767,29.769999,1.0
73901551,-2.914847,-2.992609,29.74,1.0
73912266,-2.915596,-2.9936254,29.789999,1.0
73923005,-2.9161456,-2.9940658,29.765,1.0
73933712,-2.9166343,-2.9945433,29.76,1.0
73944412,-2.9169524,-2.9949188,29.769999,1.0
73955145,-2.9170198,-2.9948995,29.755,1.0
73965874,-2.9168932,-2.9947202,29.744999,1.0
73976570,-2.9166224,-2.9946642,29.789999,1.0
73987291,-2.916249,-2.994207,29.775,1.0
73998082,-2.915809,-2.9937797,29.779999,1.0
74008835,-2.915222,-2.9931657,29.765,1.0
74019578,-2.9143217,-2.9923651,29.789999,1.0
74030444,-2.9130998,-2.9908884,29.744999,1.0
74041165,-2.91156,-2.989628,29.81,1.0
74051882,-2.9094946,-2.9872854,29.765,1.0
74062643,-2.9068708,-2.9846382,29.785,1.0
74073341,-2.90401,-2.981701,29.785,1.0
74084070,-2.9010556,-2.9786181,29.775,1.0
74094820,-2.897901,-2.975404,29.779999,1.0
74105566,-2.8944702,-2.9717095,29.744999,1.0
74116266,-2.8907125,-2.9679253,29.76,1.0
74126974,-2.88682,-2.9637856,29.73,1.0
74137681,-2.8831666,-2.9603035,29.785,1.0
74148393,-2.879921,-2.9569468,29.779999,1.0
74159093,-2.8770893,-2.9540637,29.785,1.0
74169810,-2.8746643,-2.9514484,29.76,1.0
74180518,-2.8726265,-2.9495263,29.795,1.0
74191232,-2.8709497,-2.9478047,29.795,1.0
74202062,-2.8697135,-2.9465353,29.795,1.0
74212754,-2.869076,-2.9457834,29.775,1.0
74223609,-2.8689177,-2.9456553,29.785,1.0
74234309,-2.8689086,-2.9456704,29.789999,1.0
74245019,-2.8690145,-2.9457548,29.785,1.0
74255725,-2.8694272,-2.9461052,29.769999,1.0
74266438,-2.8701735,-2.9469447,29.785,1.0
74277155,-2.8712626,-2.9478195,29.734999,1.0
74287911,-2.8728025,-2.9497232,29.789999,1.0
74298666,-2.8747494,-2.9516976,29.785,1.0
74309374,-2.8769464,-2.9539533,29.785,1.0
74320090,-2.879266,-2.9562376,29.765,1.0
74330870,-2.8816056,-2.958459,29.74,1.0
74341567,-2.8839984,-2.9610133,29.76,1.0
74352278,-2.8865771,-2.963759,29.779999,1.0
74363007,-2.8893278,-2.9665587,29.775,1.0
74373701,-2.892123,-2.9692814,29.744999,1.0
74384400,-2.8949745,-2.972203,29.74,1.0
74395103,-2.8979998,-2.9756773,29.814999,1.0
74405914,-2.9011722,-2.9787626,29.779999,1.0
74416645,-2.9043574,-2.981984,29.769999,1.0
74427402,-2.907452,-2.9851365,29.765,1.0
74438105,-2.9102705,-2.9880302,29.765,1.0
74448811,-2.9125698,-2.9904191,29.769999,1.0
74459510,-2.914291,-2.992236,29.779999,1.0
74470240,-2.9155157,-2.9933205,29.744999,1.0
74481179,-2.9163225,-2.9942973,29.775,1.0
74491899,-2.9166746,-2.9946463,29.765,1.0
74502612,-2.9164488,-2.9943404,29.75,1.0
74513307,-2.9156775,-2.993672,29.775,1.0
74524079,-2.9145124,-2.9925249,29.785,1.0
74534971,-2.9130814,-2.9910555,29.785,1.0
74545676,-2.9113817,-2.9893634,29.795,1.0
74556381,-2.909419,-2.9872744,29.779999,1.0
74567082,-2.9075348,-2.9853644,29.785,1.0
74577976,-2.9060998,-2.983768,29.76,1.0
74588677,-2.9051633,-2.9829292,29.785,1.0
74599376,-2.9046388,-2.9824228,29.804998,1.0
74610109,-2.904556,-2.9822147,29.779999,1.0
74620819,-2.905034,-2.9827056,29.779999,1.0
74631531,-2.9059267,-2.9835975,29.775,1.0
74642224,-2.9069986,-2.9847226,29.779999,1.0
74652976,-2.908284,-2.9860535,29.779999,1.0
74663671,-2.9098022,-2.9876368,29.785,1.0
74674368,-2.9114504,-2.98928,29.775,1.0
74685083,-2.9132562,-2.9911585,29.779999,1.0
74695783,-2.9153447,-2.9934018,29.8,1.0
74706479,-2.9176931,-2.9957006,29.775,1.0
74717224,-2.9199479,-2.9979663,29.765,1.0
74727946,-2.921732,-3.000021,29.81,1.0
74738654,-2.923101,-3.0011542,29.755,1.0
74749358,-2.924218,-3.0024498,29.785,1.0
74760051,-2.9252162,-3.003421,29.775,1.0
74770785,-2.9262018,-3.0043833,29.765,1.0
74781481,-2.927147,-3.0055027,29.795,1.0
74792195,-2.92814,-3.0064728,29.785,1.0
74803066,-2.9292476,-3.0075107,29.765,1.0
74813857,-2.9304087,-3.0085106,29.73,1.0
74824557,-2.9315739,-3.0097563,29.74,1.0
74835479,-2.9328144,-3.0112038,29.775,1.0
74846198,-2.9341826,-3.012559,29.765,1.0
74856895,-2.9352796,-3.0136852,29.765,1.0
74867593,-2.9355905,-3.0138588,29.734999,1.0
74878288,-2.9350724,-3.013526,29.775,1.0
74889022,-2.9339356,-3.0121598,29.734999,1.0
74899713,-2.9324684,-3.0109766,29.8,1.0
74910457,-2.9310112,-3.0092814,29.76,1.0
74921186,-2.929934,-3.0081508,29.755,1.0
74931893,-2.9294,-3.0076597,29.765,1.0
74942594,-2.9291897,-3.007444,29.765,1.0
74953288,-2.929343,-3.0076013,29.765,1.0
74964027,-2.9299881,-3.0084128,29.795,1.0
74974743,-2.9307714,-3.009217,29.795,1.0
74985521,-2.9312005,-3.0095685,29.775,1.0
74996283,-2.9311273,-3.009543,29.785,1.0
75007029,-2.9306715,-3.0090005,29.769999,1.0
75017720,-2.929937,-3.008395,29.8,1.0
75028662,-2.929229,-3.0075443,29.775,1.0
75039358,-2.929109,-3.0072472,29.74,1.0
75050089,-2.92977,-3.0079575,29.734999,1.0
75060796,-2.9308994,-3.0093904,29.789999,1.0
75071492,-2.93246,-3.0108438,29.76,1.0
75082205,-2.934302,-3.0127845,29.769999,1.0
75093039,-2.9356492,-3.0142424,29.785,1.0
75103739,-2.93614,-3.0147128,29.785,1.0
75114493,-2.936069,-3.0145655,29.769999,1.0
75125203,-2.9360049,-3.014574,29.785,1.0
75135917,-2.9366,-3.015061,29.76,1.0
75146694,-2.9378986,-3.0164552,29.769999,1.0
75157458,-2.9394777,-3.018151,29.785,1.0
75168160,-2.9410043,-3.019793,29.8,1.0
75178860,-2.9421177,-3.0208368,29.779999,1.0
75189552,-2.9425542,-3.0213099,29.785,1.0
75200559,-2.9423509,-3.0210762,29.779999,1.0
75211255,-2.9416633,-3.0203702,29.779999,1.0
75222013,-2.9407349,-3.0194418,29.785,1.0
75232749,-2.9398675,-3.0185263,29.779999,1.0
75243709,-2.9390745,-3.0177372,29.785,1.0
75254406,-2.938037,-3.0165498,29.765,1.0
75265114,-2.9365184,-3.0150404,29.775,1.0
75275846,-2.9345696,-3.012965,29.76,1.0
75286536,-2.9323509,-3.0108113,29.785,1.0
75297244,-2.9301033,-3.0083299,29.75,1.0
75308026,-2.9280124,-3.0063667,29.789999,1.0
75318732,-2.9259977,-3.004174,29.765,1.0
75329446,-2.9239955,-3.0020933,29.76,1.0
75340156,-2.9220648,-3.000136,29.765,1.0
75350866,-2.920359,-2.998335,29.755,1.0
75361562,-2.9189875,-2.996927,29.755,1.0
75372257,-2.9178064,-2.9957182,29.755,1.0
75383048,-2.9166987,-2.9947786,29.795,1.0
75393785,-2.915682,-2.9934874,29.744999,1.0
75404480,-2.9147663,-2.9926462,29.765,1.0
75415177,-2.9140663,-2.9918396,29.744999,1.0
75426184,-2.9137733,-2.9915388,29.744999,1.0
75436893,-2.91391,-2.9915557,29.72,1.0
75447629,-2.914372,-2.992252,29.765,1.0
75458326,-2.9150684,-2.992992,29.769999,1.0
75469041,-2.915813,-2.9937258,29.775,1.0
75479742,-2.9163523,-2.994403,29.8,1.0
75490521,-2.916608,-2.9945421,29.775,1.0
75501239,-2.9166389,-2.994549,29.769999,1.0
75511936,-2.9164963,-2.9944026,29.769999,1.0
75522667,-2.9162252,-2.994001,29.744999,1.0
75533419,-2.9159737,-2.99385,29.76,1.0
75544122,-2.9158545,-2.9936783,29.75,1.0
75554829,-2.915731,-2.9937243,29.785,1.0
75565660,-2.9154983,-2.9933865,29.765,1.0
75576364,-2.9151897,-2.9932058,29.785,1.0
75587066,-2.9147227,-2.992726,29.785,1.0
75598042,-2.91393,-2.9920108,29.804998,1.0
75608758,-2.9129124,-2.990793,29.769999,1.0
75619541,-2.9119732,-2.9897056,29.744999,1.0
75630507,-2.911233,-2.9892044,29.804998,1.0
75641227,-2.9106688,-2.9886498,29.81,1.0
75651934,-2.9103665,-2.988266,29.795,1.0
75662665,-2.9103842,-2.9881852,29.775,1.0
75673381,-2.9105368,-2.9882185,29.75,1.0
75684087,-2.9107876,-2.9885254,29.76,1.0
75694836,-2.9113257,-2.9892,29.775,1.0
75705656,-2.9121757,-2.990122,29.785,1.0
75716356,-2.9132385,-2.991312,29.804998,1.0
75727065,-2.9144304,-2.9923382,29.765,1.0
75738009,-2.9155743,-2.9937105,29.804998,1.0
75748739,-2.916427,-2.9945574,29.8,1.0
75759449,-2.9169202,-2.995163,29.82,1.0
75770146,-2.9171228,-2.9950247,29.75,1.0
75780852,-2.9170969,-2.9952452,29.8,1.0
75791562,-2.9168966,-2.9948876,29.769999,1.0
75802398,-2.9164593,-2.994315,29.744999,1.0
75813142,-2.9156353,-2.9936914,29.789999,1.0
75823841,-2.9145405,-2.9924686,29.769999,1.0
75834543,-2.9133818,-2.9913282,29.779999,1.0
75845530,-2.9121008,-2.9900377,29.785,1.0
75856252,-2.9106557,-2.9885674,29.789999,1.0
75866975,-2.9091306,-2.986903,29.769999,1.0
75877675,-2.907591,-2.9854207,29.789999,1.0
75888379,-2.906089,-2.9838538,29.785,1.0
75899085,-2.904662,-2.9825325,29.814999,1.0
75909797,-2.9034472,-2.9812608,29.81,1.0
75920577,-2.9026532,-2.9803963,29.8,1.0
75931292,-2.9023163,-2.9800503,29.8,1.0
75942015,-2.9023404,-2.9800751,29.8,1.0
75952707,-2.90264,-2.9802601,29.775,1.0
75963745,-2.9031415,-2.9807749,29.775,1.0
75974447,-2.903782,-2.9814324,29.775,1.0
75985156,-2.9045084,-2.9822028,29.779999,1.0
75995865,-2.905278,-2.9830177,29.785,1.0
76006613,-2.9059467,-2.9836798,29.779999,1.0
76017306,-2.9062977,-2.9839401,29.765,1.0
76028060,-2.9062843,-2.9840002,29.779999,1.0
76038762,-2.9059925,-2.9836268,29.765,1.0
76049456,-2.9054964,-2.9831421,29.769999,1.0
76060162,-2.9047492,-2.982359,29.76,1.0
76070858,-2.9037232,-2.9813302,29.765,1.0
76081560,-2.9026253,-2.980203,29.765,1.0
76092289,-2.9016163,-2.9791915,29.769999,1.0
76103059,-2.9007075,-2.978283,29.775,1.0
76113759,-2.8999033,-2.9773395,29.76,1.0
76124586,-2.8990946,-2.9766319,29.785,1.0
76135562,-2.8980875,-2.9754012,29.744999,1.0
76146267,-2.8968494,-2.974302,29.779999,1.0
76157020,-2.895473,-2.9728644,29.775,1.0
76167718,-2.8941433,-2.9714012,29.755,1.0
76178605,-2.8931117,-2.970403,29.76,1.0
76189366,-2.8924515,-2.9698477,29.785,1.0
76200118,-2.8920963,-2.969336,29.755,1.0
76210824,-2.8919864,-2.9693456,29.779999,1.0
76221541,-2.8920674,-2.9693298,29.765,1.0
76232273,-2.892292,-2.969585,29.769999,1.0
76243071,-2.8925097,-2.969833,29.775,1.0
76253767,-2.8924942,-2.9699883,29.81,1.0
76264462,-2.8923006,-2.9695446,29.76,1.0
76275160,-2.8921976,-2.9696777,29.804998,1.0
76285866,-2.8922772,-2.9697104,29.795,1.0
76296570,-2.8924947,-2.9698846,29.785,1.0
76307324,-2.8928106,-2.9701111,29.765,1.0
76318120,-2.8931918,-2.9704287,29.75,1.0
76328818,-2.8936114,-2.9709985,29.785,1.0
76339528,-2.8940473,-2.9714706,29.789999,1.0
76350222,-2.894482,-2.9719167,29.789999,1.0
76361115,-2.894902,-2.9722989,29.779999,1.0
76371809,-2.8952975,-2.972705,29.779999,1.0
76382510,-2.895662,-2.9729567,29.755,1.0
76393219,-2.8959918,-2.973521,29.795,1.0
76403914,-2.8962839,-2.973698,29.769999,1.0
76414650,-2.8965385,-2.973935,29.765,1.0
76425458,-2.8967564,-2.9742079,29.775,1.0
76436154,-2.8969393,-2.9744446,29.785,1.0
76446856,-2.8970892,-2.9745002,29.765,1.0
76457655,-2.8972101,-2.9747908,29.795,1.0
76468356,-2.8973043,-2.9750106,29.82,1.0
76479107,-2.8973753,-2.9750097,29.804998,1.0
76489822,-2.8974261,-2.974939,29.779999,1.0
76500595,-2.89735,-2.97491,29.789999,1.0
76511294,-2.8969586,-2.9745488,29.8,1.0
76522013,-2.8962276,-2.9737248,29.785,1.0
76532731,-2.8953693,-2.972917,29.8,1.0
76543619,-2.894661,-2.972067,29.775,1.0
76554314,-2.8941996,-2.97152,29.76,1.0
76565037,-2.8939424,-2.9714031,29.789999,1.0
76575735,-2.8938491,-2.9713333,29.804998,1.0
76586434,-2.893995,-2.9711888,29.744999,1.0
76597146,-2.89454,-2.9718955,29.775,1.0
76607943,-2.8953736,-2.9727762,29.779999,1.0
76618660,-2.8961813,-2.9735315,29.765,1.0
76629364,-2.896834,-2.9741006,29.74,1.0
76640076,-2.8973472,-2.9748242,29.779999,1.0
76650781,-2.8977377,-2.9751515,29.765,1.0
76661485,-2.8979123,-2.9754043,29.779999,1.0
76672193,-2.897695,-2.975206,29.785,1.0
76682927,-2.8970747,-2.9745247,29.769999,1.0
76693686,-2.8961644,-2.9736392,29.779999,1.0
76704382,-2.8950608,-2.9724324,29.765,1.0
76715103,-2.8938427,-2.9711328,29.755,1.0
76725877,-2.8925753,-2.969905,29.769999,1.0
76736591,-2.891199,-2.9682152,29.715,1.0
76747289,-2.8895612,-2.966803,29.769999,1.0
76758063,-2.8876634,-2.9647079,29.74,1.0
76768856,-2.8857358,-2.9629734,29.789999,1.0
76779561,-2.8840663,-2.9610393,29.744999,1.0
76790462,-2.882869,-2.959805,29.75,1.0
76801166,-2.8821814,-2.9591725,29.765,1.0
76811865,-2.8817956,-2.958874,29.785,1.0
76822558,-2.881653,-2.9586053,29.76,1.0
76833252,-2.881812,-2.9588258,29.765,1.0
76843961,-2.8818648,-2.9589531,29.779999,1.0
76854664,-2.8811698,-2.9580688,29.744999,1.0
76865415,-2.8794801,-2.9566267,29.804998,1.0
76876141,-2.8770797,-2.9539185,29.755,1.0
76886883,-2.8744304,-2.9512956,29.775,1.0
76897578,-2.8716724,-2.9484348,29.775,1.0
76908287,-2.8684714,-2.945197,29.785,1.0
76919064,-2.8644726,-2.9411156,29.789999,1.0
76929756,-2.859984,-2.9364097,29.769999,1.0
76940484,-2.8561518,-2.932451,29.765,1.0
76951180,-2.854062,-2.9303477,29.769999,1.0
76961878,-2.8537104,-2.9300594,29.785,1.0
76972613,-2.854143,-2.930455,29.775,1.0
76983317,-2.8543794,-2.930698,29.775,1.0
76994024,-2.8542347,-2.930531,29.775,1.0
77004738,-2.8539147,-2.9303718,29.81,1.0
77573318,-2.8579772,-2.9344473,29.785,1.0
77584074,-2.8606722,-2.937287,29.8,1.0
77605570,-2.8658721,-2.9424233,29.75,1.0
77616287,-2.8680265,-2.9448056,29.785,1.0
77627010,-2.8698158,-2.9465456,29.765,1.0
77637721,-2.8713808,-2.9483716,29.81,1.0
77648646,-2.8726146,-2.949379,29.765,1.0
77659382,-2.873556,-2.9503214,29.76,1.0
77670093,-2.874466,-2.9513288,29.775,1.0
77680866,-2.8754346,-2.9521768,29.744999,1.0
77691614,-2.876418,-2.95326,29.76,1.0
77702417,-2.8773816,-2.9544306,29.795,1.0
77713138,-2.8783,-2.955325,29.785,1.0
77723837,-2.879155,-2.956154,29.775,1.0
77734536,-2.879934,-2.9570029,29.785,1.0
77745453,-2.8805208,-2.9574099,29.744999,1.0
77756164,-2.88072,-2.9577842,29.785,1.0
77766874,-2.8806157,-2.9576037,29.769999,1.0
77777569,-2.8805044,-2.957563,29.785,1.0
77788351,-2.8805015,-2.9576576,29.804998,1.0
77799055,-2.8805823,-2.9577768,29.804998,1.0
77809817,-2.8807242,-2.9578006,29.779999,1.0
77820560,-2.8809085,-2.9580386,29.789999,1.0
77831266,-2.88112,-2.9581826,29.775,1.0
77842005,-2.881345,-2.958609,29.814999,1.0
77852697,-2.8813522,-2.9585674,29.804998,1.0
77863427,-2.8806384,-2.957798,29.804998,1.0
77874127,-2.8791723,-2.9561462,29.775,1.0
77884890,-2.8775077,-2.954559,29.8,1.0
77895672,-2.8760755,-2.9530156,29.785,1.0
77906433,-2.8750885,-2.952075,29.8,1.0
77917144,-2.8745844,-2.9513736,29.76,1.0
77928014,-2.8744667,-2.9513748,29.785,1.0
77938718,-2.8745372,-2.9512522,29.744999,1.0
77949470,-2.8745277,-2.9515104,29.8,1.0
77960164,-2.8744574,-2.951365,29.785,1.0
77970885,-2.8744535,-2.951473,29.804998,1.0
77981594,-2.8745008,-2.9514241,29.785,1.0
77992290,-2.8746967,-2.9516497,29.789999,1.0
78003043,-2.8751113,-2.9521484,29.804998,1.0
78013743,-2.8756807,-2.9527328,29.804998,1.0
78024438,-2.8764613,-2.953509,29.804998,1.0
78035150,-2.8776011,-2.9545574,29.779999,1.0
78045890,-2.879091,-2.9561362,29.789999,1.0
78056631,-2.8808017,-2.9579902,29.81,1.0
78067321,-2.8826277,-2.9598894,29.814999,1.0
78078070,-2.8844845,-2.9618692,29.83,1.0
78088783,-2.8863065,-2.963251,29.73,1.0
78099482,-2.8880446,-2.9651089,29.744999,1.0
78110186,-2.8897748,-2.96691,29.75,1.0
78120932,-2.8915546,-2.9689088,29.785,1.0
78131636,-2.8933167,-2.970865,29.814999,1.0
78142327,-2.8951201,-2.9725697,29.785,1.0
78153178,-2.8968983,-2.974366,29.785,1.0
78163883,-2.8984916,-2.9759035,29.765,1.0
78174584,-2.8998935,-2.9772937,29.755,1.0
78185291,-2.9009945,-2.978572,29.785,1.0
78196093,-2.9017212,-2.9793432,29.785,1.0
78206789,-2.9021387,-2.9797719,29.785,1.0
78217492,-2.902306,-2.9798946,29.775,1.0
78228198,-2.902387,-2.9799776,29.775,1.0
78238919,-2.9025085,-2.9803238,29.82,1.0
78249624,-2.902548,-2.9804137,29.83,1.0
78260515,-2.9024131,-2.9800537,29.785,1.0
78271211,-2.902149,-2.9798937,29.804998,1.0
78281971,-2.9017942,-2.9795542,29.81,1.0
78292674,-2.9013808,-2.9790802,29.8,1.0
78303434,-2.9009352,-2.9786475,29.804998,1.0
78314132,-2.9005895,-2.9782615,29.804998,1.0
78324828,-2.9004407,-2.9779859,29.779999,1.0
78335621,-2.9003377,-2.978052,29.814999,1.0
78346371,-2.9001627,-2.9776266,29.765,1.0
78357068,-2.9000483,-2.977632,29.789999,1.0
78367765,-2.9000936,-2.97768,29.785,1.0
78378650,-2.9001498,-2.977836,29.804998,1.0
78389440,-2.900103,-2.9776158,29.769999,1.0
78400132,-2.8998685,-2.9773748,29.769999,1.0
78410835,-2.8993874,-2.9769795,29.789999,1.0
78421543,-2.898732,-2.9762325,29.775,1.0
78432274,-2.8978539,-2.9753947,29.785,1.0
78443068,-2.8967216,-2.974355,29.81,1.0
78453770,-2.8954303,-2.9730046,29.804998,1.0
78464465,-2.894057,-2.9714963,29.785,1.0
78475203,-2.892664,-2.9700243,29.775,1.0
78486084,-2.891299,-2.9687457,29.8,1.0
78496792,-2.8899982,-2.9672627,29.769999,1.0
78507550,-2.8886764,-2.9661016,29.81,1.0
78518243,-2.8870485,-2.9643075,29.785,1.0
78528970,-2.8850152,-2.9622517,29.804998,1.0
78539693,-2.8827336,-2.9600067,29.824999,1.0
78550435,-2.8804438,-2.957485,29.789999,1.0
78561155,-2.8784404,-2.9554033,29.785,1.0
78571861,-2.8766084,-2.9536197,29.804998,1.0
78582554,-2.874632,-2.9515903,29.804998,1.0
78593253,-2.8723838,-2.94909,29.755,1.0
78603967,-2.869886,-2.9466712,29.785,1.0
78614664,-2.8674967,-2.9441698,29.775,1.0
78625433,-2.8653765,-2.9420412,29.785,1.0
78636183,-2.8634176,-2.94003,29.785,1.0
78646883,-2.8618665,-2.9384131,29.779999,1.0
78657585,-2.8608997,-2.9373717,29.769999,1.0
78668291,-2.8604114,-2.9369192,29.779999,1.0
78679014,-2.8601933,-2.936695,29.779999,1.0
78689730,-2.8600774,-2.9365895,29.785,1.0
78700469,-2.860155,-2.9367661,29.804998,1.0
78711186,-2.86049,-2.9371586,29.814999,1.0
78721938,-2.8611236,-2.9377606,29.804998,1.0
78732639,-2.8620768,-2.9385693,29.769999,1.0
78743350,-2.863245,-2.9398417,29.785,1.0
78754054,-2.864541,-2.9414122,29.83,1.0
78764751,-2.865783,-2.9425178,29.795,1.0
78775614,-2.8669446,-2.943662,29.785,1.0
78786341,-2.8681192,-2.9448922,29.789999,1.0
78797062,-2.8690448,-2.9458184,29.785,1.0
78807931,-2.8691947,-2.946095,29.804998,1.0
78818650,-2.868189,-2.945014,29.795,1.0
78829401,-2.8665519,-2.9432354,29.775,1.0
78840092,-2.8651495,-2.9418688,29.789999,1.0
78850788,-2.8640826,-2.9407613,29.795,1.0
78861494,-2.863083,-2.9396133,29.769999,1.0
78872201,-2.8619432,-2.938492,29.779999,1.0
78882947,-2.8607316,-2.937272,29.785,1.0
78893643,-2.8593912,-2.9359927,29.804998,1.0
78904347,-2.857882,-2.9342978,29.775,1.0
78915098,-2.8566256,-2.933062,29.789999,1.0
78925843,-2.8556023,-2.9320598,29.8,1.0
78936549,-2.8546777,-2.9308445,29.744999,1.0
78947243,-2.8539698,-2.9302144,29.765,1.0
78957960,-2.8532262,-2.9293785,29.75,1.0
78968672,-2.8520308,-2.9283433,29.779999,1.0
78979368,-2.8500783,-2.9263628,29.785,1.0
78990071,-2.8476057,-2.923848,29.789999,1.0
79000769,-2.845147,-2.9213955,29.804998,1.0
79011470,-2.8431122,-2.9192712,29.8,1.0
79022200,-2.8419158,-2.918019,29.795,1.0
79032979,-2.8412871,-2.917301,29.779999,1.0
79043684,-2.8404393,-2.9163582,29.765,1.0
79054378,-2.838888,-2.9149337,29.8,1.0
79065088,-2.836845,-2.9126918,29.769999,1.0
79075823,-2.835051,-2.9108515,29.765,1.0
79086520,-2.8338423,-2.9097064,29.785,1.0
79097257,-2.8333457,-2.9090524,29.755,1.0
79108077,-2.8335226,-2.909354,29.779999,1.0
79118879,-2.8337595,-2.9096851,29.804998,1.0
79129581,-2.8335843,-2.9095292,29.81,1.0
79140479,-2.8328738,-2.9086795,29.785,1.0
79151215,-2.8318877,-2.907667,29.785,1.0
79161952,-2.831059,-2.906816,29.785,1.0
79172675,-2.8307154,-2.9064224,29.775,1.0
79183368,-2.8310928,-2.9068823,29.789999,1.0
79194112,-2.83201,-2.9077036,29.765,1.0
79204910,-2.8334246,-2.9092762,29.789999,1.0
79215622,-2.8351748,-2.9110494,29.785,1.0
79226374,-2.8366773,-2.9125679,29.779999,1.0
79237073,-2.8377175,-2.9135532,29.765,1.0
79247795,-2.8382595,-2.91435,29.814999,1.0
79258676,-2.8382902,-2.9142375,29.785,1.0
79269395,-2.8377037,-2.9137793,29.814999,1.0
79280085,-2.8363247,-2.9121265,29.765,1.0
79290794,-2.834268,-2.910015,29.765,1.0
79301507,-2.8318684,-2.9075992,29.775,1.0
79312223,-2.8295054,-2.905317,29.804998,1.0
79323064,-2.8273568,-2.9030626,29.795,1.0
79333764,-2.825779,-2.9014618,29.804998,1.0
79344462,-2.82514,-2.9008057,29.804998,1.0
79355166,-2.8254666,-2.9011889,29.814999,1.0
79365946,-2.8267484,-2.9023614,29.785,1.0
79376656,-2.8286078,-2.9042706,29.785,1.0
79387395,-2.8306248,-2.9064853,29.814999,1.0
79398138,-2.8323612,-2.908183,29.795,1.0
79408839,-2.833152,-2.9089713,29.789999,1.0
79419686,-2.8330824,-2.9089236,29.795,1.0
79430456,-2.832468,-2.9084606,29.83,1.0
79441219,-2.8313427,-2.9070692,29.779999,1.0
79451913,-2.8299735,-2.9056873,29.785,1.0
79462656,-2.8284597,-2.904181,29.795,1.0
79473361,-2.8267696,-2.9024935,29.804998,1.0
79484065,-2.8248837,-2.900581,29.81,1.0
79494827,-2.8230195,-2.8984692,29.765,1.0
79505598,-2.8219085,-2.8974721,29.795,1.0
79516298,-2.8219757,-2.8974934,29.785,1.0
79527008,-2.8231692,-2.8987668,29.795,1.0
79537883,-2.8254132,-2.9009268,29.765,1.0
79548737,-2.8282764,-2.904202,29.835,1.0
79559446,-2.8311844,-2.9068716,29.775,1.0
79570147,-2.8341477,-2.909938,29.779999,1.0
79580853,-2.8373969,-2.9133701,29.8,1.0
79591552,-2.8409874,-2.9167922,29.744999,1.0
79602245,-2.8448374,-2.9209137,29.779999,1.0
79613062,-2.8486516,-2.9249158,29.8,1.0
79623762,-2.8520947,-2.928306,29.769999,1.0
79634462,-2.8548102,-2.9312634,29.804998,1.0
79645175,-2.8565497,-2.9330015,29.795,1.0
79655870,-2.8571532,-2.933669,29.804998,1.0
79666563,-2.856421,-2.9328206,29.785,1.0
79677257,-2.8544645,-2.9306765,29.76,1.0
79687989,-2.8517408,-2.9279041,29.765,1.0
79698738,-2.848961,-2.925147,29.785,1.0
79709432,-2.8466733,-2.9228942,29.804998,1.0
79848837,-2.8218007,-2.8975697,29.84,1.0
79859544,-2.8214736,-2.8968754,29.765,1.0
79891850,-2.817297,-2.8926609,29.785,1.0
79902545,-2.8147438,-2.8900633,29.789999,1.0
79913327,-2.8113217,-2.8865972,29.8,1.0
79924028,-2.8073385,-2.8822694,29.75,1.0
79934741,-2.8031604,-2.8781672,29.785,1.0
79945443,-2.798962,-2.8739276,29.8,1.0
79956150,-2.7947645,-2.8695707,29.789999,1.0
79966847,-2.7910404,-2.865794,29.8,1.0
79977540,-2.7882538,-2.8628857,29.789999,1.0
79988372,-2.786389,-2.861018,29.8,1.0
79999087,-2.7848313,-2.8592722,29.775,1.0
80009796,-2.7825255,-2.8569524,29.785,1.0
80020492,-2.7791429,-2.8534791,29.785,1.0
80031188,-2.7750375,-2.849358,29.804998,1.0
80041966,-2.7701576,-2.8442535,29.785,1.0
80052662,-2.7641397,-2.8381577,29.804998,1.0
80063377,-2.7573144,-2.8309627,29.765,1.0
80074074,-2.750773,-2.8243167,29.779999,1.0
80084825,-2.745466,-2.818961,29.8,1.0
80095580,-2.7419727,-2.8153312,29.789999,1.0
80106315,-2.7404485,-2.813859,29.81,1.0
80117028,-2.7407155,-2.8139703,29.775,1.0
80127771,-2.742579,-2.8158836,29.775,1.0
80138628,-2.745837,-2.8193686,29.804998,1.0
80149329,-2.7506368,-2.824157,29.775,1.0
80160018,-2.7572708,-2.830889,29.769999,1.0
80170729,-2.7649736,-2.8389614,29.804998,1.0
80181446,-2.772323,-2.8465307,29.81,1.0
80192140,-2.7790549,-2.8532548,29.769999,1.0
80202967,-2.7859058,-2.8605483,29.824999,1.0
80213662,-2.7930872,-2.8677702,29.775,1.0
80224357,-2.8002913,-2.8752382,29.789999,1.0
80235060,-2.8075118,-2.882628,29.785,1.0
80245822,-2.8144014,-2.8897734,29.8,1.0
80256566,-2.8200288,-2.8955514,29.8,1.0
80278062,-2.8259995,-2.9016895,29.8,1.0
80288895,-2.8259845,-2.90177,29.82,1.0
80299592,-2.8241644,-2.8997097,29.779999,1.0
80310296,-2.8206756,-2.8960083,29.755,1.0
80321143,-2.8151062,-2.8904867,29.8,1.0
80331846,-2.8073096,-2.8823864,29.779999,1.0
80342553,-2.798033,-2.8728616,29.779999,1.0
80353259,-2.7882392,-2.8629003,29.8,1.0
80364007,-2.77846,-2.8529298,29.814999,1.0
80374723,-2.7687612,-2.842924,29.804998,1.0
80385492,-2.758843,-2.8326232,29.779999,1.0
80396193,-2.748826,-2.8223853,29.789999,1.0
80406892,-2.7392724,-2.8125992,29.795,1.0
80417611,-2.7307208,-2.8038416,29.8,1.0
80428331,-2.7236745,-2.7965825,29.785,1.0
80439049,-2.7183604,-2.791218,29.804998,1.0
80449757,-2.7148974,-2.787409,29.75,1.0
80460461,-2.7133186,-2.7859492,29.785,1.0
80471197,-2.71347,-2.7861965,29.804998,1.0
80481896,-2.7150595,-2.7877252,29.789999,1.0
80492598,-2.717464,-2.790217,29.795,1.0
80503294,-2.7199461,-2.7926273,29.765,1.0
80514006,-2.7221751,-2.794916,29.765,1.0
80524751,-2.7243748,-2.7971976,29.769999,1.0
80535486,-2.726834,-2.7998312,29.795,1.0
80546188,-2.7296484,-2.8026745,29.785,1.0
80556891,-2.7328787,-2.8059447,29.775,1.0
80567633,-2.7364419,-2.8096497,29.785,1.0
80578332,-2.740146,-2.8135157,29.8,1.0
80589073,-2.7438414,-2.8171704,29.769999,1.0
80599779,-2.7474134,-2.821001,29.804998,1.0
80610536,-2.7507787,-2.8243632,29.785,1.0
80621233,-2.7538803,-2.8275478,29.785,1.0
80631938,-2.7566824,-2.830612,29.824999,1.0
80642659,-2.7591684,-2.8330054,29.785,1.0
80653370,-2.7614498,-2.8354414,29.804998,1.0
80664067,-2.763734,-2.8376932,29.785,1.0
80674812,-2.7660644,-2.8402965,29.83,1.0
80685509,-2.7683566,-2.8426974,29.84,1.0
80696296,-2.7706628,-2.8446887,29.765,1.0
80707072,-2.7730222,-2.8472993,29.804998,1.0
80717936,-2.775233,-2.8494046,29.769999,1.0
80728642,-2.777146,-2.8514867,29.795,1.0
80739351,-2.7786565,-2.8530798,29.795,1.0
80750044,-2.7793522,-2.8537707,29.789999,1.0
80760748,-2.7785985,-2.852926,29.775,1.0
80771524,-2.7762976,-2.850587,29.779999,1.0
80782214,-2.7731102,-2.8473377,29.785,1.0
80792998,-2.7692254,-2.8432786,29.769999,1.0
80803694,-2.7641163,-2.8381453,29.8,1.0
80814403,-2.7582226,-2.832047,29.789999,1.0
80825109,-2.7528336,-2.8265836,29.804998,1.0
80835843,-2.7482324,-2.8217661,29.785,1.0
80846540,-2.7439148,-2.8172867,29.775,1.0
80857240,-2.739367,-2.8127167,29.795,1.0
80868003,-2.7343156,-2.8073452,29.755,1.0
80878724,-2.728916,-2.8019397,29.785,1.0
80889478,-2.723063,-2.7960227,29.804998,1.0
80900168,-2.7165713,-2.7892363,29.789999,1.0
80910865,-2.7097874,-2.782202,29.775,1.0
80921557,-2.7028687,-2.7750986,29.775,1.0
80932255,-2.6954668,-2.7676814,29.814999,1.0
80943031,-2.6874444,-2.759262,29.775,1.0
80953729,-2.6784747,-2.750098,29.785,1.0
80964424,-2.667491,-2.738851,29.785,1.0
80975142,-2.6538386,-2.7248335,29.785,1.0
80985880,-2.6381614,-2.7087142,29.779999,1.0
80996593,-2.6218655,-2.6919603,29.775,1.0
81007306,-2.6063128,-2.6760583,29.789999,1.0
81018017,-2.5923007,-2.6617117,29.785,1.0
81028744,-2.5797887,-2.648952,29.804998,1.0
81039460,-2.568822,-2.6376042,29.785,1.0
81050153,-2.5603855,-2.6288986,29.775,1.0
81060846,-2.5552905,-2.623797,29.804998,1.0
81071552,-2.5534275,-2.6218183,29.795,1.0
81082324,-2.5544791,-2.6229627,29.81,1.0
81093069,-2.558227,-2.6267464,29.795,1.0
81103769,-2.5645356,-2.6332455,29.8,1.0
81114468,-2.573212,-2.6421328,29.795,1.0
81125176,-2.5830364,-2.6521533,29.785,1.0
81135883,-2.592185,-2.6617224,29.824999,1.0
81146598,-2.5999157,-2.6697044,29.835,1.0
81157298,-2.605956,-2.6758628,29.824999,1.0
81168002,-2.6099076,-2.6796772,29.769999,1.0
81178729,-2.6116529,-2.6814911,29.775,1.0
81189426,-2.6115348,-2.6814375,29.785,1.0
81200125,-2.610849,-2.680711,29.779999,1.0
81210833,-2.6108494,-2.6806896,29.775,1.0
81221553,-2.6118648,-2.6818647,29.804998,1.0
81232289,-2.6135027,-2.683458,29.785,1.0
81243067,-2.6149552,-2.684883,29.769999,1.0
81253822,-2.6154878,-2.6854386,29.775,1.0
81264518,-2.6150556,-2.6850615,29.789999,1.0
81275242,-2.6138973,-2.6838276,29.779999,1.0
81285947,-2.6117296,-2.6818235,29.83,1.0
81296668,-2.608365,-2.678004,29.755,1.0
81307431,-2.6038165,-2.6734664,29.785,1.0
81318127,-2.598129,-2.6676047,29.779999,1.0
81328826,-2.5913692,-2.6608398,29.82,1.0
81339571,-2.5833724,-2.6526065,29.814999,1.0
81350466,-2.5736723,-2.6425192,29.785,1.0
81361170,-2.5622027,-2.6308515,29.81,1.0
81371863,-2.549959,-2.6181283,29.775,1.0
81382591,-2.5381143,-2.606182,29.824999,1.0
81393298,-2.5270662,-2.5947518,29.804998,1.0
81404056,-2.5164657,-2.5837631,29.785,1.0
81414757,-2.5064077,-2.5736063,29.824999,1.0
81425469,-2.4972055,-2.5640936,29.81,1.0
81436171,-2.488434,-2.555003,29.789999,1.0
81446877,-2.480394,-2.5468106,29.804998,1.0
81457569,-2.4743266,-2.540493,29.775,1.0
81468277,-2.471132,-2.5373385,29.804998,1.0
81479079,-2.47115,-2.5373154,29.795,1.0
81489787,-2.4742734,-2.5406058,29.814999,1.0
81500484,-2.4799263,-2.5463684,29.804998,1.0
81511179,-2.48694,-2.553615,29.814999,1.0
81521929,-2.493996,-2.5607545,29.789999,1.0
81532630,-2.5004768,-2.56743,29.795,1.0
81543324,-2.506315,-2.5734458,29.8,1.0
81554170,-2.5113516,-2.5785747,29.789999,1.0
81564903,-2.5158725,-2.5832038,29.789999,1.0
81575609,-2.5206172,-2.588204,29.82,1.0
81586340,-2.5257616,-2.5932934,29.775,1.0
81597175,-2.5312998,-2.5991087,29.804998,1.0
81607945,-2.5382197,-2.6060631,29.769999,1.0
81618681,-2.5472233,-2.615351,29.779999,1.0
81629418,-2.5576437,-2.6261797,29.81,1.0
81640112,-2.5694232,-2.6381662,29.785,1.0
81650828,-2.583335,-2.652494,29.795,1.0
81661524,-2.5991414,-2.6686795,29.785,1.0
81672325,-2.6154952,-2.6854432,29.775,1.0
81683069,-2.631245,-2.7017922,29.814999,1.0
81693784,-2.6456676,-2.7164671,29.785,1.0
81704480,-2.6582642,-2.7293558,29.775,1.0
81715183,-2.668957,-2.740425,29.795,1.0
81726109,-2.6775088,-2.7491472,29.785,1.0
81736885,-2.683093,-2.7549036,29.789999,1.0
81747581,-2.6848156,-2.7566495,29.785,1.0
81758285,-2.682461,-2.7543225,29.804998,1.0
81769038,-2.676453,-2.7481537,29.804998,1.0
81779965,-2.6678138,-2.7392025,29.785,1.0
81790685,-2.658005,-2.7292216,29.804998,1.0
81801447,-2.6480727,-2.7189107,29.779999,1.0
81812177,-2.639074,-2.709649,29.775,1.0
81822984,-2.6319232,-2.7022848,29.769999,1.0
81833717,-2.626419,-2.6966913,29.779999,1.0
81844415,-2.6222322,-2.692348,29.769999,1.0
81855133,-2.6197987,-2.689916,29.785,1.0
81865863,-2.6193972,-2.6895037,29.785,1.0
81876575,-2.6200778,-2.6902914,29.804998,1.0
81887398,-2.6207137,-2.6907444,29.76,1.0
81898097,-2.6204424,-2.690636,29.804998,1.0
81908799,-2.6182656,-2.6884675,29.82,1.0
81919555,-2.6146939,-2.6847334,29.804998,1.0
81930471,-2.6105266,-2.680366,29.785,1.0
81941254,-2.6046827,-2.674549,29.824999,1.0
81951998,-2.5962515,-2.6659133,29.83,1.0
81962713,-2.5857074,-2.6548457,29.775,1.0
81973406,-2.573599,-2.64261,29.82,1.0
81984177,-2.5612674,-2.6298823,29.804998,1.0
83228746,-2.8269517,-2.9027872,29.824999,1.0
84118699,-2.827961,-2.9035718,29.765,1.0
84129437,-2.8424249,-2.9186873,29.82,1.0
84140131,-2.8568559,-2.93336,29.789999,1.0
84150861,-2.8693514,-2.946166,29.785,1.0
84161565,-2.879539,-2.9565532,29.769999,1.0
84172293,-2.8870995,-2.9643664,29.785,1.0
84183090,-2.8919816,-2.9693792,29.785,1.0
84193861,-2.8947785,-2.9723003,29.795,1.0
84204638,-2.8966665,-2.9742389,29.795,1.0
84215436,-2.8990116,-2.976647,29.795,1.0
84226132,-2.902512,-2.980393,29.824999,1.0
84236894,-2.9066749,-2.984495,29.789999,1.0
84247588,-2.9106624,-2.9887373,29.82,1.0
84258290,-2.913734,-2.9916193,29.765,1.0
84269064,-2.9153523,-2.9933553,29.779999,1.0
84279759,-2.9160278,-2.9941227,29.795,1.0
84290500,-2.916726,-2.9949007,29.81,1.0
84301199,-2.9179676,-2.9962993,29.835,1.0
84311896,-2.9200222,-2.9980628,29.765,1.0
84322628,-2.9226344,-3.001042,29.824999,1.0
84333340,-2.9249358,-3.0033305,29.81,1.0
84344051,-2.9262726,-3.0045555,29.785,1.0
84354749,-2.9265027,-3.004767,29.779999,1.0
84365454,-2.9257689,-3.003939,29.765,1.0
84376173,-2.9242098,-3.0025861,29.814999,1.0
84386888,-2.9221756,-3.0003736,29.789999,1.0
84397603,-2.9204962,-2.9987605,29.82,1.0
84408309,-2.9196877,-2.9978561,29.804998,1.0
84419019,-2.919572,-2.997688,29.795,1.0
84429725,-2.9197724,-2.9981163,29.84,1.0
84440462,-2.920318,-2.9985032,29.804998,1.0
84451165,-2.921438,-2.999646,29.804998,1.0
84461894,-2.9230719,-3.001423,29.824999,1.0
84472605,-2.924939,-3.0032158,29.8,1.0
84483325,-2.9263792,-3.0046947,29.8,1.0
84494032,-2.9269037,-3.005159,29.785,1.0
84504778,-2.9261646,-3.004622,29.82,1.0
84515519,-2.9232795,-3.001461,29.779999,1.0
84526221,-2.917851,-2.995838,29.769999,1.0
84536945,-2.9105222,-2.988264,29.76,1.0
84547642,-2.9021723,-2.9799125,29.804998,1.0
84558388,-2.893401,-2.9709039,29.814999,1.0
84569126,-2.8844624,-2.9616523,29.8,1.0
84579906,-2.8756688,-2.9526722,29.81,1.0
84590614,-2.867703,-2.9443715,29.785,1.0
84601330,-2.8611789,-2.9376972,29.789999,1.0
84612035,-2.8565269,-2.9328737,29.775,1.0
84622745,-2.8534603,-2.9297736,29.785,1.0
84633656,-2.8510356,-2.9274774,29.824999,1.0
84644362,-2.8492913,-2.9256864,29.824999,1.0
84655065,-2.8487961,-2.9251537,29.82,1.0
84665785,-2.8497214,-2.9261324,29.82,1.0
84676498,-2.8522646,-2.9287684,29.824999,1.0
84687228,-2.8561878,-2.9328206,29.83,1.0
84697999,-2.859812,-2.9363241,29.785,1.0
84708696,-2.8608637,-2.9376948,29.845,1.0
84719422,-2.8589096,-2.9354427,29.795,1.0
84730131,-2.8550446,-2.9315948,29.82,1.0
84740935,-2.8503902,-2.9267676,29.81,1.0
84751674,-2.8468423,-2.9231005,29.804998,1.0
84762398,-2.8468356,-2.9229245,29.769999,1.0
84773137,-2.8507736,-2.9271512,29.82,1.0
84783834,-2.8560333,-2.9324794,29.804998,1.0
84794532,-2.8599021,-2.936452,29.804998,1.0
84805243,-2.8615842,-2.9383242,29.835,1.0
84816148,-2.8609838,-2.9377809,29.849998,1.0
84826863,-2.858206,-2.9347103,29.804998,1.0
84837560,-2.8535066,-2.9300964,29.83,1.0
84848335,-2.8470252,-2.923248,29.789999,1.0
84859093,-2.8395941,-2.9155462,29.775,1.0
84869800,-2.8330116,-2.9090276,29.824999,1.0
84880534,-2.8278508,-2.9037771,29.83,1.0
84891232,-2.822362,-2.8980215,29.804998,1.0
84901948,-2.8154297,-2.8910706,29.84,1.0
84912694,-2.807825,-2.8831663,29.82,1.0
84923397,-2.800163,-2.8752275,29.804998,1.0
84934107,-2.7928064,-2.8675222,29.769999,1.0
84944805,-2.7864854,-2.8613155,29.83,1.0
84955588,-2.781502,-2.8560333,29.795,1.0
84966298,-2.7779331,-2.8524156,29.804998,1.0
84977020,-2.7760224,-2.8505006,29.814999,1.0
84987712,-2.775444,-2.8499067,29.814999,1.0
84998407,-2.7751002,-2.8493662,29.789999,1.0
85009196,-2.7740264,-2.8483574,29.81,1.0
85019965,-2.772196,-2.8462665,29.765,1.0
85030683,-2.769842,-2.84392,29.779999,1.0
85041384,-2.7666976,-2.8407457,29.789999,1.0
85052077,-2.7625816,-2.836496,29.785,1.0
85062919,-2.7577298,-2.8315144,29.785,1.0
85073727,-2.7521136,-2.8256776,29.769999,1.0
85084424,-2.7452679,-2.8186727,29.775,1.0
85095153,-2.737335,-2.8106887,29.814999,1.0
85105881,-2.7291565,-2.8022678,29.81,1.0
85116589,-2.721157,-2.793985,29.795,1.0
85127386,-2.7138944,-2.786643,29.82,1.0
85138092,-2.7087207,-2.7812846,29.81,1.0
85148795,-2.7067318,-2.7792711,29.804998,1.0
85159491,-2.7091362,-2.78174,29.804998,1.0
85170182,-2.7170546,-2.7899165,29.814999,1.0
85180889,-2.730547,-2.8037014,29.8,1.0
85191595,-2.748974,-2.822459,29.765,1.0
85202387,-2.7699323,-2.8441298,29.804998,1.0
85213120,-2.7891273,-2.8638628,29.81,1.0
85223909,-2.803529,-2.8786266,29.804998,1.0
85234669,-2.8133976,-2.8888547,29.824999,1.0
85245489,-2.820308,-2.8957834,29.789999,1.0
85256225,-2.825427,-2.9011183,29.804998,1.0
85267008,-2.82981,-2.9056907,29.82,1.0
85277711,-2.8340557,-2.9099782,29.804998,1.0
85288425,-2.8380632,-2.914069,29.8,1.0
85299182,-2.8426611,-2.9189827,29.84,1.0
85309969,-2.8501403,-2.9265745,29.814999,1.0
85320675,-2.8626966,-2.939395,29.8,1.0
85331375,-2.8814595,-2.9587092,29.81,1.0
85342088,-2.9041674,-2.9820755,29.82,1.0
85352782,-2.9266863,-3.0051732,29.814999,1.0
85363643,-2.9462693,-3.0252807,29.82,1.0
85374341,-2.9604244,-3.039765,29.81,1.0
85385141,-2.9681985,-3.047798,29.82,1.0
85395864,-2.9702322,-3.0497606,29.795,1.0
85406596,-2.9673843,-3.0468364,29.795,1.0
85417292,-2.960768,-3.0402935,29.845,1.0
85428103,-2.9509099,-3.0297956,29.769999,1.0
85438804,-2.937977,-3.0167909,29.824999,1.0
85449501,-2.9221785,-3.0005188,29.814999,1.0
85460219,-2.9044077,-2.9822223,29.804998,1.0
85470915,-2.886298,-2.9635456,29.795,1.0
85481617,-2.869136,-2.9459972,29.81,1.0
85492439,-2.8535664,-2.9301798,29.845,1.0
85503185,-2.8404942,-2.916468,29.785,1.0
85513880,-2.830661,-2.9064674,29.804998,1.0
85524575,-2.8232973,-2.8990264,29.814999,1.0
85535291,-2.8175,-2.8931215,29.824999,1.0
85546246,-2.8141105,-2.8893542,29.765,1.0
85556982,-2.814379,-2.8898447,29.81,1.0
85567684,-2.8176675,-2.8931499,29.795,1.0
85578408,-2.8224795,-2.8979616,29.779999,1.0
85589123,-2.8280747,-2.9038744,29.814999,1.0
85599817,-2.8338642,-2.9095309,29.755,1.0
85610653,-2.839281,-2.9152849,29.795,1.0
85621354,-2.8436818,-2.9199479,29.824999,1.0
85632050,-2.8464956,-2.9225235,29.76,1.0
85642755,-2.8474488,-2.9236927,29.795,1.0
85653457,-2.8461633,-2.922397,29.8,1.0
85664152,-2.8430889,-2.9190717,29.765,1.0
85674984,-2.8386228,-2.9146543,29.8,1.0
85685682,-2.83221,-2.9081202,29.8,1.0
85696428,-2.824607,-2.9001458,29.765,1.0
85707133,-2.8175654,-2.892988,29.779999,1.0
85718017,-2.811855,-2.8871722,29.789999,1.0
85728729,-2.8076885,-2.8829653,29.804998,1.0
85739448,-2.8056352,-2.880857,29.804998,1.0
85750256,-2.8061786,-2.8813674,29.795,1.0
85761180,-2.808693,-2.8840206,29.824999,1.0
85771882,-2.811726,-2.8870876,29.814999,1.0
85782584,-2.8141527,-2.8896267,29.824999,1.0
85793291,-2.8156996,-2.8911674,29.814999,1.0
85804006,-2.817205,-2.89273,29.804998,1.0
85814711,-2.8201032,-2.895706,29.804998,1.0
85825535,-2.824991,-2.9008205,29.824999,1.0
85836257,-2.831579,-2.9074893,29.804998,1.0
85847051,-2.8398135,-2.9160647,29.83,1.0
85857920,-2.8490362,-2.9254496,29.824999,1.0
85868632,-2.8571513,-2.93354,29.775,1.0
85879328,-2.863164,-2.9398835,29.81,1.0
85890033,-2.8676078,-2.9444218,29.804998,1.0
85900762,-2.8700488,-2.9470258,29.824999,1.0
85911469,-2.8699925,-2.9468703,29.804998,1.0
85922188,-2.8683598,-2.9451044,29.785,1.0
85932991,-2.86657,-2.9433637,29.804998,1.0
85943689,-2.8657186,-2.9425385,29.814999,1.0
85954389,-2.8659472,-2.94287,29.835,1.0
85965097,-2.8668845,-2.9438393,29.835,1.0
85975824,-2.8682234,-2.9450684,29.804998,1.0
85986517,-2.869494,-2.946373,29.804998,1.0
85997229,-2.8703387,-2.9472404,29.804998,1.0
86007941,-2.8704972,-2.947403,29.804998,1.0
86018654,-2.8693473,-2.946168,29.789999,1.0
86029405,-2.8663387,-2.9430544,29.785,1.0
86040106,-2.861884,-2.9386017,29.81,1.0
86050805,-2.8567898,-2.9333467,29.804998,1.0
86061499,-2.8514729,-2.9277666,29.779999,1.0
86072209,-2.8459244,-2.9220939,29.785,1.0
86083002,-2.8400319,-2.9160488,29.795,1.0
86093700,-2.8342814,-2.910072,29.779999,1.0
86104454,-2.8289313,-2.904507,29.765,1.0
86115151,-2.8234897,-2.8991115,29.804998,1.0
86125869,-2.8181455,-2.893833,29.83,1.0
86136597,-2.8137226,-2.8892674,29.824999,1.0
86147389,-2.810714,-2.886178,29.824999,1.0
86158086,-2.8091125,-2.8844383,29.804998,1.0
86168801,-2.8087544,-2.884142,29.82,1.0
86179497,-2.8097017,-2.8849409,29.8,1.0
86190200,-2.811958,-2.8873055,29.81,1.0
86200904,-2.8154848,-2.8908787,29.8,1.0
86211606,-2.8200955,-2.8957326,29.824999,1.0
86222297,-2.825162,-2.900911,29.82,1.0
86233070,-2.830302,-2.9060693,29.795,1.0
86243768,-2.835786,-2.911796,29.814999,1.0
86254465,-2.8418078,-2.9178345,29.785,1.0
86265176,-2.847824,-2.9240842,29.8,1.0
86275880,-2.8527508,-2.9289737,29.765,1.0
86286576,-2.8556852,-2.9323385,29.824999,1.0
