timestamp,data_rate,rate_multiplier,rate_rx,rate_tx,rate_txerr,type,mode,flow_control,forwarding,mavlink_v2,ftp,streams,_padding0[0],_padding0[1],_padding0[2],_padding0[3],_padding0[4],heartbeats[0].timestamp,heartbeats[0].system_id,heartbeats[0].component_id,heartbeats[0].type,heartbeats[0].state,heartbeats[0]._padding0[0],heartbeats[0]._padding0[1],heartbeats[0]._padding0[2],heartbeats[0]._padding0[3],heartbeats[1].timestamp,heartbeats[1].system_id,heartbeats[1].component_id,heartbeats[1].type,heartbeats[1].state,heartbeats[1]._padding0[0],heartbeats[1]._padding0[1],heartbeats[1]._padding0[2],heartbeats[1]._padding0[3],heartbeats[2].timestamp,heartbeats[2].system_id,heartbeats[2].component_id,heartbeats[2].type,heartbeats[2].state,heartbeats[2]._padding0[0],heartbeats[2]._padding0[1],heartbeats[2]._padding0[2],heartbeats[2]._padding0[3],heartbeats[3].timestamp,heartbeats[3].system_id,heartbeats[3].component_id,heartbeats[3].type,heartbeats[3].state,heartbeats[3]._padding0[0],heartbeats[3]._padding0[1],heartbeats[3]._padding0[2],heartbeats[3]._padding0[3]
69057481,1200.0,0.6396959,0.04170427,1.3087198,0.0,0,0,1,1,1,1,38,0,0,0,0,0,69050572,255,190,6,4,0,0,0,0,0,0,0,0,0,0,0,0,0,0,0,0,0,0,0,0,0,0,0,0,0,0,0,0,0,0,0
70059297,1200.0,0.6396959,0.041854095,0.9516824,0.0,0,0,1,1,1,1,38,0,0,0,0,0,69050572,255,190,6,4,0,0,0,0,0,0,0,0,0,0,0,0,0,0,0,0,0,0,0,0,0,0,0,0,0,0,0,0,0,0,0
70069505,1200.0,0.6396959,0.041854095,0.9516824,0.0,0,0,1,1,1,1,38,0,0,0,0,0,70065730,255,190,6,4,0,0,0,0,0,0,0,0,0,0,0,0,0,0,0,0,0,0,0,0,0,0,0,0,0,0,0,0,0,0,0
71141096,1200.0,0.6396959,0.041600633,0.8637084,0.0,0,0,1,1,1,1,38,0,0,0,0,0,71141007,255,190,6,4,0,0,0,0,0,0,0,0,0,0,0,0,0,0,0,0,0,0,0,0,0,0,0,0,0,0,0,0,0,0,0
72061403,1200.0,0.6396959,0.041924573,1.3665415,0.0,0,0,1,1,1,1,38,0,0,0,0,0,72054513,255,190,6,4,0,0,0,0,0,0,0,0,0,0,0,0,0,0,0,0,0,0,0,0,0,0,0,0,0,0,0,0,0,0,0
73071354,1200.0,0.6396959,0.0419937,0.8638704,0.0,0,0,1,1,1,1,38,0,0,0,0,0,73069285,255,190,6,4,0,0,0,0,0,0,0,0,0,0,0,0,0,0,0,0,0,0,0,0,0,0,0,0,0,0,0,0,0,0,0
74001586,1200.0,0.6396959,0.0673238,0.9742149,0.0,0,0,1,1,1,1,38,0,0,0,0,0,73997510,255,190,6,4,0,0,0,0,0,0,0,0,0,0,0,0,0,0,0,0,0,0,0,0,0,0,0,0,0,0,0,0,0,0,0
75051354,1200.0,0.6396959,0.04159198,1.2834097,0.0,0,0,1,1,1,1,38,0,0,0,0,0,75045867,255,190,6,4,0,0,0,0,0,0,0,0,0,0,0,0,0,0,0,0,0,0,0,0,0,0,0,0,0,0,0,0,0,0,0
76081606,1200.0,0.6396959,0.041573495,0.8562161,0.0,0,0,1,1,1,1,38,0,0,0,0,0,76074647,255,190,6,4,0,0,0,0,0,0,0,0,0,0,0,0,0,0,0,0,0,0,0,0,0,0,0,0,0,0,0,0,0,0,0
78061465,1200.0,0.6396959,0.041572303,1.2847822,0.0,0,0,1,1,1,1,38,0,0,0,0,0,78055755,255,190,6,4,0,0,0,0,0,0,0,0,0,0,0,0,0,0,0,0,0,0,0,0,0,0,0,0,0,0,0,0,0,0,0
79081499,1200.0,0.6396959,0.041595936,0.80913997,0.0,0,0,1,1,1,1,38,0,0,0,0,0,79080941,255,190,6,4,0,0,0,0,0,0,0,0,0,0,0,0,0,0,0,0,0,0,0,0,0,0,0,0,0,0,0,0,0,0,0
80011336,1200.0,0.6396959,0.041996095,1.0199051,0.0,0,0,1,1,1,1,38,0,0,0,0,0,80005647,255,190,6,4,0,0,0,0,0,0,0,0,0,0,0,0,0,0,0,0,0,0,0,0,0,0,0,0,0,0,0,0,0,0,0
81086231,1200.0,0.6396959,0.041961145,1.1509342,0.0,0,0,1,1,1,1,38,0,0,0,0,0,81080912,255,190,6,4,0,0,0,0,0,0,0,0,0,0,0,0,0,0,0,0,0,0,0,0,0,0,0,0,0,0,0,0,0,0,0
83011226,1200.0,0.6396959,0.041852884,1.0263921,0.0,0,0,1,1,1,1,38,0,0,0,0,0,83009489,255,190,6,4,0,0,0,0,0,0,0,0,0,0,0,0,0,0,0,0,0,0,0,0,0,0,0,0,0,0,0,0,0,0,0
84071220,1200.0,0.6396959,0.067965336,1.1604081,0.0,0,0,1,1,1,1,38,0,0,0,0,0,84066282,255,190,6,4,0,0,0,0,0,0,0,0,0,0,0,0,0,0,0,0,0,0,0,0,0,0,0,0,0,0,0,0,0,0,0
85021446,1200.0,0.6396959,0.04199899,0.91597795,0.0,0,0,1,1,1,1,38,0,0,0,0,0,85020676,255,190,6,4,0,0,0,0,0,0,0,0,0,0,0,0,0,0,0,0,0,0,0,0,0,0,0,0,0,0,0,0,0,0,0
86021450,1200.0,0.6396959,0.04199735,1.2059239,0.0,0,0,1,1,1,1,38,0,0,0,0,0,86015471,255,190,6,4,0,0,0,0,0,0,0,0,0,0,0,0,0,0,0,0,0,0,0,0,0,0,0,0,0,0,0,0,0,0,0
87081548,1200.0,0.6396959,0.041595813,1.0171167,0.0,0,0,1,1,1,1,38,0,0,0,0,0,87074564,255,190,6,4,0,0,0,0,0,0,0,0,0,0,0,0,0,0,0,0,0,0,0,0,0,0,0,0,0,0,0,0,0,0,0
88022328,1200.0,0.6396959,0.041999325,1.060983,0.0,0,0,1,1,1,1,38,0,0,0,0,0,88015984,255,190,6,4,0,0,0,0,0,0,0,0,0,0,0,0,0,0,0,0,0,0,0,0,0,0,0,0,0,0,0,0,0,0,0
89029463,1200.0,0.6396959,0.04195871,1.061955,0.0,0,0,1,1,1,1,38,0,0,0,0,0,89020956,255,190,6,4,0,0,0,0,0,0,0,0,0,0,0,0,0,0,0,0,0,0,0,0,0,0,0,0,0,0,0,0,0,0,0
90079229,1200.0,0.6396959,0.04170796,1.0129075,0.0,0,0,1,1,1,1,38,0,0,0,0,0,90071313,255,190,6,4,0,0,0,0,0,0,0,0,0,0,0,0,0,0,0,0,0,0,0,0,0,0,0,0,0,0,0,0,0,0,0
90999413,1200.0,0.6396959,0.041999955,1.1289989,0.0,0,0,1,1,1,1,38,0,0,0,0,0,90996309,255,190,6,4,0,0,0,0,0,0,0,0,0,0,0,0,0,0,0,0,0,0,0,0,0,0,0,0,0,0,0,0,0,0,0
92032642,1200.0,0.6396959,0.041904457,1.0685637,0.0,0,0,1,1,1,1,38,0,0,0,0,0,92028719,255,190,6,4,0,0,0,0,0,0,0,0,0,0,0,0,0,0,0,0,0,0,0,0,0,0,0,0,0,0,0,0,0,0,0
93102254,1200.0,0.6396959,0.041969907,0.92333794,0.0,0,0,1,1,1,1,38,0,0,0,0,0,93096689,255,190,6,4,0,0,0,0,0,0,0,0,0,0,0,0,0,0,0,0,0,0,0,0,0,0,0,0,0,0,0,0,0,0,0
94012220,1200.0,0.6396959,0.067322865,1.1801302,0.0,0,0,1,1,1,1,38,0,0,0,0,0,94008893,255,190,6,4,0,0,0,0,0,0,0,0,0,0,0,0,0,0,0,0,0,0,0,0,0,0,0,0,0,0,0,0,0,0,0
95037511,1200.0,0.6396959,0.04183471,1.0388952,0.0,0,0,1,1,1,1,38,0,0,0,0,0,95030222,255,190,6,4,0,0,0,0,0,0,0,0,0,0,0,0,0,0,0,0,0,0,0,0,0,0,0,0,0,0,0,0,0,0,0
96101538,1200.0,0.6396959,0.041872077,0.95209134,0.0,0,0,1,1,1,1,38,0,0,0,0,0,96095084,255,190,6,4,0,0,0,0,0,0,0,0,0,0,0,0,0,0,0,0,0,0,0,0,0,0,0,0,0,0,0,0,0,0,0
97041450,1200.0,0.6396959,0.041912023,1.1775283,0.0,0,0,1,1,1,1,38,0,0,0,0,0,97031318,255,190,6,4,0,0,0,0,0,0,0,0,0,0,0,0,0,0,0,0,0,0,0,0,0,0,0,0,0,0,0,0,0,0,0
98036531,1200.0,0.6396959,0.041962024,1.0390596,0.0,0,0,1,1,1,1,38,0,0,0,0,0,98036307,255,190,6,4,0,0,0,0,0,0,0,0,0,0,0,0,0,0,0,0,0,0,0,0,0,0,0,0,0,0,0,0,0,0,0
99101622,1200.0,0.6396959,0.04170481,0.79040545,0.0,0,0,1,1,1,1,38,0,0,0,0,0,99096164,255,190,6,4,0,0,0,0,0,0,0,0,0,0,0,0,0,0,0,0,0,0,0,0,0,0,0,0,0,0,0,0,0,0,0
100021383,1200.0,0.6396959,0.041920852,1.3414673,0.0,0,0,1,1,1,1,38,0,0,0,0,0,100015845,255,190,6,4,0,0,0,0,0,0,0,0,0,0,0,0,0,0,0,0,0,0,0,0,0,0,0,0,0,0,0,0,0,0,0
101041769,1200.0,0.6396959,0.04157033,0.85615075,0.0,0,0,1,1,1,1,38,0,0,0,0,0,101041426,255,190,6,4,0,0,0,0,0,0,0,0,0,0,0,0,0,0,0,0,0,0,0,0,0,0,0,0,0,0,0,0,0,0,0
102141683,1200.0,0.6396959,0.041599274,1.0409722,0.0,0,0,1,1,1,1,38,0,0,0,0,0,102139154,255,190,6,4,0,0,0,0,0,0,0,0,0,0,0,0,0,0,0,0,0,0,0,0,0,0,0,0,0,0,0,0,0,0,0
103031361,1200.0,0.6396959,0.041995756,1.2088778,0.0,0,0,1,1,1,1,38,0,0,0,0,0,103030487,255,190,6,4,0,0,0,0,0,0,0,0,0,0,0,0,0,0,0,0,0,0,0,0,0,0,0,0,0,0,0,0,0,0,0
104047409,1200.0,0.6396959,0.067939125,0.95814145,0.0,0,0,1,1,1,1,38,0,0,0,0,0,104046315,255,190,6,4,0,0,0,0,0,0,0,0,0,0,0,0,0,0,0,0,0,0,0,0,0,0,0,0,0,0,0,0,0,0,0
105119483,1200.0,0.6396959,0.041707627,1.0248159,0.0,0,0,1,1,1,1,38,0,0,0,0,0,105111299,255,190,6,4,0,0,0,0,0,0,0,0,0,0,0,0,0,0,0,0,0,0,0,0,0,0,0,0,0,0,0,0,0,0,0
108119302,1200.0,0.6396959,0.020999894,1.0199949,0.0,0,0,1,1,1,1,38,0,0,0,0,0,108116309,255,190,6,4,0,0,0,0,0,0,0,0,0,0,0,0,0,0,0,0,0,0,0,0,0,0,0,0,0,0,0,0,0,0,0
109029488,1200.0,0.6396959,0.041589797,1.1001492,0.0,0,0,1,1,1,1,38,0,0,0,0,0,109028767,255,190,6,4,0,0,0,0,0,0,0,0,0,0,0,0,0,0,0,0,0,0,0,0,0,0,0,0,0,0,0,0,0,0,0
110031292,1200.0,0.6396959,0.04199731,1.0379336,0.0,0,0,1,1,1,1,38,0,0,0,0,0,109028767,255,190,6,4,0,0,0,0,0,0,0,0,0,0,0,0,0,0,0,0,0,0,0,0,0,0,0,0,0,0,0,0,0,0,0
111131257,1200.0,0.6396959,0.020957518,1.0508698,0.0,0,0,1,1,1,1,38,0,0,0,0,0,111131106,255,190,6,4,0,0,0,0,0,0,0,0,0,0,0,0,0,0,0,0,0,0,0,0,0,0,0,0,0,0,0,0,0,0,0
112052294,1200.0,0.6396959,0.041961353,1.1469437,0.0,0,0,1,1,1,1,38,0,0,0,0,0,112051311,255,190,6,4,0,0,0,0,0,0,0,0,0,0,0,0,0,0,0,0,0,0,0,0,0,0,0,0,0,0,0,0,0,0,0
113066257,1200.0,0.6396959,0.041586008,0.93766546,0.0,0,0,1,1,1,1,38,0,0,0,0,0,113065758,255,190,6,4,0,0,0,0,0,0,0,0,0,0,0,0,0,0,0,0,0,0,0,0,0,0,0,0,0,0,0,0,0,0,0
114117487,1200.0,0.6396959,0.06764681,1.1400478,0.0,0,0,1,1,1,1,38,0,0,0,0,0,114115856,255,190,6,4,0,0,0,0,0,0,0,0,0,0,0,0,0,0,0,0,0,0,0,0,0,0,0,0,0,0,0,0,0,0,0
115049471,1200.0,0.6396959,0.041999873,0.93299717,0.0,0,0,1,1,1,1,38,0,0,0,0,0,115045728,255,190,6,4,0,0,0,0,0,0,0,0,0,0,0,0,0,0,0,0,0,0,0,0,0,0,0,0,0,0,0,0,0,0,0
116049501,1200.0,0.6396959,0.04192554,1.1998689,0.0,0,0,1,1,1,1,38,0,0,0,0,0,115045728,255,190,6,4,0,0,0,0,0,0,0,0,0,0,0,0,0,0,0,0,0,0,0,0,0,0,0,0,0,0,0,0,0,0,0
116999302,1200.0,0.6396959,0.020790637,0.9484491,0.0,0,0,1,1,1,1,38,0,0,0,0,0,116997514,255,190,6,4,0,0,0,0,0,0,0,0,0,0,0,0,0,0,0,0,0,0,0,0,0,0,0,0,0,0,0,0,0,0,0
119079348,1200.0,0.6396959,0.041599683,1.2242193,0.0,0,0,1,1,1,1,38,0,0,0,0,0,119076311,255,190,6,4,0,0,0,0,0,0,0,0,0,0,0,0,0,0,0,0,0,0,0,0,0,0,0,0,0,0,0,0,0,0,0
119999949,1200.0,0.6396959,0.0419984,1.0709593,0.0,0,0,1,1,1,1,38,0,0,0,0,0,119999307,255,190,6,4,0,0,0,0,0,0,0,0,0,0,0,0,0,0,0,0,0,0,0,0,0,0,0,0,0,0,0,0,0,0,0
121059435,1200.0,0.6396959,0.041996595,0.9239251,0.0,0,0,1,1,1,1,38,0,0,0,0,0,121055820,255,190,6,4,0,0,0,0,0,0,0,0,0,0,0,0,0,0,0,0,0,0,0,0,0,0,0,0,0,0,0,0,0,0,0
122081485,1200.0,0.6396959,0.041582264,1.119751,0.0,0,0,1,1,1,1,38,0,0,0,0,0,122079313,255,190,6,4,0,0,0,0,0,0,0,0,0,0,0,0,0,0,0,0,0,0,0,0,0,0,0,0,0,0,0,0,0,0,0
123011297,1200.0,0.6396959,0.04192307,1.0480767,0.0,0,0,1,1,1,1,38,0,0,0,0,0,123007077,255,190,6,4,0,0,0,0,0,0,0,0,0,0,0,0,0,0,0,0,0,0,0,0,0,0,0,0,0,0,0,0,0,0,0
124091366,1200.0,0.6396959,0.06799973,1.0089959,0.0,0,0,1,1,1,1,38,0,0,0,0,0,124090575,255,190,6,4,0,0,0,0,0,0,0,0,0,0,0,0,0,0,0,0,0,0,0,0,0,0,0,0,0,0,0,0,0,0,0
125091233,1200.0,0.6396959,0.041575555,1.1284794,0.0,0,0,1,1,1,1,38,0,0,0,0,0,125085805,255,190,6,4,0,0,0,0,0,0,0,0,0,0,0,0,0,0,0,0,0,0,0,0,0,0,0,0,0,0,0,0,0,0,0
126011433,1200.0,0.6396959,0.041997056,1.0799243,0.0,0,0,1,1,1,1,38,0,0,0,0,0,126010523,255,190,6,4,0,0,0,0,0,0,0,0,0,0,0,0,0,0,0,0,0,0,0,0,0,0,0,0,0,0,0,0,0,0,0
127081808,1200.0,0.6396959,0.062390257,0.7882959,0.0,0,0,1,1,1,1,38,0,0,0,0,0,127074582,255,190,6,4,0,0,0,0,0,0,0,0,0,0,0,0,0,0,0,0,0,0,0,0,0,0,0,0,0,0,0,0,0,0,0
129021481,1200.0,0.6396959,0.041596018,0.8566799,0.0,0,0,1,1,1,1,38,0,0,0,0,0,129016076,255,190,6,4,0,0,0,0,0,0,0,0,0,0,0,0,0,0,0,0,0,0,0,0,0,0,0,0,0,0,0,0,0,0,0
130081432,1200.0,0.6396959,0.062359687,1.0403179,0.0,0,0,1,1,1,1,38,0,0,0,0,0,130075443,255,190,6,4,0,0,0,0,0,0,0,0,0,0,0,0,0,0,0,0,0,0,0,0,0,0,0,0,0,0,0,0,0,0,0
131101617,1200.0,0.6396959,0.020794898,1.1655046,0.0,0,0,1,1,1,1,38,0,0,0,0,0,131095845,255,190,6,4,0,0,0,0,0,0,0,0,0,0,0,0,0,0,0,0,0,0,0,0,0,0,0,0,0,0,0,0,0,0,0
132027300,1200.0,0.6396959,0.0629453,0.9371856,0.0,0,0,1,1,1,1,38,0,0,0,0,0,132020799,255,190,6,4,0,0,0,0,0,0,0,0,0,0,0,0,0,0,0,0,0,0,0,0,0,0,0,0,0,0,0,0,0,0,0
133097437,1200.0,0.6396959,0.04177907,1.047461,0.0,0,0,1,1,1,1,38,0,0,0,0,0,133089538,255,190,6,4,0,0,0,0,0,0,0,0,0,0,0,0,0,0,0,0,0,0,0,0,0,0,0,0,0,0,0,0,0,0,0
134109533,1200.0,0.6396959,0.046547785,1.2657037,0.0,0,0,1,1,1,1,38,0,0,0,0,0,134101307,255,190,6,4,0,0,0,0,0,0,0,0,0,0,0,0,0,0,0,0,0,0,0,0,0,0,0,0,0,0,0,0,0,0,0
135031220,1200.0,0.6396959,0.06281175,0.8973107,0.0,0,0,1,1,1,1,38,0,0,0,0,0,135026304,255,190,6,4,0,0,0,0,0,0,0,0,0,0,0,0,0,0,0,0,0,0,0,0,0,0,0,0,0,0,0,0,0,0,0
136101679,1200.0,0.6396959,0.04195586,1.018928,0.0,0,0,1,1,1,1,38,0,0,0,0,0,136096579,255,190,6,4,0,0,0,0,0,0,0,0,0,0,0,0,0,0,0,0,0,0,0,0,0,0,0,0,0,0,0,0,0,0,0
137021504,1200.0,0.6396959,0.04157617,1.0997887,0.0,0,0,1,1,1,1,38,0,0,0,0,0,137016543,255,190,6,4,0,0,0,0,0,0,0,0,0,0,0,0,0,0,0,0,0,0,0,0,0,0,0,0,0,0,0,0,0,0,0
138041438,1200.0,0.6396959,0.04199269,1.0378194,0.0,0,0,1,1,1,1,38,0,0,0,0,0,138031309,255,190,6,4,0,0,0,0,0,0,0,0,0,0,0,0,0,0,0,0,0,0,0,0,0,0,0,0,0,0,0,0,0,0,0
139091235,1200.0,0.6396959,0.041601453,1.0192356,0.0,0,0,1,1,1,1,38,0,0,0,0,0,139087205,255,190,6,4,0,0,0,0,0,0,0,0,0,0,0,0,0,0,0,0,0,0,0,0,0,0,0,0,0,0,0,0,0,0,0
140042563,1200.0,0.6396959,0.020978097,1.1068444,0.0,0,0,1,1,1,1,38,0,0,0,0,0,140036211,255,190,6,4,0,0,0,0,0,0,0,0,0,0,0,0,0,0,0,0,0,0,0,0,0,0,0,0,0,0,0,0,0,0,0
141042414,1200.0,0.6396959,0.06237815,0.93765247,0.0,0,0,1,1,1,1,38,0,0,0,0,0,141037313,255,190,6,4,0,0,0,0,0,0,0,0,0,0,0,0,0,0,0,0,0,0,0,0,0,0,0,0,0,0,0,0,0,0,0
142112230,1200.0,0.6396959,0.041584484,1.1930786,0.0,0,0,1,1,1,1,38,0,0,0,0,0,142108589,255,190,6,4,0,0,0,0,0,0,0,0,0,0,0,0,0,0,0,0,0,0,0,0,0,0,0,0,0,0,0,0,0,0,0
143035467,1200.0,0.6396959,0.041997686,0.8739519,0.0,0,0,1,1,1,1,38,0,0,0,0,0,143026295,255,190,6,4,0,0,0,0,0,0,0,0,0,0,0,0,0,0,0,0,0,0,0,0,0,0,0,0,0,0,0,0,0,0,0
144051377,1200.0,0.6396959,0.067387044,1.1911651,0.0,0,0,1,1,1,1,38,0,0,0,0,0,144044787,255,190,6,4,0,0,0,0,0,0,0,0,0,0,0,0,0,0,0,0,0,0,0,0,0,0,0,0,0,0,0,0,0,0,0
146109460,1200.0,0.6396959,0.04175996,1.0002505,0.0,0,0,1,1,1,1,38,0,0,0,0,0,145094649,255,190,6,4,0,0,0,0,0,0,0,0,0,0,0,0,0,0,0,0,0,0,0,0,0,0,0,0,0,0,0,0,0,0,0
147049432,1200.0,0.6396959,0.020954862,1.1804572,0.0,0,0,1,1,1,1,38,0,0,0,0,0,147048759,255,190,6,4,0,0,0,0,0,0,0,0,0,0,0,0,0,0,0,0,0,0,0,0,0,0,0,0,0,0,0,0,0,0,0
148099417,1200.0,0.6396959,0.041991808,1.0707911,0.0,0,0,1,1,1,1,38,0,0,0,0,0,148099210,255,190,6,4,0,0,0,0,0,0,0,0,0,0,0,0,0,0,0,0,0,0,0,0,0,0,0,0,0,0,0,0,0,0,0
149109427,1200.0,0.6396959,0.041597955,0.915155,0.0,0,0,1,1,1,1,38,0,0,0,0,0,148099210,255,190,6,4,0,0,0,0,0,0,0,0,0,0,0,0,0,0,0,0,0,0,0,0,0,0,0,0,0,0,0,0,0,0,0
150061493,1200.0,0.6396959,0.02097772,1.2007247,0.0,0,0,1,1,1,1,38,0,0,0,0,0,150054985,255,190,6,4,0,0,0,0,0,0,0,0,0,0,0,0,0,0,0,0,0,0,0,0,0,0,0,0,0,0,0,0,0,0,0
151131233,1200.0,0.6396959,0.04195251,1.0418206,0.0,0,0,1,1,1,1,38,0,0,0,0,0,151125786,255,190,6,4,0,0,0,0,0,0,0,0,0,0,0,0,0,0,0,0,0,0,0,0,0,0,0,0,0,0,0,0,0,0,0
152031361,1200.0,0.6396959,0.041999325,0.9529847,0.0,0,0,1,1,1,1,38,0,0,0,0,0,152031304,255,190,6,4,0,0,0,0,0,0,0,0,0,0,0,0,0,0,0,0,0,0,0,0,0,0,0,0,0,0,0,0,0,0,0
153061484,1200.0,0.6396959,0.0673408,1.1487547,0.0,0,0,1,1,1,1,38,0,0,0,0,0,153058990,255,190,6,4,0,0,0,0,0,0,0,0,0,0,0,0,0,0,0,0,0,0,0,0,0,0,0,0,0,0,0,0,0,0,0
154111279,1200.0,0.6396959,0.04199895,1.079973,0.0,0,0,1,1,1,1,38,0,0,0,0,0,154109458,255,190,6,4,0,0,0,0,0,0,0,0,0,0,0,0,0,0,0,0,0,0,0,0,0,0,0,0,0,0,0,0,0,0,0
155041391,1200.0,0.6396959,0.041574154,0.78792924,0.0,0,0,1,1,1,1,38,0,0,0,0,0,155040774,255,190,6,4,0,0,0,0,0,0,0,0,0,0,0,0,0,0,0,0,0,0,0,0,0,0,0,0,0,0,0,0,0,0,0
156071753,1200.0,0.6396959,0.04199538,1.3438522,0.0,0,0,1,1,1,1,38,0,0,0,0,0,156066255,255,190,6,4,0,0,0,0,0,0,0,0,0,0,0,0,0,0,0,0,0,0,0,0,0,0,0,0,0,0,0,0,0,0,0
158061538,1200.0,0.6396959,0.04157576,1.0403839,0.0,0,0,1,1,1,1,38,0,0,0,0,0,158058690,255,190,6,4,0,0,0,0,0,0,0,0,0,0,0,0,0,0,0,0,0,0,0,0,0,0,0,0,0,0,0,0,0,0,0
159071224,1200.0,0.6396959,0.041589838,1.1655058,0.0,0,0,1,1,1,1,38,0,0,0,0,0,159069464,255,190,6,4,0,0,0,0,0,0,0,0,0,0,0,0,0,0,0,0,0,0,0,0,0,0,0,0,0,0,0,0,0,0,0
160001372,1200.0,0.6396959,0.041999076,0.93797934,0.0,0,0,1,1,1,1,38,0,0,0,0,0,159997496,255,190,6,4,0,0,0,0,0,0,0,0,0,0,0,0,0,0,0,0,0,0,0,0,0,0,0,0,0,0,0,0,0,0,0
161051372,1200.0,0.6396959,0.041576665,1.021598,0.0,0,0,1,1,1,1,38,0,0,0,0,0,161049299,255,190,6,4,0,0,0,0,0,0,0,0,0,0,0,0,0,0,0,0,0,0,0,0,0,0,0,0,0,0,0,0,0,0,0
162081383,1200.0,0.6396959,0.041595276,1.2775692,0.0,0,0,1,1,1,1,38,0,0,0,0,0,162075906,255,190,6,4,0,0,0,0,0,0,0,0,0,0,0,0,0,0,0,0,0,0,0,0,0,0,0,0,0,0,0,0,0,0,0
163001443,1200.0,0.6396959,0.06798348,0.8767869,0.0,0,0,1,1,1,1,38,0,0,0,0,0,162999313,255,190,6,4,0,0,0,0,0,0,0,0,0,0,0,0,0,0,0,0,0,0,0,0,0,0,0,0,0,0,0,0,0,0,0
164001679,1200.0,0.6396959,0.041577075,1.009729,0.0,0,0,1,1,1,1,38,0,0,0,0,0,162999313,255,190,6,4,0,0,0,0,0,0,0,0,0,0,0,0,0,0,0,0,0,0,0,0,0,0,0,0,0,0,0,0,0,0,0
165002220,1200.0,0.6396959,0.020987617,1.1103449,0.0,0,0,1,1,1,1,38,0,0,0,0,0,165000709,255,190,6,4,0,0,0,0,0,0,0,0,0,0,0,0,0,0,0,0,0,0,0,0,0,0,0,0,0,0,0,0,0,0,0
166009444,1200.0,0.6396959,0.041697152,1.0622846,0.0,0,0,1,1,1,1,38,0,0,0,0,0,166009049,255,190,6,4,0,0,0,0,0,0,0,0,0,0,0,0,0,0,0,0,0,0,0,0,0,0,0,0,0,0,0,0,0,0,0
167171310,1200.0,0.6396959,0.041923907,1.0271357,0.0,0,0,1,1,1,1,38,0,0,0,0,0,167162417,255,190,6,4,0,0,0,0,0,0,0,0,0,0,0,0,0,0,0,0,0,0,0,0,0,0,0,0,0,0,0,0,0,0,0
168179312,1200.0,0.6396959,0.041579053,1.096895,0.0,0,0,1,1,1,1,38,0,0,0,0,0,167162417,255,190,6,4,0,0,0,0,0,0,0,0,0,0,0,0,0,0,0,0,0,0,0,0,0,0,0,0,0,0,0,0,0,0,0
170171287,1200.0,0.6396959,0.020961346,1.202782,0.0,0,0,1,1,1,1,38,0,0,0,0,0,170169307,255,190,6,4,0,0,0,0,0,0,0,0,0,0,0,0,0,0,0,0,0,0,0,0,0,0,0,0,0,0,0,0,0,0,0
171171490,1200.0,0.6396959,0.04199626,0.85292405,0.0,0,0,1,1,1,1,38,0,0,0,0,0,170169307,255,190,6,4,0,0,0,0,0,0,0,0,0,0,0,0,0,0,0,0,0,0,0,0,0,0,0,0,0,0,0,0,0,0,0
172021676,1200.0,0.6396959,0.020784855,1.1896855,0.0,0,0,1,1,1,1,38,0,0,0,0,0,172019095,255,190,6,4,0,0,0,0,0,0,0,0,0,0,0,0,0,0,0,0,0,0,0,0,0,0,0,0,0,0,0,0,0,0,0
173181687,1200.0,0.6396959,0.04160199,1.0093435,0.0,0,0,1,1,1,1,38,0,0,0,0,0,173175050,255,190,6,4,0,0,0,0,0,0,0,0,0,0,0,0,0,0,0,0,0,0,0,0,0,0,0,0,0,0,0,0,0,0,0
174051223,1200.0,0.6396959,0.041998483,1.0199633,0.0,0,0,1,1,1,1,38,0,0,0,0,0,174047302,255,190,6,4,0,0,0,0,0,0,0,0,0,0,0,0,0,0,0,0,0,0,0,0,0,0,0,0,0,0,0,0,0,0,0
175031312,1200.0,0.6396959,0.041577365,1.1483272,0.0,0,0,1,1,1,1,38,0,0,0,0,0,175027780,255,190,6,4,0,0,0,0,0,0,0,0,0,0,0,0,0,0,0,0,0,0,0,0,0,0,0,0,0,0,0,0,0,0,0
176101529,1200.0,0.6396959,0.04159272,1.0695271,0.0,0,0,1,1,1,1,38,0,0,0,0,0,176092319,255,190,6,4,0,0,0,0,0,0,0,0,0,0,0,0,0,0,0,0,0,0,0,0,0,0,0,0,0,0,0,0,0,0,0
179091428,1200.0,0.6396959,0.041572507,1.1115698,0.0,0,0,1,1,1,1,38,0,0,0,0,0,179087133,255,190,6,4,0,0,0,0,0,0,0,0,0,0,0,0,0,0,0,0,0,0,0,0,0,0,0,0,0,0,0,0,0,0,0
180021503,1200.0,0.6396959,0.041993234,0.8748591,0.0,0,0,1,1,1,1,38,0,0,0,0,0,180017402,255,190,6,4,0,0,0,0,0,0,0,0,0,0,0,0,0,0,0,0,0,0,0,0,0,0,0,0,0,0,0,0,0,0,0
181042400,1200.0,0.6396959,0.041977666,1.2113554,0.0,0,0,1,1,1,1,38,0,0,0,0,0,181035087,255,190,6,4,0,0,0,0,0,0,0,0,0,0,0,0,0,0,0,0,0,0,0,0,0,0,0,0,0,0,0,0,0,0,0
182101457,1200.0,0.6396959,0.04166741,1.062519,0.0,0,0,1,1,1,1,38,0,0,0,0,0,182098862,255,190,6,4,0,0,0,0,0,0,0,0,0,0,0,0,0,0,0,0,0,0,0,0,0,0,0,0,0,0,0,0,0,0,0
183041430,1200.0,0.6396959,0.06793206,0.7852147,0.0,0,0,1,1,1,1,38,0,0,0,0,0,183031313,255,190,6,4,0,0,0,0,0,0,0,0,0,0,0,0,0,0,0,0,0,0,0,0,0,0,0,0,0,0,0,0,0,0,0
184041706,1200.0,0.6396959,0.04199143,1.4237095,0.0,0,0,1,1,1,1,38,0,0,0,0,0,184039321,255,190,6,4,0,0,0,0,0,0,0,0,0,0,0,0,0,0,0,0,0,0,0,0,0,0,0,0,0,0,0,0,0,0,0
185101513,1200.0,0.6396959,0.04158185,0.94846225,0.0,0,0,1,1,1,1,38,0,0,0,0,0,185096588,255,190,6,4,0,0,0,0,0,0,0,0,0,0,0,0,0,0,0,0,0,0,0,0,0,0,0,0,0,0,0,0,0,0,0
186021477,1200.0,0.6396959,0.041594863,0.86953074,0.0,0,0,1,1,1,1,38,0,0,0,0,0,186016741,255,190,6,4,0,0,0,0,0,0,0,0,0,0,0,0,0,0,0,0,0,0,0,0,0,0,0,0,0,0,0,0,0,0,0
187051352,1200.0,0.6396959,0.04157004,1.2045414,0.0,0,0,1,1,1,1,38,0,0,0,0,0,187047190,255,190,6,4,0,0,0,0,0,0,0,0,0,0,0,0,0,0,0,0,0,0,0,0,0,0,0,0,0,0,0,0,0,0,0
188131344,1200.0,0.6396959,0.041996893,0.9519295,0.0,0,0,1,1,1,1,38,0,0,0,0,0,188127216,255,190,6,4,0,0,0,0,0,0,0,0,0,0,0,0,0,0,0,0,0,0,0,0,0,0,0,0,0,0,0,0,0,0,0
189040878,1200.0,0.6396959,0.041628342,1.0000713,0.0,0,0,1,1,1,1,38,0,0,0,0,0,189039241,255,190,6,4,0,0,0,0,0,0,0,0,0,0,0,0,0,0,0,0,0,0,0,0,0,0,0,0,0,0,0,0,0,0,0
190051231,1200.0,0.6396959,0.041971877,1.2981302,0.0,0,0,1,1,1,1,38,0,0,0,0,0,190050422,255,190,6,4,0,0,0,0,0,0,0,0,0,0,0,0,0,0,0,0,0,0,0,0,0,0,0,0,0,0,0,0,0,0,0
191111323,1200.0,0.6396959,0.041998655,0.8159739,0.0,0,0,1,1,1,1,38,0,0,0,0,0,191109331,255,190,6,4,0,0,0,0,0,0,0,0,0,0,0,0,0,0,0,0,0,0,0,0,0,0,0,0,0,0,0,0,0,0,0
192121477,1200.0,0.6396959,0.04157934,1.009784,0.0,0,0,1,1,1,1,38,0,0,0,0,0,191109331,255,190,6,4,0,0,0,0,0,0,0,0,0,0,0,0,0,0,0,0,0,0,0,0,0,0,0,0,0,0,0,0,0,0,0
193059797,1200.0,0.6396959,0.020833684,1.2024012,0.0,0,0,1,1,1,1,38,0,0,0,0,0,193056305,255,190,6,4,0,0,0,0,0,0,0,0,0,0,0,0,0,0,0,0,0,0,0,0,0,0,0,0,0,0,0,0,0,0,0
194129434,1200.0,0.6396959,0.04199731,0.9579387,0.0,0,0,1,1,1,1,38,0,0,0,0,0,194122314,255,190,6,4,0,0,0,0,0,0,0,0,0,0,0,0,0,0,0,0,0,0,0,0,0,0,0,0,0,0,0,0,0,0,0
195139327,1200.0,0.6396959,0.041589715,1.0189481,0.0,0,0,1,1,1,1,38,0,0,0,0,0,195137307,255,190,6,4,0,0,0,0,0,0,0,0,0,0,0,0,0,0,0,0,0,0,0,0,0,0,0,0,0,0,0,0,0,0,0
196069547,1200.0,0.6396959,0.041578107,1.1661669,0.0,0,0,1,1,1,1,38,0,0,0,0,0,196061484,255,190,6,4,0,0,0,0,0,0,0,0,0,0,0,0,0,0,0,0,0,0,0,0,0,0,0,0,0,0,0,0,0,0,0
197132707,1200.0,0.6396959,0.041874625,0.9591284,0.0,0,0,1,1,1,1,38,0,0,0,0,0,197129417,255,190,6,4,0,0,0,0,0,0,0,0,0,0,0,0,0,0,0,0,0,0,0,0,0,0,0,0,0,0,0,0,0,0,0
198059224,1200.0,0.6396959,0.041715004,1.1431897,0.0,0,0,1,1,1,1,38,0,0,0,0,0,198059033,255,190,6,4,0,0,0,0,0,0,0,0,0,0,0,0,0,0,0,0,0,0,0,0,0,0,0,0,0,0,0,0,0,0,0
199069431,1200.0,0.6396959,0.041998275,1.0259578,0.0,0,0,1,1,1,1,38,0,0,0,0,0,199067309,255,190,6,4,0,0,0,0,0,0,0,0,0,0,0,0,0,0,0,0,0,0,0,0,0,0,0,0,0,0,0,0,0,0,0
200071220,1200.0,0.6396959,0.04191006,1.0267965,0.0,0,0,1,1,1,1,38,0,0,0,0,0,199067309,255,190,6,4,0,0,0,0,0,0,0,0,0,0,0,0,0,0,0,0,0,0,0,0,0,0,0,0,0,0,0,0,0,0,0
201051737,1200.0,0.6396959,0.02099666,0.9978413,0.0,0,0,1,1,1,1,38,0,0,0,0,0,201046377,255,190,6,4,0,0,0,0,0,0,0,0,0,0,0,0,0,0,0,0,0,0,0,0,0,0,0,0,0,0,0,0,0,0,0
202081591,1200.0,0.6396959,0.041597955,1.010236,0.0,0,0,1,1,1,1,38,0,0,0,0,0,202075101,255,190,6,4,0,0,0,0,0,0,0,0,0,0,0,0,0,0,0,0,0,0,0,0,0,0,0,0,0,0,0,0,0,0,0
203001537,1200.0,0.6396959,0.041597955,1.010236,0.0,0,0,1,1,1,1,38,0,0,0,0,0,202999330,255,190,6,4,0,0,0,0,0,0,0,0,0,0,0,0,0,0,0,0,0,0,0,0,0,0,0,0,0,0,0,0,0,0,0
204162303,1200.0,0.6396959,0.020982876,1.0791194,0.0,0,0,1,1,1,1,38,0,0,0,0,0,204155799,255,190,6,4,0,0,0,0,0,0,0,0,0,0,0,0,0,0,0,0,0,0,0,0,0,0,0,0,0,0,0,0,0,0,0
205086288,1200.0,0.6396959,0.0418405,0.88064295,0.0,0,0,1,1,1,1,38,0,0,0,0,0,205079384,255,190,6,4,0,0,0,0,0,0,0,0,0,0,0,0,0,0,0,0,0,0,0,0,0,0,0,0,0,0,0,0,0,0,0
206009381,1200.0,0.6396959,0.0418405,0.88064295,0.0,0,0,1,1,1,1,38,0,0,0,0,0,206006583,255,190,6,4,0,0,0,0,0,0,0,0,0,0,0,0,0,0,0,0,0,0,0,0,0,0,0,0,0,0,0,0,0,0,0
207161664,1200.0,0.6396959,0.020961137,1.0809958,0.0,0,0,1,1,1,1,38,0,0,0,0,0,207160888,255,190,6,4,0,0,0,0,0,0,0,0,0,0,0,0,0,0,0,0,0,0,0,0,0,0,0,0,0,0,0,0,0,0,0
208091224,1200.0,0.6396959,0.04199097,0.91480327,0.0,0,0,1,1,1,1,38,0,0,0,0,0,208087314,255,190,6,4,0,0,0,0,0,0,0,0,0,0,0,0,0,0,0,0,0,0,0,0,0,0,0,0,0,0,0,0,0,0,0
209011739,1200.0,0.6396959,0.04199097,0.91480327,0.0,0,0,1,1,1,1,38,0,0,0,0,0,209009497,255,190,6,4,0,0,0,0,0,0,0,0,0,0,0,0,0,0,0,0,0,0,0,0,0,0,0,0,0,0,0,0,0,0,0
212021433,1200.0,0.6396959,0.041961145,0.76429224,0.0,0,0,1,1,1,1,38,0,0,0,0,0,212015836,255,190,6,4,0,0,0,0,0,0,0,0,0,0,0,0,0,0,0,0,0,0,0,0,0,0,0,0,0,0,0,0,0,0,0
213081638,1200.0,0.6396959,0.020796774,0.79819995,0.0,0,0,1,1,1,1,38,0,0,0,0,0,213075747,255,190,6,4,0,0,0,0,0,0,0,0,0,0,0,0,0,0,0,0,0,0,0,0,0,0,0,0,0,0,0,0,0,0,0
214011465,1200.0,0.6396959,0.020796774,0.79819995,0.0,0,0,1,1,1,1,38,0,0,0,0,0,214011323,255,190,6,4,0,0,0,0,0,0,0,0,0,0,0,0,0,0,0,0,0,0,0,0,0,0,0,0,0,0,0,0,0,0,0
215021372,1200.0,0.6396959,0.062357463,1.0402808,0.0,0,0,1,1,1,1,38,0,0,0,0,0,215020717,255,190,6,4,0,0,0,0,0,0,0,0,0,0,0,0,0,0,0,0,0,0,0,0,0,0,0,0,0,0,0,0,0,0,0
216081583,1200.0,0.6396959,0.021994831,0.95177627,0.0,0,0,1,1,1,1,38,0,0,0,0,0,216075493,255,190,6,4,0,0,0,0,0,0,0,0,0,0,0,0,0,0,0,0,0,0,0,0,0,0,0,0,0,0,0,0,0,0,0
217101641,1200.0,0.6396959,0.04059454,0.9990217,0.0,0,0,1,1,1,1,38,0,0,0,0,0,217101358,255,190,6,4,0,0,0,0,0,0,0,0,0,0,0,0,0,0,0,0,0,0,0,0,0,0,0,0,0,0,0,0,0,0,0
218032233,1200.0,0.6396959,0.04059454,0.9990217,0.0,0,0,1,1,1,1,38,0,0,0,0,0,218026299,255,190,6,4,0,0,0,0,0,0,0,0,0,0,0,0,0,0,0,0,0,0,0,0,0,0,0,0,0,0,0,0,0,0,0
219092223,1200.0,0.6396959,0.020999033,0.81596243,0.0,0,0,1,1,1,1,38,0,0,0,0,0,219090500,255,190,6,4,0,0,0,0,0,0,0,0,0,0,0,0,0,0,0,0,0,0,0,0,0,0,0,0,0,0,0,0,0,0,0
220109372,1200.0,0.6396959,0.041702077,1.0127648,0.0,0,0,1,1,1,1,38,0,0,0,0,0,220108655,255,190,6,4,0,0,0,0,0,0,0,0,0,0,0,0,0,0,0,0,0,0,0,0,0,0,0,0,0,0,0,0,0,0,0
221039399,1200.0,0.6396959,0.041702077,1.0127648,0.0,0,0,1,1,1,1,38,0,0,0,0,0,221032314,255,190,6,4,0,0,0,0,0,0,0,0,0,0,0,0,0,0,0,0,0,0,0,0,0,0,0,0,0,0,0,0,0,0,0
222099232,1200.0,0.6396959,0.06238581,1.1338373,0.0,0,0,1,1,1,1,38,0,0,0,0,0,222096687,255,190,6,4,0,0,0,0,0,0,0,0,0,0,0,0,0,0,0,0,0,0,0,0,0,0,0,0,0,0,0,0,0,0,0
223119234,1200.0,0.6396959,0.041597378,1.0339919,0.0,0,0,1,1,1,1,38,0,0,0,0,0,223115759,255,190,6,4,0,0,0,0,0,0,0,0,0,0,0,0,0,0,0,0,0,0,0,0,0,0,0,0,0,0,0,0,0,0,0
224039314,1200.0,0.6396959,0.041597378,1.0339919,0.0,0,0,1,1,1,1,38,0,0,0,0,0,224038982,255,190,6,4,0,0,0,0,0,0,0,0,0,0,0,0,0,0,0,0,0,0,0,0,0,0,0,0,0,0,0,0,0,0,0
225199283,1200.0,0.6396959,0.02099983,0.92599255,0.0,0,0,1,1,1,1,38,0,0,0,0,0,225195751,255,190,6,4,0,0,0,0,0,0,0,0,0,0,0,0,0,0,0,0,0,0,0,0,0,0,0,0,0,0,0,0,0,0,0
226120826,1200.0,0.6396959,0.02099983,0.92599255,0.0,0,0,1,1,1,1,38,0,0,0,0,0,226119418,255,190,6,4,0,0,0,0,0,0,0,0,0,0,0,0,0,0,0,0,0,0,0,0,0,0,0,0,0,0,0,0,0,0,0
227121385,1200.0,0.6396959,0.06294813,1.1450565,0.0,0,0,1,1,1,1,38,0,0,0,0,0,226119418,255,190,6,4,0,0,0,0,0,0,0,0,0,0,0,0,0,0,0,0,0,0,0,0,0,0,0,0,0,0,0,0,0,0,0
228131224,1200.0,0.6396959,0.02097925,1.0219892,0.0,0,0,1,1,1,1,38,0,0,0,0,0,226119418,255,190,6,4,0,0,0,0,0,0,0,0,0,0,0,0,0,0,0,0,0,0,0,0,0,0,0,0,0,0,0,0,0,0,0
231121540,1200.0,0.6396959,0.041997477,1.0139391,0.0,0,0,1,1,1,1,38,0,0,0,0,0,231112312,255,190,6,4,0,0,0,0,0,0,0,0,0,0,0,0,0,0,0,0,0,0,0,0,0,0,0,0,0,0,0,0,0,0,0
232052639,1200.0,0.6396959,0.04157004,1.1421864,0.0,0,0,1,1,1,1,38,0,0,0,0,0,232052303,255,190,6,4,0,0,0,0,0,0,0,0,0,0,0,0,0,0,0,0,0,0,0,0,0,0,0,0,0,0,0,0,0,0,0
233060230,1200.0,0.6396959,0.041974016,1.0753343,0.0,0,0,1,1,1,1,38,0,0,0,0,0,233056302,255,190,6,4,0,0,0,0,0,0,0,0,0,0,0,0,0,0,0,0,0,0,0,0,0,0,0,0,0,0,0,0,0,0,0
234111234,1200.0,0.6396959,0.067461185,0.8918765,0.0,0,0,1,1,1,1,38,0,0,0,0,0,234110520,255,190,6,4,0,0,0,0,0,0,0,0,0,0,0,0,0,0,0,0,0,0,0,0,0,0,0,0,0,0,0,0,0,0,0
235062439,1200.0,0.6396959,0.04195779,1.1658272,0.0,0,0,1,1,1,1,38,0,0,0,0,0,235060967,255,190,6,4,0,0,0,0,0,0,0,0,0,0,0,0,0,0,0,0,0,0,0,0,0,0,0,0,0,0,0,0,0,0,0
236062221,1200.0,0.6396959,0.041956615,1.0758874,0.0,0,0,1,1,1,1,38,0,0,0,0,0,236061009,255,190,6,4,0,0,0,0,0,0,0,0,0,0,0,0,0,0,0,0,0,0,0,0,0,0,0,0,0,0,0,0,0,0,0
237132587,1200.0,0.6396959,0.041582137,0.90193635,0.0,0,0,1,1,1,1,38,0,0,0,0,0,237132312,255,190,6,4,0,0,0,0,0,0,0,0,0,0,0,0,0,0,0,0,0,0,0,0,0,0,0,0,0,0,0,0,0,0,0
238052220,1200.0,0.6396959,0.04158819,1.1624889,0.0,0,0,1,1,1,1,38,0,0,0,0,0,238050444,255,190,6,4,0,0,0,0,0,0,0,0,0,0,0,0,0,0,0,0,0,0,0,0,0,0,0,0,0,0,0,0,0,0,0
239072247,1200.0,0.6396959,0.041995797,1.1028897,0.0,0,0,1,1,1,1,38,0,0,0,0,0,239067301,255,190,6,4,0,0,0,0,0,0,0,0,0,0,0,0,0,0,0,0,0,0,0,0,0,0,0,0,0,0,0,0,0,0,0
240119325,1200.0,0.6396959,0.04158,0.76724994,0.0,0,0,1,1,1,1,38,0,0,0,0,0,240119169,255,190,6,4,0,0,0,0,0,0,0,0,0,0,0,0,0,0,0,0,0,0,0,0,0,0,0,0,0,0,0,0,0,0,0
241059241,1200.0,0.6396959,0.04170469,1.3544093,0.0,0,0,1,1,1,1,38,0,0,0,0,0,241051302,255,190,6,4,0,0,0,0,0,0,0,0,0,0,0,0,0,0,0,0,0,0,0,0,0,0,0,0,0,0,0,0,0,0,0
243001437,1200.0,0.6396959,0.041577283,0.82362616,0.0,0,0,1,1,1,1,38,0,0,0,0,0,243000089,255,190,6,4,0,0,0,0,0,0,0,0,0,0,0,0,0,0,0,0,0,0,0,0,0,0,0,0,0,0,0,0,0,0,0
244051362,1200.0,0.6396959,0.06788933,1.2639397,0.0,0,0,1,1,1,1,38,0,0,0,0,0,244048970,255,190,6,4,0,0,0,0,0,0,0,0,0,0,0,0,0,0,0,0,0,0,0,0,0,0,0,0,0,0,0,0,0,0,0
245081460,1200.0,0.6396959,0.041576624,1.0156575,0.0,0,0,1,1,1,1,38,0,0,0,0,0,245079022,255,190,6,4,0,0,0,0,0,0,0,0,0,0,0,0,0,0,0,0,0,0,0,0,0,0,0,0,0,0,0,0,0,0,0
246011308,1200.0,0.6396959,0.041591693,0.9140269,0.0,0,0,1,1,1,1,38,0,0,0,0,0,246007098,255,190,6,4,0,0,0,0,0,0,0,0,0,0,0,0,0,0,0,0,0,0,0,0,0,0,0,0,0,0,0,0,0,0,0
247061696,1200.0,0.6396959,0.04157819,1.284964,0.0,0,0,1,1,1,1,38,0,0,0,0,0,247061322,255,190,6,4,0,0,0,0,0,0,0,0,0,0,0,0,0,0,0,0,0,0,0,0,0,0,0,0,0,0,0,0,0,0,0
248066377,1200.0,0.6396959,0.0419992,0.8519838,0.0,0,0,1,1,1,1,38,0,0,0,0,0,247061322,255,190,6,4,0,0,0,0,0,0,0,0,0,0,0,0,0,0,0,0,0,0,0,0,0,0,0,0,0,0,0,0,0,0,0
249010212,1200.0,0.6396959,0.020876992,1.0239668,0.0,0,0,1,1,1,1,38,0,0,0,0,0,249009427,255,190,6,4,0,0,0,0,0,0,0,0,0,0,0,0,0,0,0,0,0,0,0,0,0,0,0,0,0,0,0,0,0,0,0
250071385,1200.0,0.6396959,0.041834958,1.1932924,0.0,0,0,1,1,1,1,38,0,0,0,0,0,250064998,255,190,6,4,0,0,0,0,0,0,0,0,0,0,0,0,0,0,0,0,0,0,0,0,0,0,0,0,0,0,0,0,0,0,0
251102404,1200.0,0.6396959,0.04199647,0.9539198,0.0,0,0,1,1,1,1,38,0,0,0,0,0,251090571,255,190,6,4,0,0,0,0,0,0,0,0,0,0,0,0,0,0,0,0,0,0,0,0,0,0,0,0,0,0,0,0,0,0,0
