timestamp,timestamp_last_signal,rssi,rc_lost_frame_count,rc_total_frame_count,rc_ppm_frame_length,values[0],values[1],values[2],values[3],values[4],values[5],values[6],values[7],values[8],values[9],values[10],values[11],values[12],values[13],values[14],values[15],values[16],values[17],channel_count,rc_failsafe,rc_lost,input_source
68215511,68215511,45,0,0,0,1514,1444,1934,1539,1934,1094,1514,1094,1514,1514,1514,1514,1514,1514,1514,1514,1998,1998,18,0,0,4
68729773,68729773,45,0,0,0,1514,1444,1934,1539,1934,1094,1514,1094,1514,1514,1514,1514,1514,1514,1514,1514,1998,1998,18,0,0,4
69229723,69229723,45,0,0,0,1514,1444,1934,1539,1934,1094,1514,1094,1514,1514,1514,1514,1514,1514,1514,1514,1998,1998,18,0,0,4
69719685,69719685,45,0,0,0,1514,1444,1934,1539,1934,1094,1514,1094,1514,1514,1514,1514,1514,1514,1514,1514,1998,1998,18,0,0,4
70220043,70220043,45,0,0,0,1514,1444,1934,1539,1934,1094,1514,1094,1514,1514,1514,1514,1514,1514,1514,1514,1998,1998,18,0,0,4
70729749,70729749,45,0,0,0,1514,1444,1934,1539,1934,1094,1514,1094,1514,1514,1514,1514,1514,1514,1514,1514,1998,1998,18,0,0,4
71215258,71215258,45,0,0,0,1514,1444,1934,1538,1934,1094,1514,1094,1514,1514,1514,1514,1514,1514,1514,1514,1998,1998,18,0,0,4
71729609,71729609,45,0,0,0,1514,1444,1934,1767,1934,1094,1514,1094,1514,1514,1514,1514,1514,1514,1514,1514,1998,1998,18,0,0,4
72219699,72219699,45,0,0,0,1514,1444,1934,1695,1934,1094,1514,1094,1514,1514,1514,1514,1514,1514,1514,1514,1998,1998,18,0,0,4
72715617,72715617,45,0,0,0,1514,1444,1934,1532,1934,1094,1514,1094,1514,1514,1514,1514,1514,1514,1514,1514,1998,1998,18,0,0,4
73229618,73229618,45,0,0,0,1532,1444,1934,1538,1934,1094,1514,1094,1514,1514,1514,1514,1514,1514,1514,1514,1998,1998,18,0,0,4
73709900,73709900,45,0,0,0,1094,1444,1934,1538,1934,1094,1514,1094,1514,1514,1514,1514,1514,1514,1514,1514,1998,1998,18,0,0,4
74229747,74229747,45,0,0,0,1514,1444,1934,1538,1934,1094,1514,1094,1514,1514,1514,1514,1514,1514,1514,1514,1998,1998,18,0,0,4
74729748,74729748,45,0,0,0,1537,1863,1934,1538,1934,1094,1514,1094,1514,1514,1514,1514,1514,1514,1514,1514,1998,1998,18,0,0,4
75219954,75219954,45,0,0,0,1514,1444,1934,1538,1934,1094,1514,1094,1514,1514,1514,1514,1514,1514,1514,1514,1998,1998,18,0,0,4
75719900,75719900,45,0,0,0,1514,1444,1934,1538,1934,1094,1514,1094,1514,1514,1514,1514,1514,1514,1514,1514,1998,1998,18,0,0,4
76219701,76219701,45,0,0,0,1514,1444,1934,1538,1934,1094,1514,1094,1514,1514,1514,1514,1514,1514,1514,1514,1998,1998,18,0,0,4
76716376,76716376,45,0,0,0,1514,1444,1934,1538,1934,1094,1514,1094,1514,1514,1514,1514,1514,1514,1514,1514,1998,1998,18,0,0,4
77719905,77719905,45,0,0,0,1514,1444,1671,1565,1934,1094,1514,1094,1514,1514,1514,1514,1514,1514,1514,1514,1998,1998,18,0,0,4
78219958,78219958,45,0,0,0,1514,1444,1602,1539,1934,1094,1514,1094,1514,1514,1514,1514,1514,1514,1514,1514,1998,1998,18,0,0,4
78710049,78710049,45,0,0,0,1514,1444,1602,1539,1934,1094,1514,1094,1514,1514,1514,1514,1514,1514,1514,1514,1998,1998,18,0,0,4
79216150,79216150,45,0,0,0,1514,1444,1603,1539,1934,1094,1514,1094,1514,1514,1514,1514,1514,1514,1514,1514,1998,1998,18,0,0,4
80219988,80219988,45,0,0,0,1514,1444,1563,1539,1934,1094,1514,1094,1514,1514,1514,1514,1514,1514,1514,1514,1998,1998,18,0,0,4
80715661,80715661,45,0,0,0,1514,1444,1487,1539,1934,1094,1514,1094,1514,1514,1514,1514,1514,1514,1514,1514,1998,1998,18,0,0,4
81228291,81228291,45,0,0,0,1514,1444,1483,1539,1934,1094,1514,1094,1514,1514,1514,1514,1514,1514,1514,1514,1998,1998,18,0,0,4
81719981,81719981,45,0,0,0,1514,1444,1458,1539,1934,1094,1514,1094,1514,1514,1514,1514,1514,1514,1514,1514,1998,1998,18,0,0,4
83215495,83215495,45,0,0,0,1514,1444,1297,1540,1934,1094,1514,1094,1514,1514,1514,1514,1514,1514,1514,1514,1998,1998,18,0,0,4
84219692,84219692,45,0,0,0,1514,1444,1094,1545,1934,1094,1514,1094,1514,1514,1514,1514,1514,1514,1514,1514,1998,1998,18,0,0,4
84729616,84729616,45,0,0,0,1514,1444,1094,1539,1934,1094,1514,1094,1514,1514,1514,1514,1514,1514,1514,1514,1998,1998,18,0,0,4
85226280,85226280,45,0,0,0,1514,1444,1094,1540,1934,1094,1514,1094,1514,1514,1514,1514,1514,1514,1514,1514,1998,1998,18,0,0,4
85715601,85715601,45,0,0,0,1514,1444,1094,1539,1934,1094,1514,1094,1514,1514,1514,1514,1514,1514,1514,1514,1998,1998,18,0,0,4
86215580,86215580,45,0,0,0,1519,1444,1094,1538,1934,1094,1514,1094,1514,1514,1514,1514,1514,1514,1514,1514,1998,1998,18,0,0,4
86715598,86715598,45,0,0,0,1514,1452,1094,1539,1934,1094,1514,1094,1514,1514,1514,1514,1514,1514,1514,1514,1998,1998,18,0,0,4
87226235,87226235,45,0,0,0,1515,1460,1094,1539,1934,1094,1514,1094,1514,1514,1514,1514,1514,1514,1514,1514,1998,1998,18,0,0,4
87719804,87719804,45,0,0,0,1523,1597,1094,1539,1934,1094,1514,1094,1514,1514,1514,1514,1514,1514,1514,1514,1998,1998,18,0,0,4
88219920,88219920,45,0,0,0,1514,1545,1094,1539,1934,1094,1514,1094,1514,1514,1514,1514,1514,1514,1514,1514,1998,1998,18,0,0,4
88719818,88719818,45,0,0,0,1553,1448,1094,1539,1934,1094,1514,1094,1514,1514,1514,1514,1514,1514,1514,1514,1998,1998,18,0,0,4
89215758,89215758,45,0,0,0,1756,1355,1094,1539,1934,1094,1514,1094,1514,1514,1514,1514,1514,1514,1514,1514,1998,1998,18,0,0,4
89729736,89729736,45,0,0,0,1553,1441,1094,1537,1934,1094,1514,1094,1514,1514,1514,1514,1514,1514,1514,1514,1998,1998,18,0,0,4
90209622,90209622,45,0,0,0,1514,1444,1094,1491,1934,1094,1514,1094,1514,1514,1514,1514,1514,1514,1514,1514,1998,1998,18,0,0,4
90728363,90728363,45,0,0,0,1514,1444,1094,1539,1934,1094,1514,1094,1514,1514,1514,1514,1514,1514,1514,1514,1998,1998,18,0,0,4
91216470,91216470,45,0,0,0,1536,1438,1094,1662,1934,1094,1514,1094,1514,1514,1514,1514,1514,1514,1514,1514,1998,1998,18,0,0,4
91728235,91728235,45,0,0,0,1552,1444,1094,1677,1934,1094,1514,1094,1514,1514,1514,1514,1514,1514,1514,1514,1998,1998,18,0,0,4
92219795,92219795,45,0,0,0,1553,1444,1094,1647,1934,1094,1514,1094,1514,1514,1514,1514,1514,1514,1514,1514,1998,1998,18,0,0,4
92716290,92716290,45,0,0,0,1565,1447,1094,1678,1934,1094,1514,1094,1514,1514,1514,1514,1514,1514,1514,1514,1998,1998,18,0,0,4
93215635,93215635,45,0,0,0,1575,1444,1094,1668,1934,1094,1514,1094,1514,1514,1514,1514,1514,1514,1514,1514,1998,1998,18,0,0,4
93729774,93729774,45,0,0,0,1570,1448,1094,1556,1934,1094,1514,1094,1514,1514,1514,1514,1514,1514,1514,1514,1998,1998,18,0,0,4
94209634,94209634,45,0,0,0,1562,1451,1094,1602,1934,1094,1514,1094,1514,1514,1514,1514,1514,1514,1514,1514,1998,1998,18,0,0,4
94729595,94729595,45,0,0,0,1518,1457,1094,1651,1934,1094,1514,1094,1514,1514,1514,1514,1514,1514,1514,1514,1998,1998,18,0,0,4
95226309,95226309,45,0,0,0,1527,1444,1094,1624,1934,1094,1514,1094,1514,1514,1514,1514,1514,1514,1514,1514,1998,1998,18,0,0,4
95709800,95709800,45,0,0,0,1538,1444,1094,1639,1934,1094,1514,1094,1514,1514,1514,1514,1514,1514,1514,1514,1998,1998,18,0,0,4
96229568,96229568,45,0,0,0,1544,1444,1094,1565,1934,1094,1514,1094,1514,1514,1514,1514,1514,1514,1514,1514,1998,1998,18,0,0,4
96729963,96729963,45,0,0,0,1549,1444,1094,1539,1934,1094,1514,1094,1514,1514,1514,1514,1514,1514,1514,1514,1998,1998,18,0,0,4
97229722,97229722,45,0,0,0,1557,1443,1094,1538,1934,1094,1514,1094,1514,1514,1514,1514,1514,1514,1514,1514,1998,1998,18,0,0,4
97715823,97715823,45,0,0,0,1553,1450,1094,1538,1934,1094,1514,1094,1514,1514,1514,1514,1514,1514,1514,1514,1998,1998,18,0,0,4
98229782,98229782,45,0,0,0,1541,1453,1094,1540,1934,1094,1514,1094,1514,1514,1514,1514,1514,1514,1514,1514,1998,1998,18,0,0,4
98715615,98715615,45,0,0,0,1538,1502,1094,1587,1934,1094,1514,1094,1514,1514,1514,1514,1514,1514,1514,1514,1998,1998,18,0,0,4
99219809,99219809,45,0,0,0,1555,1513,1094,1600,1934,1094,1514,1094,1514,1514,1514,1514,1514,1514,1514,1514,1998,1998,18,0,0,4
99715826,99715826,45,0,0,0,1545,1495,1094,1591,1934,1094,1514,1094,1514,1514,1514,1514,1514,1514,1514,1514,1998,1998,18,0,0,4
100229886,100229886,45,0,0,0,1530,1483,1094,1585,1934,1094,1514,1094,1514,1514,1514,1514,1514,1514,1514,1514,1998,1998,18,0,0,4
100729969,100729969,45,0,0,0,1537,1486,1094,1615,1934,1094,1514,1094,1514,1514,1514,1514,1514,1514,1514,1514,1998,1998,18,0,0,4
101219901,101219901,45,0,0,0,1532,1494,1094,1612,1934,1094,1514,1094,1514,1514,1514,1514,1514,1514,1514,1514,1998,1998,18,0,0,4
101710019,101710019,45,0,0,0,1533,1482,1094,1562,1934,1094,1514,1094,1514,1514,1514,1514,1514,1514,1514,1514,1998,1998,18,0,0,4
102209934,102209934,45,0,0,0,1532,1484,1094,1567,1934,1094,1514,1094,1514,1514,1514,1514,1514,1514,1514,1514,1998,1998,18,0,0,4
102716298,102716298,45,0,0,0,1531,1487,1094,1581,1934,1094,1514,1094,1514,1514,1514,1514,1514,1514,1514,1514,1998,1998,18,0,0,4
103216059,103216059,45,0,0,0,1536,1485,1094,1561,1934,1094,1514,1094,1514,1514,1514,1514,1514,1514,1514,1514,1998,1998,18,0,0,4
103726349,103726349,45,0,0,0,1537,1448,1094,1519,1934,1094,1514,1094,1514,1514,1514,1514,1514,1514,1514,1514,1998,1998,18,0,0,4
104220082,104220082,45,0,0,0,1548,1447,1094,1485,1934,1094,1514,1094,1514,1514,1514,1514,1514,1514,1514,1514,1998,1998,18,0,0,4
104716237,104716237,45,0,0,0,1549,1448,1094,1504,1934,1094,1514,1094,1514,1514,1514,1514,1514,1514,1514,1514,1998,1998,18,0,0,4
105229901,105229901,45,0,0,0,1538,1445,1094,1522,1934,1094,1514,1094,1514,1514,1514,1514,1514,1514,1514,1514,1998,1998,18,0,0,4
105719725,105719725,45,0,0,0,1541,1444,1094,1550,1934,1094,1514,1094,1514,1514,1514,1514,1514,1514,1514,1514,1998,1998,18,0,0,4
107728819,107728819,45,0,0,0,1557,1449,1094,1523,1934,1094,1514,1094,1514,1514,1514,1514,1514,1514,1514,1514,1998,1998,18,0,0,4
108215519,108215519,45,0,0,0,1536,1444,1094,1507,1934,1094,1514,1094,1514,1514,1514,1514,1514,1514,1514,1514,1998,1998,18,0,0,4
108706363,108706363,45,0,0,0,1514,1444,1094,1418,1934,1094,1514,1094,1514,1514,1514,1514,1514,1514,1514,1514,1998,1998,18,0,0,4
109215862,109215862,45,0,0,0,1522,1444,1094,1408,1934,1094,1514,1094,1514,1514,1514,1514,1514,1514,1514,1514,1998,1998,18,0,0,4
109716525,109716525,45,0,0,0,1518,1445,1094,1423,1934,1094,1514,1094,1514,1514,1514,1514,1514,1514,1514,1514,1998,1998,18,0,0,4
110229901,110229901,45,0,0,0,1514,1444,1094,1399,1934,1094,1514,1094,1514,1514,1514,1514,1514,1514,1514,1514,1998,1998,18,0,0,4
110726116,110726116,45,0,0,0,1514,1444,1094,1360,1934,1094,1514,1094,1514,1514,1514,1514,1514,1514,1514,1514,1998,1998,18,0,0,4
111229801,111229801,45,0,0,0,1514,1444,1094,1335,1934,1094,1514,1094,1514,1514,1514,1514,1514,1514,1514,1514,1998,1998,18,0,0,4
111715656,111715656,45,0,0,0,1514,1444,1094,1335,1934,1094,1514,1094,1514,1514,1514,1514,1514,1514,1514,1514,1998,1998,18,0,0,4
112209795,112209795,45,0,0,0,1523,1444,1094,1258,1934,1094,1514,1094,1514,1514,1514,1514,1514,1514,1514,1514,1998,1998,18,0,0,4
112726096,112726096,45,0,0,0,1538,1443,1094,1277,1934,1094,1514,1094,1514,1514,1514,1514,1514,1514,1514,1514,1998,1998,18,0,0,4
113226233,113226233,45,0,0,0,1558,1443,1094,1320,1934,1094,1514,1094,1514,1514,1514,1514,1514,1514,1514,1514,1998,1998,18,0,0,4
113729767,113729767,45,0,0,0,1562,1443,1094,1538,1934,1094,1514,1094,1514,1514,1514,1514,1514,1514,1514,1514,1998,1998,18,0,0,4
114219669,114219669,45,0,0,0,1567,1444,1094,1539,1934,1094,1514,1094,1514,1514,1514,1514,1514,1514,1514,1514,1998,1998,18,0,0,4
114726413,114726413,45,0,0,0,1561,1434,1200,1539,1934,1094,1514,1094,1514,1514,1514,1514,1514,1514,1514,1514,1998,1998,18,0,0,4
115226747,115226747,45,0,0,0,1547,1432,1428,1539,1934,1094,1514,1094,1514,1514,1514,1514,1514,1514,1514,1514,1998,1998,18,0,0,4
115709722,115709722,45,0,0,0,1514,1448,1428,1539,1934,1094,1514,1094,1514,1514,1514,1514,1514,1514,1514,1514,1998,1998,18,0,0,4
116219718,116219718,45,0,0,0,1514,1444,1428,1539,1934,1094,1514,1094,1514,1514,1514,1514,1514,1514,1514,1514,1998,1998,18,0,0,4
116709916,116709916,45,0,0,0,1514,1444,1385,1597,1934,1094,1514,1094,1514,1514,1514,1514,1514,1514,1514,1514,1998,1998,18,0,0,4
117220155,117220155,45,0,0,0,1514,1444,1313,1526,1934,1094,1514,1094,1514,1514,1514,1514,1514,1514,1514,1514,1998,1998,18,0,0,4
117726201,117726201,45,0,0,0,1514,1444,1300,1538,1934,1094,1514,1094,1514,1514,1514,1514,1514,1514,1514,1514,1998,1998,18,0,0,4
118715720,118715720,45,0,0,0,1514,1444,1300,1539,1934,1094,1514,1094,1514,1514,1514,1514,1514,1514,1514,1514,1998,1998,18,0,0,4
119219807,119219807,45,0,0,0,1514,1444,1291,1539,1934,1094,1514,1094,1514,1514,1514,1514,1514,1514,1514,1514,1998,1998,18,0,0,4
119709924,119709924,45,0,0,0,1514,1444,1291,1521,1934,1094,1514,1094,1514,1514,1514,1514,1514,1514,1514,1514,1998,1998,18,0,0,4
120216779,120216779,45,0,0,0,1514,1444,1268,1430,1934,1094,1514,1094,1514,1514,1514,1514,1514,1514,1514,1514,1998,1998,18,0,0,4
120709968,120709968,45,0,0,0,1514,1444,1258,1432,1934,1094,1514,1094,1514,1514,1514,1514,1514,1514,1514,1514,1998,1998,18,0,0,4
121226143,121226143,45,0,0,0,1514,1444,1258,1428,1934,1094,1514,1094,1514,1514,1514,1514,1514,1514,1514,1514,1998,1998,18,0,0,4
121720123,121720123,45,0,0,0,1564,1444,1258,1427,1934,1094,1514,1094,1514,1514,1514,1514,1514,1514,1514,1514,1998,1998,18,0,0,4
122219695,122219695,45,0,0,0,1558,1444,1258,1538,1934,1094,1514,1094,1514,1514,1514,1514,1514,1514,1514,1514,1998,1998,18,0,0,4
122729712,122729712,45,0,0,0,1542,1444,1258,1539,1934,1094,1514,1094,1514,1514,1514,1514,1514,1514,1514,1514,1998,1998,18,0,0,4
123220019,123220019,45,0,0,0,1514,1444,1258,1527,1934,1094,1514,1094,1514,1514,1514,1514,1514,1514,1514,1514,1998,1998,18,0,0,4
123716309,123716309,45,0,0,0,1523,1444,1258,1485,1934,1094,1514,1094,1514,1514,1514,1514,1514,1514,1514,1514,1998,1998,18,0,0,4
124229690,124229690,45,0,0,0,1526,1444,1258,1497,1934,1094,1514,1094,1514,1514,1514,1514,1514,1514,1514,1514,1998,1998,18,0,0,4
124719663,124719663,45,0,0,0,1538,1444,1258,1538,1934,1094,1514,1094,1514,1514,1514,1514,1514,1514,1514,1514,1998,1998,18,0,0,4
125226189,125226189,45,0,0,0,1535,1444,1258,1538,1934,1094,1514,1094,1514,1514,1514,1514,1514,1514,1514,1514,1998,1998,18,0,0,4
125725668,125725668,45,0,0,0,1539,1444,1258,1538,1934,1094,1514,1094,1514,1514,1514,1514,1514,1514,1514,1514,1998,1998,18,0,0,4
126229715,126229715,45,0,0,0,1534,1444,1258,1538,1934,1094,1514,1094,1514,1514,1514,1514,1514,1514,1514,1514,1998,1998,18,0,0,4
126716084,126716084,45,0,0,0,1514,1444,1258,1538,1934,1094,1514,1094,1514,1514,1514,1514,1514,1514,1514,1514,1998,1998,18,0,0,4
127226154,127226154,45,0,0,0,1514,1444,1258,1538,1934,1094,1514,1094,1514,1514,1514,1514,1514,1514,1514,1514,1998,1998,18,0,0,4
129219785,129219785,45,0,0,0,1537,1438,1225,1538,1934,1094,1514,1094,1514,1514,1514,1514,1514,1514,1514,1514,1998,1998,18,0,0,4
129716291,129716291,45,0,0,0,1531,1431,1224,1475,1934,1094,1514,1094,1514,1514,1514,1514,1514,1514,1514,1514,1998,1998,18,0,0,4
130229785,130229785,45,0,0,0,1538,1420,1225,1427,1934,1094,1514,1094,1514,1514,1514,1514,1514,1514,1514,1514,1998,1998,18,0,0,4
130729887,130729887,45,0,0,0,1556,1428,1225,1469,1934,1094,1514,1094,1514,1514,1514,1514,1514,1514,1514,1514,1998,1998,18,0,0,4
131229720,131229720,45,0,0,0,1550,1427,1246,1527,1934,1094,1514,1094,1514,1514,1514,1514,1514,1514,1514,1514,1998,1998,18,0,0,4
131729712,131729712,45,0,0,0,1547,1425,1257,1525,1934,1094,1514,1094,1514,1514,1514,1514,1514,1514,1514,1514,1998,1998,18,0,0,4
132229830,132229830,45,0,0,0,1546,1427,1257,1486,1934,1094,1514,1094,1514,1514,1514,1514,1514,1514,1514,1514,1998,1998,18,0,0,4
132729606,132729606,45,0,0,0,1535,1432,1257,1482,1934,1094,1514,1094,1514,1514,1514,1514,1514,1514,1514,1514,1998,1998,18,0,0,4
133229734,133229734,45,0,0,0,1535,1430,1257,1484,1934,1094,1514,1094,1514,1514,1514,1514,1514,1514,1514,1514,1998,1998,18,0,0,4
133729798,133729798,45,0,0,0,1543,1433,1257,1488,1934,1094,1514,1094,1514,1514,1514,1514,1514,1514,1514,1514,1998,1998,18,0,0,4
134229638,134229638,45,0,0,0,1550,1432,1257,1538,1934,1094,1514,1094,1514,1514,1514,1514,1514,1514,1514,1514,1998,1998,18,0,0,4
134729629,134729629,45,0,0,0,1549,1432,1213,1539,1934,1094,1514,1094,1514,1514,1514,1514,1514,1514,1514,1514,1998,1998,18,0,0,4
135199965,135199965,45,0,0,0,1547,1432,1211,1539,1934,1094,1514,1094,1514,1514,1514,1514,1514,1514,1514,1514,1998,1998,18,0,0,4
135709718,135709718,45,0,0,0,1538,1434,1211,1539,1934,1094,1514,1094,1514,1514,1514,1514,1514,1514,1514,1514,1998,1998,18,0,0,4
136215713,136215713,45,0,0,0,1532,1443,1211,1539,1934,1094,1514,1094,1514,1514,1514,1514,1514,1514,1514,1514,1998,1998,18,0,0,4
136729959,136729959,45,0,0,0,1532,1444,1211,1539,1934,1094,1514,1094,1514,1514,1514,1514,1514,1514,1514,1514,1998,1998,18,0,0,4
137209966,137209966,45,0,0,0,1530,1442,1187,1527,1934,1094,1514,1094,1514,1514,1514,1514,1514,1514,1514,1514,1998,1998,18,0,0,4
137728420,137728420,45,0,0,0,1520,1444,1165,1538,1934,1094,1514,1094,1514,1514,1514,1514,1514,1514,1514,1514,1998,1998,18,0,0,4
138217731,138217731,45,0,0,0,1514,1444,1165,1538,1934,1094,1514,1094,1514,1514,1514,1514,1514,1514,1514,1514,1998,1998,18,0,0,4
138728590,138728590,45,0,0,0,1524,1444,1155,1517,1934,1094,1514,1094,1514,1514,1514,1514,1514,1514,1514,1514,1998,1998,18,0,0,4
139209817,139209817,45,0,0,0,1516,1444,1155,1513,1934,1094,1514,1094,1514,1514,1514,1514,1514,1514,1514,1514,1998,1998,18,0,0,4
139719913,139719913,45,0,0,0,1519,1444,1155,1538,1934,1094,1514,1094,1514,1514,1514,1514,1514,1514,1514,1514,1998,1998,18,0,0,4
140227695,140227695,45,0,0,0,1522,1445,1154,1635,1934,1094,1514,1094,1514,1514,1514,1514,1514,1514,1514,1514,1998,1998,18,0,0,4
140728329,140728329,45,0,0,0,1527,1447,1154,1649,1934,1094,1514,1094,1514,1514,1514,1514,1514,1514,1514,1514,1998,1998,18,0,0,4
141209348,141209348,45,0,0,0,1542,1445,1155,1825,1934,1094,1514,1094,1514,1514,1514,1514,1514,1514,1514,1514,1998,1998,18,0,0,4
141729986,141729986,45,0,0,0,1547,1444,1145,1607,1934,1094,1514,1094,1514,1514,1514,1514,1514,1514,1514,1514,1998,1998,18,0,0,4
142229782,142229782,45,0,0,0,1531,1446,1094,1372,1934,1094,1514,1094,1514,1514,1514,1514,1514,1514,1514,1514,1998,1998,18,0,0,4
143225894,143225894,45,0,0,0,1519,1444,1131,1812,1934,1094,1514,1094,1514,1514,1514,1514,1514,1514,1514,1514,1998,1998,18,0,0,4
143730067,143730067,45,0,0,0,1519,1447,1094,1416,1934,1094,1514,1094,1514,1514,1514,1514,1514,1514,1514,1514,1998,1998,18,0,0,4
144216167,144216167,45,0,0,0,1520,1452,1094,1320,1934,1094,1514,1094,1514,1514,1514,1514,1514,1514,1514,1514,1998,1998,18,0,0,4
144726456,144726456,45,0,0,0,1514,1445,1106,1680,1934,1094,1514,1094,1514,1514,1514,1514,1514,1514,1514,1514,1998,1998,18,0,0,4
146219718,146219718,45,0,0,0,1714,1477,1108,1628,1934,1094,1514,1094,1514,1514,1514,1514,1514,1514,1514,1514,1998,1998,18,0,0,4
146716121,146716121,45,0,0,0,1405,1476,1112,1618,1934,1094,1514,1094,1514,1514,1514,1514,1514,1514,1514,1514,1998,1998,18,0,0,4
147229725,147229725,45,0,0,0,1413,1482,1103,1618,1934,1094,1514,1094,1514,1514,1514,1514,1514,1514,1514,1514,1998,1998,18,0,0,4
147715557,147715557,45,0,0,0,1653,1445,1094,1618,1934,1094,1514,1094,1514,1514,1514,1514,1514,1514,1514,1514,1998,1998,18,0,0,4
148229949,148229949,45,0,0,0,1679,1445,1094,1529,1934,1094,1514,1094,1514,1514,1514,1514,1514,1514,1514,1514,1998,1998,18,0,0,4
148729738,148729738,45,0,0,0,1470,1457,1094,1530,1934,1094,1514,1094,1514,1514,1514,1514,1514,1514,1514,1514,1998,1998,18,0,0,4
149229685,149229685,45,0,0,0,1264,1470,1094,1537,1934,1094,1514,1094,1514,1514,1514,1514,1514,1514,1514,1514,1998,1998,18,0,0,4
149729726,149729726,45,0,0,0,1507,1460,1094,1538,1934,1094,1514,1094,1514,1514,1514,1514,1514,1514,1514,1514,1998,1998,18,0,0,4
150229757,150229757,45,0,0,0,1611,1444,1094,1538,1934,1094,1514,1094,1514,1514,1514,1514,1514,1514,1514,1514,1998,1998,18,0,0,4
150719747,150719747,45,0,0,0,1513,1444,1094,1539,1934,1094,1514,1094,1514,1514,1514,1514,1514,1514,1514,1514,1998,1998,18,0,0,4
151215603,151215603,45,0,0,0,1513,1445,1094,1440,1934,1094,1514,1094,1514,1514,1514,1514,1514,1514,1514,1514,1998,1998,18,0,0,4
151709935,151709935,45,0,0,0,1539,1443,1094,1412,1934,1094,1514,1094,1514,1514,1514,1514,1514,1514,1514,1514,1998,1998,18,0,0,4
152216303,152216303,45,0,0,0,1568,1435,1094,1411,1934,1094,1514,1094,1514,1514,1514,1514,1514,1514,1514,1514,1998,1998,18,0,0,4
152719809,152719809,45,0,0,0,1572,1432,1094,1395,1934,1094,1514,1094,1514,1514,1514,1514,1514,1514,1514,1514,1998,1998,18,0,0,4
153216250,153216250,45,0,0,0,1582,1432,1094,1428,1934,1094,1514,1094,1514,1514,1514,1514,1514,1514,1514,1514,1998,1998,18,0,0,4
153726137,153726137,45,0,0,0,1585,1432,1094,1428,1934,1094,1514,1094,1514,1514,1514,1514,1514,1514,1514,1514,1998,1998,18,0,0,4
154226258,154226258,45,0,0,0,1582,1430,1094,1430,1934,1094,1514,1094,1514,1514,1514,1514,1514,1514,1514,1514,1998,1998,18,0,0,4
154726680,154726680,45,0,0,0,1582,1429,1094,1533,1934,1094,1514,1094,1514,1514,1514,1514,1514,1514,1514,1514,1998,1998,18,0,0,4
155229950,155229950,45,0,0,0,1570,1434,1094,1538,1934,1094,1514,1094,1514,1514,1514,1514,1514,1514,1514,1514,1998,1998,18,0,0,4
155719926,155719926,45,0,0,0,1517,1444,1094,1536,1934,1094,1514,1094,1514,1514,1514,1514,1514,1514,1514,1514,1998,1998,18,0,0,4
156226293,156226293,45,0,0,0,1532,1444,1094,1451,1934,1094,1514,1094,1514,1514,1514,1514,1514,1514,1514,1514,1998,1998,18,0,0,4
156726304,156726304,45,0,0,0,1542,1444,1094,1432,1934,1094,1514,1094,1514,1514,1514,1514,1514,1514,1514,1514,1998,1998,18,0,0,4
158230043,158230043,45,0,0,0,1563,1443,1094,1402,1934,1094,1514,1094,1514,1514,1514,1514,1514,1514,1514,1514,1998,1998,18,0,0,4
158709911,158709911,45,0,0,0,1570,1440,1094,1524,1934,1094,1514,1094,1514,1514,1514,1514,1514,1514,1514,1514,1998,1998,18,0,0,4
159219820,159219820,45,0,0,0,1562,1438,1154,1537,1934,1094,1514,1094,1514,1514,1514,1514,1514,1514,1514,1514,1998,1998,18,0,0,4
159728858,159728858,45,0,0,0,1555,1442,1154,1537,1934,1094,1514,1094,1514,1514,1514,1514,1514,1514,1514,1514,1998,1998,18,0,0,4
160230062,160230062,45,0,0,0,1555,1442,1154,1537,1934,1094,1514,1094,1514,1514,1514,1514,1514,1514,1514,1514,1998,1998,18,0,0,4
160709817,160709817,45,0,0,0,1555,1444,1154,1470,1934,1094,1514,1094,1514,1514,1514,1514,1514,1514,1514,1514,1998,1998,18,0,0,4
161219747,161219747,45,0,0,0,1455,1448,1154,1538,1934,1094,1514,1094,1514,1514,1514,1514,1514,1514,1514,1514,1998,1998,18,0,0,4
161729900,161729900,45,0,0,0,1468,1448,1154,1538,1934,1094,1514,1094,1514,1514,1514,1514,1514,1514,1514,1514,1998,1998,18,0,0,4
162229900,162229900,45,0,0,0,1514,1219,1154,1538,1934,1094,1514,1094,1514,1514,1514,1514,1514,1514,1514,1514,1998,1998,18,0,0,4
162726192,162726192,45,0,0,0,1512,1714,1154,1538,1934,1094,1514,1094,1514,1514,1514,1514,1514,1514,1514,1514,1998,1998,18,0,0,4
163215832,163215832,45,0,0,0,1514,1350,1154,1538,1934,1094,1514,1094,1514,1514,1514,1514,1514,1514,1514,1514,1998,1998,18,0,0,4
163719805,163719805,45,0,0,0,1521,1245,1154,1538,1934,1094,1514,1094,1514,1514,1514,1514,1514,1514,1514,1514,1998,1998,18,0,0,4
164215659,164215659,45,0,0,0,1514,1763,1154,1538,1934,1094,1514,1094,1514,1514,1514,1514,1514,1514,1514,1514,1998,1998,18,0,0,4
164716082,164716082,45,0,0,0,1514,1290,1154,1538,1934,1094,1514,1094,1514,1514,1514,1514,1514,1514,1514,1514,1998,1998,18,0,0,4
165229815,165229815,45,0,0,0,1530,1256,1154,1538,1934,1094,1514,1094,1514,1514,1514,1514,1514,1514,1514,1514,1998,1998,18,0,0,4
165728371,165728371,45,0,0,0,1519,1766,1154,1538,1934,1094,1514,1094,1514,1514,1514,1514,1514,1514,1514,1514,1998,1998,18,0,0,4
166229637,166229637,45,0,0,0,1522,1221,1154,1538,1934,1094,1514,1094,1514,1514,1514,1514,1514,1514,1514,1514,1998,1998,18,0,0,4
166729768,166729768,45,0,0,0,1518,1293,1154,1538,1934,1094,1514,1094,1514,1514,1514,1514,1514,1514,1514,1514,1998,1998,18,0,0,4
167219724,167219724,45,0,0,0,1514,1804,1154,1538,1934,1094,1514,1094,1514,1514,1514,1514,1514,1514,1514,1514,1998,1998,18,0,0,4
167728359,167728359,45,0,0,0,1522,1140,1154,1538,1934,1094,1514,1094,1514,1514,1514,1514,1514,1514,1514,1514,1998,1998,18,0,0,4
168215802,168215802,45,0,0,0,1523,1302,1154,1538,1934,1094,1514,1094,1514,1514,1514,1514,1514,1514,1514,1514,1998,1998,18,0,0,4
169715824,169715824,45,0,0,0,1514,1465,1154,1538,1934,1094,1514,1094,1514,1514,1514,1514,1514,1514,1514,1514,1998,1998,18,0,0,4
170229884,170229884,45,0,0,0,1514,1444,1154,1538,1934,1094,1514,1094,1514,1514,1514,1514,1514,1514,1514,1514,1998,1998,18,0,0,4
170728594,170728594,45,0,0,0,1514,1444,1190,1538,1934,1094,1514,1094,1514,1514,1514,1514,1514,1514,1514,1514,1998,1998,18,0,0,4
171219801,171219801,45,0,0,0,1514,1444,1190,1538,1934,1094,1514,1094,1514,1514,1514,1514,1514,1514,1514,1514,1998,1998,18,0,0,4
171719903,171719903,45,0,0,0,1514,1444,1190,1538,1934,1094,1514,1094,1514,1514,1514,1514,1514,1514,1514,1514,1998,1998,18,0,0,4
172209168,172209168,45,0,0,0,1514,1444,1191,1573,1934,1094,1514,1094,1514,1514,1514,1514,1514,1514,1514,1514,1998,1998,18,0,0,4
172727597,172727597,45,0,0,0,1514,1444,1191,1604,1934,1094,1514,1094,1514,1514,1514,1514,1514,1514,1514,1514,1998,1998,18,0,0,4
173209810,173209810,45,0,0,0,1470,1449,1191,1539,1934,1094,1514,1094,1514,1514,1514,1514,1514,1514,1514,1514,1998,1998,18,0,0,4
173716233,173716233,45,0,0,0,1503,1445,1191,1538,1934,1094,1514,1094,1514,1514,1514,1514,1514,1514,1514,1514,1998,1998,18,0,0,4
174217241,174217241,45,0,0,0,1514,1444,1191,1538,1934,1094,1514,1094,1514,1514,1514,1514,1514,1514,1514,1514,1998,1998,18,0,0,4
174719727,174719727,45,0,0,0,1514,1444,1191,1482,1934,1094,1514,1094,1514,1514,1514,1514,1514,1514,1514,1514,1998,1998,18,0,0,4
175209712,175209712,45,0,0,0,1514,1444,1198,1490,1934,1094,1514,1094,1514,1514,1514,1514,1514,1514,1514,1514,1998,1998,18,0,0,4
175719747,175719747,45,0,0,0,1514,1444,1236,1515,1934,1094,1514,1094,1514,1514,1514,1514,1514,1514,1514,1514,1998,1998,18,0,0,4
176226254,176226254,45,0,0,0,1514,1444,1258,1533,1934,1094,1514,1094,1514,1514,1514,1514,1514,1514,1514,1514,1998,1998,18,0,0,4
176716972,176716972,45,0,0,0,1514,1444,1258,1497,1934,1094,1514,1094,1514,1514,1514,1514,1514,1514,1514,1514,1998,1998,18,0,0,4
177729657,177729657,45,0,0,0,1526,1444,1243,1432,1934,1094,1514,1094,1514,1514,1514,1514,1514,1514,1514,1514,1998,1998,18,0,0,4
179219980,179219980,45,0,0,0,1565,1444,1175,1403,1934,1094,1514,1094,1514,1514,1514,1514,1514,1514,1514,1514,1998,1998,18,0,0,4
179725886,179725886,45,0,0,0,1564,1444,1153,1402,1934,1094,1514,1094,1514,1514,1514,1514,1514,1514,1514,1514,1998,1998,18,0,0,4
180226199,180226199,45,0,0,0,1562,1444,1153,1402,1934,1094,1514,1094,1514,1514,1514,1514,1514,1514,1514,1514,1998,1998,18,0,0,4
180719953,180719953,45,0,0,0,1566,1444,1153,1412,1934,1094,1514,1094,1514,1514,1514,1514,1514,1514,1514,1514,1998,1998,18,0,0,4
181226143,181226143,45,0,0,0,1568,1444,1155,1429,1934,1094,1514,1094,1514,1514,1514,1514,1514,1514,1514,1514,1998,1998,18,0,0,4
181719933,181719933,45,0,0,0,1575,1444,1200,1490,1934,1094,1514,1094,1514,1514,1514,1514,1514,1514,1514,1514,1998,1998,18,0,0,4
182208343,182208343,45,0,0,0,1579,1444,1200,1541,1934,1094,1514,1094,1514,1514,1514,1514,1514,1514,1514,1514,1998,1998,18,0,0,4
182716453,182716453,45,0,0,0,1547,1445,1193,1620,1934,1094,1514,1094,1514,1514,1514,1514,1514,1514,1514,1514,1998,1998,18,0,0,4
183219968,183219968,45,0,0,0,1514,1444,1191,1617,1934,1094,1514,1094,1514,1514,1514,1514,1514,1514,1514,1514,1998,1998,18,0,0,4
183729816,183729816,45,0,0,0,1514,1444,1191,1571,1934,1094,1514,1094,1514,1514,1514,1514,1514,1514,1514,1514,1998,1998,18,0,0,4
184209389,184209389,45,0,0,0,1514,1444,1191,1539,1934,1094,1514,1094,1514,1514,1514,1514,1514,1514,1514,1514,1998,1998,18,0,0,4
184719933,184719933,45,0,0,0,1526,1444,1191,1545,1934,1094,1514,1094,1514,1514,1514,1514,1514,1514,1514,1514,1998,1998,18,0,0,4
185229916,185229916,45,0,0,0,1514,1444,1191,1586,1934,1094,1514,1094,1514,1514,1514,1514,1514,1514,1514,1514,1998,1998,18,0,0,4
185728444,185728444,45,0,0,0,1524,1444,1191,1570,1934,1094,1514,1094,1514,1514,1514,1514,1514,1514,1514,1514,1998,1998,18,0,0,4
186220083,186220083,45,0,0,0,1533,1444,1191,1550,1934,1094,1514,1094,1514,1514,1514,1514,1514,1514,1514,1514,1998,1998,18,0,0,4
186727748,186727748,45,0,0,0,1533,1444,1191,1571,1934,1094,1514,1094,1514,1514,1514,1514,1514,1514,1514,1514,1998,1998,18,0,0,4
187220104,187220104,45,0,0,0,1530,1444,1191,1571,1934,1094,1514,1094,1514,1514,1514,1514,1514,1514,1514,1514,1998,1998,18,0,0,4
187708329,187708329,45,0,0,0,1531,1444,1191,1571,1934,1094,1514,1094,1514,1514,1514,1514,1514,1514,1514,1514,1998,1998,18,0,0,4
188209223,188209223,45,0,0,0,1528,1444,1191,1570,1934,1094,1514,1094,1514,1514,1514,1514,1514,1514,1514,1514,1998,1998,18,0,0,4
188719940,188719940,45,0,0,0,1536,1444,1191,1712,1934,1094,1514,1094,1514,1514,1514,1514,1514,1514,1514,1514,1998,1998,18,0,0,4
189228305,189228305,45,0,0,0,1537,1444,1222,1685,1934,1094,1514,1094,1514,1514,1514,1514,1514,1514,1514,1514,1998,1998,18,0,0,4
189728484,189728484,45,0,0,0,1542,1444,1158,1385,1934,1094,1514,1094,1514,1514,1514,1514,1514,1514,1514,1514,1998,1998,18,0,0,4
190225720,190225720,45,0,0,0,1542,1444,1153,1428,1934,1094,1514,1094,1514,1514,1514,1514,1514,1514,1514,1514,1998,1998,18,0,0,4
190709750,190709750,45,0,0,0,1542,1444,1190,1740,1934,1094,1514,1094,1514,1514,1514,1514,1514,1514,1514,1514,1998,1998,18,0,0,4
191209729,191209729,45,0,0,0,1545,1444,1145,1506,1934,1094,1514,1094,1514,1514,1514,1514,1514,1514,1514,1514,1998,1998,18,0,0,4
191716731,191716731,45,0,0,0,1546,1444,1118,1391,1934,1094,1514,1094,1514,1514,1514,1514,1514,1514,1514,1514,1998,1998,18,0,0,4
192220090,192220090,45,0,0,0,1546,1444,1119,1570,1934,1094,1514,1094,1514,1514,1514,1514,1514,1514,1514,1514,1998,1998,18,0,0,4
192708397,192708397,45,0,0,0,1531,1447,1168,1759,1934,1094,1514,1094,1514,1514,1514,1514,1514,1514,1514,1514,1998,1998,18,0,0,4
193215661,193215661,45,0,0,0,1527,1451,1164,1665,1934,1094,1514,1094,1514,1514,1514,1514,1514,1514,1514,1514,1998,1998,18,0,0,4
193716209,193716209,45,0,0,0,1554,1446,1094,1418,1934,1094,1514,1094,1514,1514,1514,1514,1514,1514,1514,1514,1998,1998,18,0,0,4
194216366,194216366,45,0,0,0,1573,1444,1094,1381,1934,1094,1514,1094,1514,1514,1514,1514,1514,1514,1514,1514,1998,1998,18,0,0,4
194715683,194715683,45,0,0,0,1546,1444,1094,1370,1934,1094,1514,1094,1514,1514,1514,1514,1514,1514,1514,1514,1998,1998,18,0,0,4
195218427,195218427,45,0,0,0,1553,1444,1094,1493,1934,1094,1514,1094,1514,1514,1514,1514,1514,1514,1514,1514,1998,1998,18,0,0,4
195729784,195729784,45,0,0,0,1570,1444,1094,1539,1934,1094,1514,1094,1514,1514,1514,1514,1514,1514,1514,1514,1998,1998,18,0,0,4
196229649,196229649,45,0,0,0,1577,1444,1094,1539,1934,1094,1514,1094,1514,1514,1514,1514,1514,1514,1514,1514,1998,1998,18,0,0,4
196729931,196729931,45,0,0,0,1577,1443,1094,1539,1934,1094,1514,1094,1514,1514,1514,1514,1514,1514,1514,1514,1998,1998,18,0,0,4
197229766,197229766,45,0,0,0,1589,1444,1094,1539,1934,1094,1514,1094,1514,1514,1514,1514,1514,1514,1514,1514,1998,1998,18,0,0,4
197729674,197729674,45,0,0,0,1591,1444,1094,1539,1934,1094,1514,1094,1514,1514,1514,1514,1514,1514,1514,1514,1998,1998,18,0,0,4
198229919,198229919,45,0,0,0,1548,1444,1094,1539,1934,1094,1514,1094,1514,1514,1514,1514,1514,1514,1514,1514,1998,1998,18,0,0,4
198716296,198716296,45,0,0,0,1557,1444,1094,1477,1934,1094,1514,1094,1514,1514,1514,1514,1514,1514,1514,1514,1998,1998,18,0,0,4
199217257,199217257,45,0,0,0,1563,1444,1094,1516,1934,1094,1514,1094,1514,1514,1514,1514,1514,1514,1514,1514,1998,1998,18,0,0,4
200220029,200220029,45,0,0,0,1515,1444,1094,1411,1934,1094,1514,1094,1514,1514,1514,1514,1514,1514,1514,1514,1998,1998,18,0,0,4
200720004,200720004,45,0,0,0,1517,1444,1094,1363,1934,1094,1514,1094,1514,1514,1514,1514,1514,1514,1514,1514,1998,1998,18,0,0,4
201229998,201229998,45,0,0,0,1556,1444,1094,1369,1934,1094,1514,1094,1514,1514,1514,1514,1514,1514,1514,1514,1998,1998,18,0,0,4
201709919,201709919,45,0,0,0,1568,1444,1094,1373,1934,1094,1514,1094,1514,1514,1514,1514,1514,1514,1514,1514,1998,1998,18,0,0,4
202209797,202209797,45,0,0,0,1573,1443,1094,1358,1934,1094,1514,1094,1514,1514,1514,1514,1514,1514,1514,1514,1998,1998,18,0,0,4
202716094,202716094,45,0,0,0,1560,1443,1094,1360,1934,1094,1514,1094,1514,1514,1514,1514,1514,1514,1514,1514,1998,1998,18,0,0,4
203217154,203217154,45,0,0,0,1562,1444,1094,1368,1934,1094,1514,1094,1514,1514,1514,1514,1514,1514,1514,1514,1998,1998,18,0,0,4
203726187,203726187,45,0,0,0,1572,1444,1094,1435,1934,1094,1514,1094,1514,1514,1514,1514,1514,1514,1514,1514,1998,1998,18,0,0,4
204215482,204215482,45,0,0,0,1528,1447,1094,1425,1934,1094,1514,1094,1514,1514,1514,1514,1514,1514,1514,1514,1998,1998,18,0,0,4
204719949,204719949,45,0,0,0,1550,1444,1094,1539,1934,1094,1514,1094,1514,1514,1514,1514,1514,1514,1514,1514,1998,1998,18,0,0,4
205210040,205210040,45,0,0,0,1537,1444,1094,1534,1934,1094,1514,1094,1514,1514,1514,1514,1514,1514,1514,1514,1998,1998,18,0,0,4
205727435,205727435,45,0,0,0,1524,1444,1122,1528,1934,1094,1514,1094,1514,1514,1514,1514,1514,1514,1514,1514,1998,1998,18,0,0,4
206215740,206215740,45,0,0,0,1534,1444,1119,1538,1934,1094,1514,1094,1514,1514,1514,1514,1514,1514,1514,1514,1998,1998,18,0,0,4
206731184,206731184,45,0,0,0,1542,1444,1105,1447,1934,1094,1514,1094,1514,1514,1514,1514,1514,1514,1514,1514,1998,1998,18,0,0,4
207215493,207215493,45,0,0,0,1542,1444,1100,1434,1934,1094,1514,1094,1514,1514,1514,1514,1514,1514,1514,1514,1998,1998,18,0,0,4
207719935,207719935,45,0,0,0,1514,1445,1102,1469,1934,1094,1514,1094,1514,1514,1514,1514,1514,1514,1514,1514,1998,1998,18,0,0,4
208228658,208228658,45,0,0,0,1548,1444,1094,1457,1934,1094,1514,1094,1514,1514,1514,1514,1514,1514,1514,1514,1998,1998,18,0,0,4
208728548,208728548,45,0,0,0,1552,1444,1094,1532,1934,1094,1514,1094,1514,1514,1514,1514,1514,1514,1514,1514,1998,1998,18,0,0,4
209228294,209228294,45,0,0,0,1543,1444,1094,1527,1934,1094,1514,1094,1514,1514,1514,1514,1514,1514,1514,1514,1998,1998,18,0,0,4
211715552,211715552,45,0,0,0,1530,1444,1224,1507,1934,1094,1514,1094,1514,1514,1514,1514,1514,1514,1514,1514,1998,1998,18,0,0,4
212229980,212229980,45,0,0,0,1520,1444,1224,1486,1934,1094,1514,1094,1514,1514,1514,1514,1514,1514,1514,1514,1998,1998,18,0,0,4
212719679,212719679,45,0,0,0,1514,1444,1224,1538,1934,1094,1514,1094,1514,1514,1514,1514,1514,1514,1514,1514,1998,1998,18,0,0,4
213215654,213215654,45,0,0,0,1514,1444,1224,1539,1934,1094,1514,1094,1514,1514,1514,1514,1514,1514,1514,1514,1998,1998,18,0,0,4
213710006,213710006,45,0,0,0,1514,1444,1224,1608,1934,1094,1514,1094,1514,1514,1514,1514,1514,1514,1514,1514,1998,1998,18,0,0,4
214209787,214209787,45,0,0,0,1514,1444,1224,1539,1934,1094,1514,1094,1514,1514,1514,1514,1514,1514,1514,1514,1998,1998,18,0,0,4
214709935,214709935,45,0,0,0,1514,1444,1225,1539,1934,1094,1514,1094,1514,1514,1514,1514,1514,1514,1514,1514,1998,1998,18,0,0,4
215220127,215220127,45,0,0,0,1514,1444,1273,1539,1934,1094,1514,1094,1514,1514,1514,1514,1514,1514,1514,1514,1998,1998,18,0,0,4
215726195,215726195,45,0,0,0,1514,1444,1273,1539,1934,1094,1514,1094,1514,1514,1514,1514,1514,1514,1514,1514,1998,1998,18,0,0,4
216230015,216230015,45,0,0,0,1514,1444,1273,1539,1934,1094,1514,1094,1514,1514,1514,1514,1514,1514,1514,1514,1998,1998,18,0,0,4
216715555,216715555,45,0,0,0,1514,1444,1273,1539,1934,1094,1514,1094,1514,1514,1514,1514,1514,1514,1514,1514,1998,1998,18,0,0,4
217217404,217217404,45,0,0,0,1514,1444,1273,1539,1934,1094,1514,1094,1514,1514,1514,1514,1514,1514,1514,1514,1998,1998,18,0,0,4
217719760,217719760,45,0,0,0,1508,1445,1273,1539,1934,1094,1514,1094,1514,1514,1514,1514,1514,1514,1514,1514,1998,1998,18,0,0,4
218219898,218219898,45,0,0,0,1499,1444,1258,1565,1934,1094,1514,1094,1514,1514,1514,1514,1514,1514,1514,1514,1998,1998,18,0,0,4
218715670,218715670,45,0,0,0,1502,1444,1258,1539,1934,1094,1514,1094,1514,1514,1514,1514,1514,1514,1514,1514,1998,1998,18,0,0,4
219229702,219229702,45,0,0,0,1513,1444,1258,1539,1934,1094,1514,1094,1514,1514,1514,1514,1514,1514,1514,1514,1998,1998,18,0,0,4
219725994,219725994,45,0,0,0,1514,1444,1258,1534,1934,1094,1514,1094,1514,1514,1514,1514,1514,1514,1514,1514,1998,1998,18,0,0,4
220219813,220219813,45,0,0,0,1514,1444,1934,1524,1934,1094,1514,1094,1514,1514,1514,1514,1514,1514,1514,1514,1998,1998,18,0,0,4
220729775,220729775,45,0,0,0,1514,1444,1934,1615,1934,1094,1514,1094,1514,1514,1514,1514,1514,1514,1514,1514,1998,1998,18,0,0,4
221229919,221229919,45,0,0,0,1514,1444,1934,1583,1934,1094,1514,1094,1514,1514,1514,1514,1514,1514,1514,1514,1998,1998,18,0,0,4
221720010,221720010,45,0,0,0,1514,1444,1934,1538,1934,1094,1514,1094,1514,1514,1514,1514,1514,1514,1514,1514,1998,1998,18,0,0,4
222220098,222220098,45,0,0,0,1514,1444,1934,1538,1934,1094,1514,1094,1514,1514,1514,1514,1514,1514,1514,1514,1998,1998,18,0,0,4
222719757,222719757,45,0,0,0,1514,1444,1934,1538,1934,1094,1514,1094,1514,1514,1514,1514,1514,1514,1514,1514,1998,1998,18,0,0,4
223216580,223216580,45,0,0,0,1514,1444,1934,1624,1934,1094,1514,1094,1514,1514,1514,1514,1514,1514,1514,1514,1998,1998,18,0,0,4
223719826,223719826,45,0,0,0,1514,1444,1934,1538,1934,1094,1514,1094,1514,1514,1514,1514,1514,1514,1514,1514,1998,1998,18,0,0,4
224215420,224215420,45,0,0,0,1514,1444,1934,1538,1934,1094,1514,1094,1514,1514,1514,1514,1514,1514,1514,1514,1998,1998,18,0,0,4
224719906,224719906,45,0,0,0,1514,1444,1934,1569,1934,1094,1514,1094,1514,1514,1514,1514,1514,1514,1514,1514,1998,1998,18,0,0,4
225220094,225220094,45,0,0,0,1514,1444,1934,1538,1934,1094,1514,1094,1514,1514,1514,1514,1514,1514,1514,1514,1998,1998,18,0,0,4
225725639,225725639,45,0,0,0,1514,1444,1934,1538,1934,1094,1514,1094,1514,1514,1514,1514,1514,1514,1514,1514,1998,1998,18,0,0,4
226229931,226229931,45,0,0,0,1514,1444,1934,1528,1934,1094,1514,1094,1514,1514,1514,1514,1514,1514,1514,1514,1998,1998,18,0,0,4
226709899,226709899,45,0,0,0,1514,1444,1934,1507,1934,1094,1514,1094,1514,1514,1514,1514,1514,1514,1514,1514,1998,1998,18,0,0,4
227217024,227217024,45,0,0,0,1514,1444,1934,1506,1934,1094,1514,1094,1514,1514,1514,1514,1514,1514,1514,1514,1998,1998,18,0,0,4
227709981,227709981,45,0,0,0,1514,1444,1934,1447,1934,1094,1514,1094,1514,1514,1514,1514,1514,1514,1514,1514,1998,1998,18,0,0,4
228216229,228216229,45,0,0,0,1514,1444,1934,1324,1934,1094,1514,1094,1514,1514,1514,1514,1514,1514,1514,1514,1998,1998,18,0,0,4
231229927,231229927,45,0,0,0,1534,1445,1934,1443,1934,1094,1514,1094,1514,1514,1514,1514,1514,1514,1514,1514,1998,1998,18,0,0,4
231709752,231709752,45,0,0,0,1520,1444,1934,1422,1934,1094,1514,1094,1514,1514,1514,1514,1514,1514,1514,1514,1998,1998,18,0,0,4
232206220,232206220,45,0,0,0,1543,1444,1934,1465,1934,1094,1514,1094,1514,1514,1514,1514,1514,1514,1514,1514,1998,1998,18,0,0,4
232729763,232729763,45,0,0,0,1558,1445,1934,1497,1934,1094,1514,1094,1514,1514,1514,1514,1514,1514,1514,1514,1998,1998,18,0,0,4
233230028,233230028,45,0,0,0,1570,1445,1934,1486,1934,1094,1514,1094,1514,1514,1514,1514,1514,1514,1514,1514,1998,1998,18,0,0,4
233729912,233729912,45,0,0,0,1563,1444,1934,1538,1934,1094,1514,1094,1514,1514,1514,1514,1514,1514,1514,1514,1998,1998,18,0,0,4
234226661,234226661,45,0,0,0,1553,1444,1934,1519,1934,1094,1514,1094,1514,1514,1514,1514,1514,1514,1514,1514,1998,1998,18,0,0,4
234729995,234729995,45,0,0,0,1514,1444,1934,1456,1934,1094,1514,1094,1514,1514,1514,1514,1514,1514,1514,1514,1998,1998,18,0,0,4
235229796,235229796,45,0,0,0,1514,1444,1934,1538,1934,1094,1514,1094,1514,1514,1514,1514,1514,1514,1514,1514,1998,1998,18,0,0,4
235716760,235716760,45,0,0,0,1514,1444,1934,1593,1934,1094,1514,1094,1514,1514,1514,1514,1514,1514,1514,1514,1998,1998,18,0,0,4
236226630,236226630,45,0,0,0,1514,1444,1934,1660,1934,1094,1514,1094,1514,1514,1514,1514,1514,1514,1514,1514,1998,1998,18,0,0,4
236726534,236726534,45,0,0,0,1514,1444,1931,1558,1934,1094,1514,1094,1514,1514,1514,1514,1514,1514,1514,1514,1998,1998,18,0,0,4
237229912,237229912,45,0,0,0,1514,1444,1934,1638,1934,1094,1514,1094,1514,1514,1514,1514,1514,1514,1514,1514,1998,1998,18,0,0,4
237709908,237709908,45,0,0,0,1514,1444,1931,1634,1934,1094,1514,1094,1514,1514,1514,1514,1514,1514,1514,1514,1998,1998,18,0,0,4
238219905,238219905,45,0,0,0,1514,1444,1931,1615,1934,1094,1514,1094,1514,1514,1514,1514,1514,1514,1514,1514,1998,1998,18,0,0,4
238725679,238725679,45,0,0,0,1528,1444,1931,1609,1934,1094,1514,1094,1514,1514,1514,1514,1514,1514,1514,1514,1998,1998,18,0,0,4
239225850,239225850,45,0,0,0,1559,1444,1931,1539,1934,1094,1514,1094,1514,1514,1514,1514,1514,1514,1514,1514,1998,1998,18,0,0,4
239729914,239729914,45,0,0,0,1563,1444,1932,1528,1934,1094,1514,1094,1514,1514,1514,1514,1514,1514,1514,1514,1998,1998,18,0,0,4
240209752,240209752,45,0,0,0,1559,1444,1932,1538,1934,1094,1514,1094,1514,1514,1514,1514,1514,1514,1514,1514,1998,1998,18,0,0,4
240725510,240725510,45,0,0,0,1522,1444,1932,1538,1934,1094,1514,1094,1514,1514,1514,1514,1514,1514,1514,1514,1998,1998,18,0,0,4
241219971,241219971,45,0,0,0,1532,1444,1931,1538,1934,1094,1514,1094,1514,1514,1514,1514,1514,1514,1514,1514,1998,1998,18,0,0,4
241720082,241720082,45,0,0,0,1575,1438,1931,1570,1934,1094,1514,1094,1514,1514,1514,1514,1514,1514,1514,1514,1998,1998,18,0,0,4
242726169,242726169,45,0,0,0,1540,1444,1932,1540,1934,1094,1514,1094,1514,1514,1514,1514,1514,1514,1514,1514,1998,1998,18,0,0,4
243209944,243209944,45,0,0,0,1557,1444,1934,1682,1934,1094,1514,1094,1514,1514,1514,1514,1514,1514,1514,1514,1998,1998,18,0,0,4
243726690,243726690,45,0,0,0,1558,1444,1934,1600,1934,1094,1514,1094,1514,1514,1514,1514,1514,1514,1514,1514,1998,1998,18,0,0,4
244209691,244209691,45,0,0,0,1570,1444,1934,1634,1934,1094,1514,1094,1514,1514,1514,1514,1514,1514,1514,1514,1998,1998,18,0,0,4
244726478,244726478,45,0,0,0,1653,1444,1934,1507,1934,1094,1514,1094,1514,1514,1514,1514,1514,1514,1514,1514,1998,1998,18,0,0,4
245220093,245220093,45,0,0,0,1648,1445,1934,1125,1934,1094,1514,1094,1514,1514,1514,1514,1514,1514,1514,1514,1998,1998,18,0,0,4
245719755,245719755,45,0,0,0,1760,1444,1934,1736,1934,1094,1514,1094,1514,1514,1514,1514,1514,1514,1514,1514,1998,1998,18,0,0,4
246217259,246217259,45,0,0,0,1934,1433,1934,1962,1934,1094,1514,1094,1514,1514,1514,1514,1514,1514,1514,1514,1998,1998,18,0,0,4
246715557,246715557,45,0,0,0,1934,1427,1934,1962,1934,1094,1514,1094,1514,1514,1514,1514,1514,1514,1514,1514,1998,1998,18,0,0,4
247209784,247209784,45,0,0,0,1934,1417,1934,1962,1934,1094,1514,1094,1514,1514,1514,1514,1514,1514,1514,1514,1998,1998,18,0,0,4
247726315,247726315,45,0,0,0,1934,1420,1934,1962,1934,1094,1514,1094,1514,1514,1514,1514,1514,1514,1514,1514,1998,1998,18,0,0,4
248226186,248226186,45,0,0,0,1934,1432,1934,1962,1934,1094,1514,1094,1514,1514,1514,1514,1514,1514,1514,1514,1998,1998,18,0,0,4
249219950,249219950,45,0,0,0,1514,1444,1934,1538,1934,1094,1514,1094,1514,1514,1514,1514,1514,1514,1514,1514,1998,1998,18,0,0,4
249715652,249715652,45,0,0,0,1514,1444,1933,1536,1934,1094,1514,1094,1514,1514,1514,1514,1514,1514,1514,1514,1998,1998,18,0,0,4
250230043,250230043,45,0,0,0,1514,1444,1934,1545,1934,1094,1514,1094,1514,1514,1514,1514,1514,1514,1514,1514,1998,1998,18,0,0,4
250715582,250715582,45,0,0,0,1514,1444,1934,1565,1934,1094,1514,1094,1514,1514,1514,1514,1514,1514,1514,1514,1998,1998,18,0,0,4
251219745,251219745,45,0,0,0,1514,1444,1934,1538,1934,1094,1514,1094,1514,1514,1514,1514,1514,1514,1514,1514,1998,1998,18,0,0,4
251715617,251715617,45,0,0,0,1514,1444,1934,1538,1934,1094,1514,1094,1514,1514,1514,1514,1514,1514,1514,1514,1998,1998,18,0,0,4
