timestamp,gps_hvel[0],gps_hvel[1],gps_vvel,gps_hpos[0],gps_hpos[1],gps_vpos,ev_hvel[0],ev_hvel[1],ev_vvel,ev_hpos[0],ev_hpos[1],ev_vpos,fake_hvel[0],fake_hvel[1],fake_vvel,fake_hpos[0],fake_hpos[1],fake_vpos,rng_vpos,baro_vpos,aux_hvel[0],aux_hvel[1],aux_vvel,flow[0],flow[1],heading,mag_field[0],mag_field[1],mag_field[2],drag[0],drag[1],airspeed,beta,hagl
68222354,0.0010347689,3.7072197e-05,0.00086982397,0.00036665218,0.010992507,0.0,0.0,0.15243895,0.0,0.0,3.8396678e-11,0.0,nan,nan,nan,nan,nan,nan,0.0,3.4068304e-05,0.0,0.0,nan,0.0,0.15243895,4.4440992e-05,0.0,0.0,0.0,0.0,0.0,0.0,0.0,0.0
68432359,9.682329e-05,3.7023252e-05,7.2593475e-06,0.00035103285,0.011015814,0.0,0.0,0.15233965,0.0,0.0,3.8287276e-11,0.0,nan,nan,nan,nan,nan,nan,0.0,9.088652e-05,0.0,0.0,nan,0.0,0.15233965,0.0003894018,0.0,0.0,0.0,0.0,0.0,0.0,0.0,0.0
68632396,0.003473148,3.6945927e-05,0.00012705356,0.00030340612,0.010997919,0.0,0.0,0.15172866,0.0,0.0,3.817024e-11,0.0,nan,nan,nan,nan,nan,nan,0.0,9.476525e-05,0.0,0.0,nan,0.0,0.15172866,0.00013049963,0.0,0.0,0.0,0.0,0.0,0.0,0.0,0.0
68832358,0.0025485775,3.6871028e-05,1.0862877e-06,0.00031914035,0.011035022,0.0,0.0,0.15302736,0.0,0.0,3.8055527e-11,0.0,nan,nan,nan,nan,nan,nan,0.0,7.377005e-06,0.0,0.0,nan,0.0,0.15302736,0.0003140084,0.0,0.0,0.0,0.0,0.0,0.0,0.0,0.0
69032368,0.000723126,3.6794667e-05,0.00023490799,0.0002056303,0.011018275,0.0,0.0,0.15243779,0.0,0.0,3.7943086e-11,0.0,nan,nan,nan,nan,nan,nan,0.0,7.26692e-09,0.0,0.0,nan,0.0,0.15243779,0.0019965621,0.0,0.0,0.0,0.0,0.0,0.0,0.0,0.0
69222394,8.733727e-06,3.6689285e-05,0.0010441284,0.00019121254,0.010960713,0.0,0.0,0.15134302,0.0,0.0,3.7822887e-11,0.0,nan,nan,nan,nan,nan,nan,0.0,0.00034894896,0.0,0.0,nan,0.0,0.15134302,0.004330712,0.0,0.0,0.0,0.0,0.0,0.0,0.0,0.0
69432397,4.594554e-05,3.6646572e-05,4.0646457e-05,0.00023664557,0.010984661,0.0,0.0,0.15128022,0.0,0.0,3.7724872e-11,0.0,nan,nan,nan,nan,nan,nan,0.0,4.1396493e-06,0.0,0.0,nan,0.0,0.15128022,0.0008609797,0.0,0.0,0.0,0.0,0.0,0.0,0.0,0.0
69632399,5.956783e-05,3.657582e-05,6.2255676e-05,0.00021274107,0.011022652,0.0,0.0,0.15260126,0.0,0.0,3.7619005e-11,0.0,nan,nan,nan,nan,nan,nan,0.0,5.989095e-06,0.0,0.0,nan,0.0,0.15260126,0.00039314042,0.0,0.0,0.0,0.0,0.0,0.0,0.0,0.0
69832394,0.0015528838,3.6501202e-05,6.727868e-05,0.00014173606,0.0110059,0.0,0.0,0.1520302,0.0,0.0,3.751525e-11,0.0,nan,nan,nan,nan,nan,nan,0.0,0.000117789525,0.0,0.0,nan,0.0,0.1520302,0.0016367715,0.0,0.0,0.0,0.0,0.0,0.0,0.0,0.0
70032353,0.0001382917,3.6428453e-05,0.00062944577,0.00014403,0.01098956,0.0,0.0,0.15147093,0.0,0.0,3.7413548e-11,0.0,nan,nan,nan,nan,nan,nan,0.0,3.4564524e-05,0.0,0.0,nan,0.0,0.15147093,0.0011136578,0.0,0.0,0.0,0.0,0.0,0.0,0.0,0.0
70232397,7.516752e-05,3.638053e-05,2.2586786e-05,0.0001242372,0.011027344,0.0,0.0,0.15279914,0.0,0.0,3.731385e-11,0.0,nan,nan,nan,nan,nan,nan,0.0,6.528562e-05,0.0,0.0,nan,0.0,0.15279914,0.0048779547,0.0,0.0,0.0,0.0,0.0,0.0,0.0,0.0
70432396,0.0008436439,3.630663e-05,0.000193188,0.00011607171,0.011011077,0.0,0.0,0.15224214,0.0,0.0,3.7216136e-11,0.0,nan,nan,nan,nan,nan,nan,0.0,4.5349216e-07,0.0,0.0,nan,0.0,0.15224214,3.0017878e-05,0.0,0.0,0.0,0.0,0.0,0.0,0.0,0.0
70632371,4.7971356e-05,3.6247155e-05,0.00024047376,7.891259e-05,0.010993838,0.0,0.0,0.1516769,0.0,0.0,3.7120373e-11,0.0,nan,nan,nan,nan,nan,nan,0.0,3.3050842e-06,0.0,0.0,nan,0.0,0.1516769,0.00010443695,0.0,0.0,0.0,0.0,0.0,0.0,0.0,0.0
70832396,0.00035480352,3.6174853e-05,0.00017520176,0.000119370925,0.011030159,0.0,0.0,0.15299131,0.0,0.0,3.702652e-11,0.0,nan,nan,nan,nan,nan,nan,0.0,4.136252e-05,0.0,0.0,nan,0.0,0.15299131,0.00016750874,0.0,0.0,0.0,0.0,0.0,0.0,0.0,0.0
71032396,0.00167163,3.612564e-05,0.00048691384,0.0001310451,0.011012447,0.0,0.0,0.1524162,0.0,0.0,3.6934532e-11,0.0,nan,nan,nan,nan,nan,nan,0.0,1.8052003e-06,0.0,0.0,nan,0.0,0.1524162,0.00015037818,0.0,0.0,0.0,0.0,0.0,0.0,0.0,0.0
71232373,0.0003355819,3.6048663e-05,0.00011200305,0.00012303071,0.010994874,0.0,0.0,0.15184619,0.0,0.0,3.684439e-11,0.0,nan,nan,nan,nan,nan,nan,0.0,1.3533109e-05,0.0,0.0,nan,0.0,0.15184619,7.0488386e-05,0.0,0.0,0.0,0.0,0.0,0.0,0.0,0.0
71432369,0.00043372117,3.5969897e-05,0.0026237227,0.00014618333,0.010977437,0.0,0.0,0.15128104,0.0,0.0,3.6756057e-11,0.0,nan,nan,nan,nan,nan,nan,0.0,2.9268886e-05,0.0,0.0,nan,0.0,0.15128104,0.00021564311,0.0,0.0,0.0,0.0,0.0,0.0,0.0,0.0
71632396,0.0014526016,3.5918252e-05,7.7146746e-05,7.4311065e-05,0.011014729,0.0,0.0,0.15260457,0.0,0.0,3.6669483e-11,0.0,nan,nan,nan,nan,nan,nan,0.0,0.00014890148,0.0,0.0,nan,0.0,0.15260457,0.001450234,0.0,0.0,0.0,0.0,0.0,0.0,0.0,0.0
71832396,8.392669e-05,3.5859248e-05,8.5168443e-07,0.00015009461,0.010997657,0.0,0.0,0.15204088,0.0,0.0,3.6584635e-11,0.0,nan,nan,nan,nan,nan,nan,0.0,6.282182e-05,0.0,0.0,nan,0.0,0.15204088,0.00092117366,0.0,0.0,0.0,0.0,0.0,0.0,0.0,0.0
72032367,0.0005815773,3.5756293e-05,4.763221e-06,0.00014554785,0.01098064,0.0,0.0,0.15148126,0.0,0.0,3.6501482e-11,0.0,nan,nan,nan,nan,nan,nan,0.0,7.0652255e-05,0.0,0.0,nan,0.0,0.15148126,0.001218657,0.0,0.0,0.0,0.0,0.0,0.0,0.0,0.0
72232392,0.00039244757,3.5671474e-05,0.00010638137,0.00018931032,0.01101671,0.0,0.0,0.15278956,0.0,0.0,3.6419995e-11,0.0,nan,nan,nan,nan,nan,nan,0.0,2.6193422e-07,0.0,0.0,nan,0.0,0.15278956,0.00038012918,0.0,0.0,0.0,0.0,0.0,0.0,0.0,0.0
72432350,0.00010827838,3.56356e-05,0.00043849187,0.0002062293,0.010996236,0.0,0.0,0.15217543,0.0,0.0,3.6340125e-11,0.0,nan,nan,nan,nan,nan,nan,0.0,6.655886e-05,0.0,0.0,nan,0.0,0.15217543,0.0039027857,0.0,0.0,0.0,0.0,0.0,0.0,0.0,0.0
72622402,1.2645415e-05,3.5554684e-05,0.0003034637,0.00022171714,0.010990809,0.0,0.0,0.15295425,0.0,0.0,3.6251873e-11,0.0,nan,nan,nan,nan,nan,nan,0.0,6.1714476e-05,0.0,0.0,nan,0.0,0.15295425,0.005693629,0.0,0.0,0.0,0.0,0.0,0.0,0.0,0.0
72822447,0.00050715165,3.5497964e-05,6.4107764e-05,0.00024756693,0.010971506,0.0,0.0,0.1523476,0.0,0.0,3.617518e-11,0.0,nan,nan,nan,nan,nan,nan,0.0,3.432269e-06,0.0,0.0,nan,0.0,0.1523476,0.0010601801,0.0,0.0,0.0,0.0,0.0,0.0,0.0,0.0
73022347,0.00030595716,3.5443067e-05,6.0035913e-05,0.00024922672,0.010953049,0.0,0.0,0.15175398,0.0,0.0,3.6100033e-11,0.0,nan,nan,nan,nan,nan,nan,0.0,1.5462292e-05,0.0,0.0,nan,0.0,0.15175398,0.0009525457,0.0,0.0,0.0,0.0,0.0,0.0,0.0,0.0
73232397,0.00012774399,3.542607e-05,4.0674833e-05,0.00022457675,0.010975316,0.0,0.0,0.15167351,0.0,0.0,3.603639e-11,0.0,nan,nan,nan,nan,nan,nan,0.0,1.8055515e-07,0.0,0.0,nan,0.0,0.15167351,0.0023495324,0.0,0.0,0.0,0.0,0.0,0.0,0.0,0.0
73422349,0.0005921484,3.5340323e-05,2.9573735e-06,0.0002645655,0.010971685,0.0,0.0,0.1524655,0.0,0.0,3.5954236e-11,0.0,nan,nan,nan,nan,nan,nan,0.0,2.5672301e-05,0.0,0.0,nan,0.0,0.1524655,0.00039807777,0.0,0.0,0.0,0.0,0.0,0.0,0.0,0.0
73632396,0.00036132184,3.5314413e-05,0.000598292,0.00024090135,0.010995082,0.0,0.0,0.15239738,0.0,0.0,3.5893517e-11,0.0,nan,nan,nan,nan,nan,nan,0.0,3.2193423e-06,0.0,0.0,nan,0.0,0.15239738,0.004624328,0.0,0.0,0.0,0.0,0.0,0.0,0.0,0.0
73832399,0.00076112483,3.5251385e-05,9.339293e-05,0.00025600492,0.010976188,0.0,0.0,0.15179196,0.0,0.0,3.582423e-11,0.0,nan,nan,nan,nan,nan,nan,0.0,5.2578154e-05,0.0,0.0,nan,0.0,0.15179196,0.0013180708,0.0,0.0,0.0,0.0,0.0,0.0,0.0,0.0
74032400,0.00023524104,3.5192257e-05,0.00035362467,0.00034315567,0.011012698,0.0,0.0,0.1530893,0.0,0.0,3.575637e-11,0.0,nan,nan,nan,nan,nan,nan,0.0,1.4882032e-05,0.0,0.0,nan,0.0,0.1530893,9.615815e-05,0.0,0.0,0.0,0.0,0.0,0.0,0.0,0.0
74232365,0.0003834516,3.5128465e-05,5.9528506e-05,0.00033182363,0.010994688,0.0,0.0,0.1524889,0.0,0.0,3.5689857e-11,0.0,nan,nan,nan,nan,nan,nan,0.0,5.663444e-06,0.0,0.0,nan,0.0,0.1524889,0.0014259715,0.0,0.0,0.0,0.0,0.0,0.0,0.0,0.0
74432406,7.0532886e-05,3.5085075e-05,1.1734581e-05,0.00039768242,0.010977023,0.0,0.0,0.15189485,0.0,0.0,3.5624684e-11,0.0,nan,nan,nan,nan,nan,nan,0.0,0.00011714492,0.0,0.0,nan,0.0,0.15189485,0.00018198993,0.0,0.0,0.0,0.0,0.0,0.0,0.0,0.0
74632352,2.069228e-05,3.5049277e-05,0.00013799456,0.00041602543,0.01101422,0.0,0.0,0.15319923,0.0,0.0,3.5560832e-11,0.0,nan,nan,nan,nan,nan,nan,0.0,1.3880676e-06,0.0,0.0,nan,0.0,0.15319923,0.005888489,0.0,0.0,0.0,0.0,0.0,0.0,0.0,0.0
74832404,0.00018874487,3.4992816e-05,0.00043966476,0.00032232693,0.010997208,0.0,0.0,0.15260926,0.0,0.0,3.549828e-11,0.0,nan,nan,nan,nan,nan,nan,0.0,3.2933305e-05,0.0,0.0,nan,0.0,0.15260926,0.005637374,0.0,0.0,0.0,0.0,0.0,0.0,0.0,0.0
75032410,1.2658657e-05,3.494122e-05,8.554512e-06,0.00031100935,0.010978031,0.0,0.0,0.15202595,0.0,0.0,3.5436994e-11,0.0,nan,nan,nan,nan,nan,nan,0.0,5.8200294e-05,0.0,0.0,nan,0.0,0.15202595,0.0015913631,0.0,0.0,0.0,0.0,0.0,0.0,0.0,0.0
75232430,0.000104073166,3.4894958e-05,0.0004670602,0.0003408228,0.011015258,0.0,0.0,0.15332969,0.0,0.0,3.537695e-11,0.0,nan,nan,nan,nan,nan,nan,0.0,0.00027902363,0.0,0.0,nan,0.0,0.15332969,0.0019279008,0.0,0.0,0.0,0.0,0.0,0.0,0.0,0.0
75432396,0.00022569207,3.4843782e-05,0.0002413062,0.00033029472,0.010997857,0.0,0.0,0.15272973,0.0,0.0,3.5318137e-11,0.0,nan,nan,nan,nan,nan,nan,0.0,5.3284193e-06,0.0,0.0,nan,0.0,0.15272973,7.4842304e-05,0.0,0.0,0.0,0.0,0.0,0.0,0.0,0.0
75632377,0.00014549283,3.4791326e-05,7.484625e-06,0.00026029197,0.010977468,0.0,0.0,0.15212458,0.0,0.0,3.5260513e-11,0.0,nan,nan,nan,nan,nan,nan,0.0,0.00023750983,0.0,0.0,nan,0.0,0.15212458,1.1430098e-05,0.0,0.0,0.0,0.0,0.0,0.0,0.0,0.0
75832396,0.0009359893,3.4745357e-05,0.0009241525,0.0002665832,0.010960832,0.0,0.0,0.15153733,0.0,0.0,3.5204072e-11,0.0,nan,nan,nan,nan,nan,nan,0.0,0.00013256235,0.0,0.0,nan,0.0,0.15153733,6.455645e-05,0.0,0.0,0.0,0.0,0.0,0.0,0.0,0.0
76032399,0.00011256172,3.4697532e-05,0.00011571354,0.000279858,0.010999126,0.0,0.0,0.1528459,0.0,0.0,3.514879e-11,0.0,nan,nan,nan,nan,nan,nan,0.0,3.1076263e-05,0.0,0.0,nan,0.0,0.1528459,0.004055923,0.0,0.0,0.0,0.0,0.0,0.0,0.0,0.0
76232361,0.0001742013,3.464684e-05,0.0010992225,0.0003218491,0.010982528,0.0,0.0,0.15225585,0.0,0.0,3.509464e-11,0.0,nan,nan,nan,nan,nan,nan,0.0,3.921664e-05,0.0,0.0,nan,0.0,0.15225585,0.0016001514,0.0,0.0,0.0,0.0,0.0,0.0,0.0,0.0
76432400,0.00033729363,3.4595545e-05,0.00011789341,0.00041548986,0.010966545,0.0,0.0,0.15167789,0.0,0.0,3.5041588e-11,0.0,nan,nan,nan,nan,nan,nan,0.0,2.0390132e-06,0.0,0.0,nan,0.0,0.15167789,1.0073026e-06,0.0,0.0,0.0,0.0,0.0,0.0,0.0,0.0
76632399,0.00042550726,3.454853e-05,0.00022260696,0.0003853661,0.011005061,0.0,0.0,0.15299238,0.0,0.0,3.4989636e-11,0.0,nan,nan,nan,nan,nan,nan,0.0,3.9960436e-05,0.0,0.0,nan,0.0,0.15299238,0.003108371,0.0,0.0,0.0,0.0,0.0,0.0,0.0,0.0
76832359,0.0012992681,3.4499153e-05,0.0010959515,0.0003076369,0.010986346,0.0,0.0,0.15237305,0.0,0.0,3.4938767e-11,0.0,nan,nan,nan,nan,nan,nan,0.0,2.1196647e-05,0.0,0.0,nan,0.0,0.15237305,0.0134265525,0.0,0.0,0.0,0.0,0.0,0.0,0.0,0.0
77632383,8.0332786e-05,3.433019e-05,0.0006790086,0.00031099902,0.010967693,0.0,0.0,0.15180165,0.0,0.0,3.474555e-11,0.0,nan,nan,nan,nan,nan,nan,0.0,4.6559515e-05,0.0,0.0,nan,0.0,0.15180165,0.00452564,0.0,0.0,0.0,0.0,0.0,0.0,0.0,0.0
77832384,0.00040065972,3.429007e-05,0.00016189933,0.00031830164,0.011005613,0.0,0.0,0.15310213,0.0,0.0,3.4699722e-11,0.0,nan,nan,nan,nan,nan,nan,0.0,7.4808845e-06,0.0,0.0,nan,0.0,0.15310213,0.00090106763,0.0,0.0,0.0,0.0,0.0,0.0,0.0,0.0
78032400,7.6659366e-05,3.4246983e-05,3.5305884e-06,0.0002791058,0.010988579,0.0,0.0,0.15249833,0.0,0.0,3.4654852e-11,0.0,nan,nan,nan,nan,nan,nan,0.0,4.744184e-06,0.0,0.0,nan,0.0,0.15249833,0.004849424,0.0,0.0,0.0,0.0,0.0,0.0,0.0,0.0
78232396,0.00049672386,3.4200442e-05,6.0952716e-05,0.00028665204,0.010971749,0.0,0.0,0.15190125,0.0,0.0,3.461091e-11,0.0,nan,nan,nan,nan,nan,nan,0.0,5.222625e-06,0.0,0.0,nan,0.0,0.15190125,0.0038073556,0.0,0.0,0.0,0.0,0.0,0.0,0.0,0.0
78432399,0.00053687464,3.4167388e-05,0.00052530057,0.00026732712,0.011008303,0.0,0.0,0.1531841,0.0,0.0,3.4567883e-11,0.0,nan,nan,nan,nan,nan,nan,0.0,1.4911818e-06,0.0,0.0,nan,0.0,0.1531841,0.0013515087,0.0,0.0,0.0,0.0,0.0,0.0,0.0,0.0
78632399,0.00035026736,3.4125434e-05,2.6598627e-05,0.00024504555,0.010988285,0.0,0.0,0.15253645,0.0,0.0,3.4525768e-11,0.0,nan,nan,nan,nan,nan,nan,0.0,4.87251e-05,0.0,0.0,nan,0.0,0.15253645,0.0005425884,0.0,0.0,0.0,0.0,0.0,0.0,0.0,0.0
78832396,2.4231906e-05,3.408523e-05,0.00022891222,0.00023958927,0.011024187,0.0,0.0,0.15381202,0.0,0.0,3.4484537e-11,0.0,nan,nan,nan,nan,nan,nan,0.0,5.3694866e-06,0.0,0.0,nan,0.0,0.15381202,0.006732275,0.0,0.0,0.0,0.0,0.0,0.0,0.0,0.0
79032372,0.00069477694,3.405024e-05,0.00012314021,0.00034215834,0.011005348,0.0,0.0,0.15317355,0.0,0.0,3.4444166e-11,0.0,nan,nan,nan,nan,nan,nan,0.0,6.7323595e-06,0.0,0.0,nan,0.0,0.15317355,0.0024439578,0.0,0.0,0.0,0.0,0.0,0.0,0.0,0.0
79232371,0.0007347985,3.4014083e-05,4.1827825e-06,0.00032332054,0.010987488,0.0,0.0,0.15255041,0.0,0.0,3.440465e-11,0.0,nan,nan,nan,nan,nan,nan,0.0,0.00027845724,0.0,0.0,nan,0.0,0.15255041,0.0015215478,0.0,0.0,0.0,0.0,0.0,0.0,0.0,0.0
79432396,0.00030127756,3.3974695e-05,5.116182e-07,0.00028979563,0.010969566,0.0,0.0,0.15192915,0.0,0.0,3.4365965e-11,0.0,nan,nan,nan,nan,nan,nan,0.0,3.2317257e-05,0.0,0.0,nan,0.0,0.15192915,0.0078939935,0.0,0.0,0.0,0.0,0.0,0.0,0.0,0.0
79632396,0.00029377636,3.3940705e-05,6.983062e-07,0.00030273158,0.011007333,0.0,0.0,0.15322141,0.0,0.0,3.4328086e-11,0.0,nan,nan,nan,nan,nan,nan,0.0,8.896688e-07,0.0,0.0,nan,0.0,0.15322141,0.0021268916,0.0,0.0,0.0,0.0,0.0,0.0,0.0,0.0
80032399,0.00027019798,3.386154e-05,0.0001890193,0.00016850138,0.010972319,0.0,0.0,0.15198742,0.0,0.0,3.4254738e-11,0.0,nan,nan,nan,nan,nan,nan,0.0,4.446817e-06,0.0,0.0,nan,0.0,0.15198742,0.009111948,0.0,0.0,0.0,0.0,0.0,0.0,0.0,0.0
80232399,0.0011591117,3.3828157e-05,1.1552818e-05,0.0001422375,0.011009392,0.0,0.0,0.1532705,0.0,0.0,3.4219214e-11,0.0,nan,nan,nan,nan,nan,nan,0.0,6.5093715e-05,0.0,0.0,nan,0.0,0.1532705,0.006779831,0.0,0.0,0.0,0.0,0.0,0.0,0.0,0.0
80432363,0.0001616529,3.379219e-05,0.00021828509,0.0001608362,0.010991997,0.0,0.0,0.15265247,0.0,0.0,3.4184443e-11,0.0,nan,nan,nan,nan,nan,nan,0.0,2.8423397e-05,0.0,0.0,nan,0.0,0.15265247,0.013774224,0.0,0.0,0.0,0.0,0.0,0.0,0.0,0.0
80632397,3.0122259e-05,3.3754797e-05,6.364858e-05,0.000163184,0.010974956,0.0,0.0,0.15204233,0.0,0.0,3.4150408e-11,0.0,nan,nan,nan,nan,nan,nan,0.0,7.1102363e-06,0.0,0.0,nan,0.0,0.15204233,0.023254119,0.0,0.0,0.0,0.0,0.0,0.0,0.0,0.0
80832396,0.00031739112,3.371937e-05,0.00030414163,7.757565e-05,0.011013181,0.0,0.0,0.15334173,0.0,0.0,3.4117112e-11,0.0,nan,nan,nan,nan,nan,nan,0.0,5.678111e-05,0.0,0.0,nan,0.0,0.15334173,0.02253346,0.0,0.0,0.0,0.0,0.0,0.0,0.0,0.0
81032371,0.00036338018,3.3682038e-05,1.1653746e-06,7.791746e-05,0.010996761,0.0,0.0,0.15273753,0.0,0.0,3.4084523e-11,0.0,nan,nan,nan,nan,nan,nan,0.0,4.1044583e-05,0.0,0.0,nan,0.0,0.15273753,0.041055188,0.0,0.0,0.0,0.0,0.0,0.0,0.0,0.0
81232366,8.856848e-05,3.3654604e-05,0.00023207063,5.3313834e-05,0.010981045,0.0,0.0,0.15214667,0.0,0.0,3.4052622e-11,0.0,nan,nan,nan,nan,nan,nan,0.0,0.00018519751,0.0,0.0,nan,0.0,0.15214667,0.033025865,0.0,0.0,0.0,0.0,0.0,0.0,0.0,0.0
81432362,0.0007418626,3.363194e-05,6.588563e-05,2.819634e-05,0.01101878,0.0,0.0,0.15344153,0.0,0.0,3.4021386e-11,0.0,nan,nan,nan,nan,nan,nan,0.0,7.73106e-05,0.0,0.0,nan,0.0,0.15344153,0.05550308,0.0,0.0,0.0,0.0,0.0,0.0,0.0,0.0
81632369,0.0008670347,3.3598946e-05,9.679396e-06,1.4240997e-05,0.011001935,0.0,0.0,0.1528307,0.0,0.0,3.3990793e-11,0.0,nan,nan,nan,nan,nan,nan,0.0,2.935918e-05,0.0,0.0,nan,0.0,0.1528307,0.04438686,0.0,0.0,0.0,0.0,0.0,0.0,0.0,0.0
81832381,0.0003938291,3.355591e-05,0.00019840313,0.00010223828,0.01098498,0.0,0.0,0.15222102,0.0,0.0,3.396084e-11,0.0,nan,nan,nan,nan,nan,nan,0.0,6.35138e-05,0.0,0.0,nan,0.0,0.15222102,0.051216528,0.0,0.0,0.0,0.0,0.0,0.0,0.0,0.0
83232396,0.00041172953,3.3390148e-05,3.048414e-05,0.00027298386,0.010985709,0.0,0.0,0.15184589,0.0,0.0,3.3767548e-11,0.0,nan,nan,nan,nan,nan,nan,0.0,0.0010347936,0.0,0.0,nan,0.0,0.15184589,0.1537981,0.0,0.0,0.0,0.0,0.0,0.0,0.0,0.0
84232369,0.0004197859,3.3253345e-05,0.00048671666,8.139742e-05,0.011028924,0.0,0.0,0.15270618,0.0,0.0,3.3643945e-11,0.0,nan,nan,nan,nan,nan,nan,0.0,0.00041651152,0.0,0.0,nan,0.0,0.15270618,0.1843453,0.0,0.0,0.0,0.0,0.0,0.0,0.0,0.0
84432400,0.00043962852,3.323881e-05,9.796442e-05,3.299601e-05,0.01101587,0.0,0.0,0.15210268,0.0,0.0,3.3620377e-11,0.0,nan,nan,nan,nan,nan,nan,0.0,5.32955e-05,0.0,0.0,nan,0.0,0.15210268,0.18676503,0.0,0.0,0.0,0.0,0.0,0.0,0.0,0.0
84632396,0.00013717794,3.3223147e-05,0.000691069,5.2652755e-05,0.011057049,0.0,0.0,0.15338479,0.0,0.0,3.359711e-11,0.0,nan,nan,nan,nan,nan,nan,0.0,0.00019473323,0.0,0.0,nan,0.0,0.15338479,0.1916497,0.0,0.0,0.0,0.0,0.0,0.0,0.0,0.0
84832356,6.3006526e-05,3.321579e-05,1.0878651e-05,4.4197575e-05,0.011043687,0.0,0.0,0.15275683,0.0,0.0,3.35741e-11,0.0,nan,nan,nan,nan,nan,nan,0.0,8.625627e-06,0.0,0.0,nan,0.0,0.15275683,0.17132175,0.0,0.0,0.0,0.0,0.0,0.0,0.0,0.0
85032401,2.9926334e-06,3.320332e-05,0.00019505115,4.7283083e-05,0.0110315615,0.0,0.0,0.15213732,0.0,0.0,3.3551335e-11,0.0,nan,nan,nan,nan,nan,nan,0.0,0.00044092015,0.0,0.0,nan,0.0,0.15213732,0.15530984,0.0,0.0,0.0,0.0,0.0,0.0,0.0,0.0
85232358,0.0004491259,3.319883e-05,4.4561504e-05,4.5098295e-05,0.011072464,0.0,0.0,0.15342495,0.0,0.0,3.352873e-11,0.0,nan,nan,nan,nan,nan,nan,0.0,1.3729978e-05,0.0,0.0,nan,0.0,0.15342495,0.15655503,0.0,0.0,0.0,0.0,0.0,0.0,0.0,0.0
85422412,0.00028240183,3.316147e-05,0.00039603448,7.691176e-05,0.011021276,0.0,0.0,0.1523017,0.0,0.0,3.349637e-11,0.0,nan,nan,nan,nan,nan,nan,0.0,1.5359348e-05,0.0,0.0,nan,0.0,0.1523017,0.15749505,0.0,0.0,0.0,0.0,0.0,0.0,0.0,0.0
85632409,0.00012750806,3.3181044e-05,6.556924e-05,6.233888e-05,0.0110535845,0.0,0.0,0.15221435,0.0,0.0,3.3484167e-11,0.0,nan,nan,nan,nan,nan,nan,0.0,2.1648113e-05,0.0,0.0,nan,0.0,0.15221435,0.15325856,0.0,0.0,0.0,0.0,0.0,0.0,0.0,0.0
85832468,0.00021039866,3.31576e-05,0.00056422607,4.11615e-05,0.011045496,0.0,0.0,0.15162326,0.0,0.0,3.3462132e-11,0.0,nan,nan,nan,nan,nan,nan,0.0,0.0005260339,0.0,0.0,nan,0.0,0.15162326,0.14167994,0.0,0.0,0.0,0.0,0.0,0.0,0.0,0.0
86022347,2.2724102e-05,3.310913e-05,0.00011915442,4.2630778e-05,0.011050079,0.0,0.0,0.1524003,0.0,0.0,3.343024e-11,0.0,nan,nan,nan,nan,nan,nan,0.0,1.0278644e-08,0.0,0.0,nan,0.0,0.1524003,0.14579518,0.0,0.0,0.0,0.0,0.0,0.0,0.0,0.0
86232357,0.00053015864,3.3112916e-05,0.0002704707,3.5386296e-05,0.011082824,0.0,0.0,0.15230177,0.0,0.0,3.3418456e-11,0.0,nan,nan,nan,nan,nan,nan,0.0,1.8517592e-05,0.0,0.0,nan,0.0,0.15230177,0.13734466,0.0,0.0,0.0,0.0,0.0,0.0,0.0,0.0
86432430,5.171978e-05,3.309675e-05,0.0013755282,4.9430622e-05,0.011074999,0.0,0.0,0.15169981,0.0,0.0,3.33968e-11,0.0,nan,nan,nan,nan,nan,nan,0.0,0.00033350944,0.0,0.0,nan,0.0,0.15169981,0.12997365,0.0,0.0,0.0,0.0,0.0,0.0,0.0,0.0
86632399,6.554365e-05,3.3074393e-05,0.00069656904,9.994791e-05,0.011122694,0.0,0.0,0.15299912,0.0,0.0,3.3375303e-11,0.0,nan,nan,nan,nan,nan,nan,0.0,4.1683215e-05,0.0,0.0,nan,0.0,0.15299912,0.119089365,0.0,0.0,0.0,0.0,0.0,0.0,0.0,0.0
86832396,0.0002715701,3.3053122e-05,7.192356e-06,6.946596e-05,0.011115984,0.0,0.0,0.15240374,0.0,0.0,3.3353893e-11,0.0,nan,nan,nan,nan,nan,nan,0.0,3.824415e-05,0.0,0.0,nan,0.0,0.15240374,0.12016611,0.0,0.0,0.0,0.0,0.0,0.0,0.0,0.0
87022351,0.00034189716,3.3000724e-05,0.00049437466,9.5283176e-05,0.0111225415,0.0,0.0,0.1531991,0.0,0.0,3.3322425e-11,0.0,nan,nan,nan,nan,nan,nan,0.0,0.00012349099,0.0,0.0,nan,0.0,0.1531991,0.11634602,0.0,0.0,0.0,0.0,0.0,0.0,0.0,0.0
87232400,0.025207823,3.3109376e-05,0.0036952668,0.00048712734,0.011168958,0.0,0.0,0.15313068,0.0,0.0,3.3297493e-11,0.0,nan,nan,nan,nan,nan,nan,0.0,0.00024974317,0.0,0.0,nan,0.0,0.15313068,0.111738235,0.0,0.0,0.0,0.0,0.0,0.0,0.0,0.0
87432399,0.032907728,3.3246244e-05,0.0018938698,0.001228462,0.011210887,0.0,0.0,0.15254688,0.0,0.0,3.319732e-11,0.0,nan,nan,nan,nan,nan,nan,0.0,9.787302e-05,0.0,0.0,nan,0.0,0.15254688,0.123533905,0.0,0.0,0.0,0.0,0.0,0.0,0.0,0.0
87632414,0.01613802,3.290576e-05,0.0003116047,0.0013526233,0.011331676,0.0,0.0,0.15383323,0.0,0.0,3.2989046e-11,0.0,nan,nan,nan,nan,nan,nan,0.0,8.05237e-05,0.0,0.0,nan,0.0,0.15383323,0.09229667,0.0,0.0,0.0,0.0,0.0,0.0,0.0,0.0
87822391,0.007191991,3.2116906e-05,0.0052936748,0.0011613262,0.011360119,0.0,0.0,0.15267839,0.0,0.0,3.2665606e-11,0.0,nan,nan,nan,nan,nan,nan,0.0,4.240876e-05,0.0,0.0,nan,0.0,0.15267839,0.0012336227,0.0,0.0,0.0,0.0,0.0,0.0,0.0,0.0
88032397,0.01735615,3.1041298e-05,0.00031886756,0.0014273274,0.011491947,0.0,0.0,0.15257429,0.0,0.0,3.226813e-11,0.0,nan,nan,nan,nan,nan,nan,0.0,0.00016186276,0.0,0.0,nan,0.0,0.15257429,0.0002602681,0.0,0.0,0.0,0.0,0.0,0.0,0.0,0.0
88232399,0.019741429,2.9769986e-05,0.025186416,0.0016555674,0.011577834,0.0,0.0,0.15196018,0.0,0.0,3.1789796e-11,0.0,nan,nan,nan,nan,nan,nan,0.0,4.760383e-05,0.0,0.95241815,nan,0.0,0.15196018,2.0605974e-07,0.0,0.0,0.0,0.0,0.0,0.0,0.0001247158,0.0
88432402,0.0017490386,2.8343664e-05,0.04053589,0.0010141552,0.011698619,0.0,0.0,0.15326351,0.0,0.0,3.136544e-11,0.0,nan,nan,nan,nan,nan,nan,0.0,1.6035756e-05,0.0,0.91716677,nan,0.0,0.15326351,1.51956265e-05,0.0,0.0,0.0,0.0,0.0,0.0,0.00023643751,0.0
88622351,0.014898065,2.7321174e-05,0.012586006,0.002098898,0.011728196,0.0,0.0,0.15214236,0.0,0.0,3.1000664e-11,0.0,nan,nan,nan,nan,nan,nan,0.0,4.5119945e-05,0.0,0.89102757,nan,0.0,0.15214236,0.00094857736,0.0,0.0,0.0,0.0,0.0,0.0,0.00060497125,0.0
88832397,0.023545982,2.642922e-05,0.08626475,6.5228065e-05,0.011780591,0.0,0.0,0.15207615,0.0,0.0,3.0800557e-11,0.0,nan,nan,nan,nan,nan,nan,0.0,0.00049006083,0.0,0.8707731,nan,0.0,0.15207615,0.0061647505,0.0,0.0,0.0,0.0,0.0,0.0,0.00096510345,0.0
89032396,0.0063391086,2.5632948e-05,0.009389477,3.9179085e-05,0.011854599,0.0,0.0,0.1533961,0.0,0.0,3.0692907e-11,0.0,nan,nan,nan,nan,nan,nan,0.0,0.00010824092,0.0,0.71217364,nan,0.0,0.1533961,0.02060554,0.0,0.0,0.0,0.0,0.0,0.04572821,0.0011861334,0.0
89232386,0.0029136532,2.4873767e-05,0.0084736375,1.31208635e-05,0.011865179,0.0,0.0,0.15276322,0.0,0.0,3.0662077e-11,0.0,nan,nan,nan,nan,nan,nan,0.0,0.00010691117,0.0,0.6624921,nan,0.0,0.15276322,0.045051727,0.0,0.0,0.0,0.0,0.0,0.016239645,0.0015804818,0.0
89432359,0.0047957185,2.4400599e-05,0.010073052,1.3625017e-05,0.011935649,0.0,0.0,0.15405598,0.0,0.0,3.0672652e-11,0.0,nan,nan,nan,nan,nan,nan,0.0,2.2020835e-05,0.0,0.62709856,nan,0.0,0.15405598,0.055082053,0.0,0.0,0.0,0.0,0.0,0.0154287275,0.0018479854,0.0
89632358,0.0071048248,2.3836837e-05,0.0652768,1.703178e-05,0.011945348,0.0,0.0,0.15343778,0.0,0.0,3.0712474e-11,0.0,nan,nan,nan,nan,nan,nan,0.0,0.00019649687,0.0,0.59489423,nan,0.0,0.15343778,0.06114465,0.0,0.0,0.0,0.0,0.0,0.0027529083,0.0016186957,0.0
89832361,0.09618872,2.3488783e-05,0.14551674,0.00010130945,0.0119360285,0.0,0.0,0.15282953,0.0,0.0,3.0754295e-11,0.0,nan,nan,nan,nan,nan,nan,0.0,4.86378e-05,0.0,0.54996663,nan,0.0,0.15282953,0.057193886,0.0,0.0,0.0,0.0,0.0,0.004850665,0.00044458234,0.0
90032361,0.0045888205,2.4073846e-05,0.07309661,0.002927216,0.0119713275,0.0,0.0,0.15223458,0.0,0.0,3.0880364e-11,0.0,nan,nan,nan,nan,nan,nan,0.0,0.0004082927,0.0,0.5197439,nan,0.0,0.15223458,0.0,0.22142728,0.0,0.0,0.0,0.0,0.07365467,6.430312e-05,0.0
90232381,0.0025856523,2.5039053e-05,0.0036910153,6.1207786e-05,0.012145959,0.0,0.0,0.15354879,0.0,0.0,3.102452e-11,0.0,nan,nan,nan,nan,nan,nan,0.0,0.00054902537,0.0,0.4982046,nan,0.0,0.15354879,0.0,0.18670313,0.0,0.0,0.0,0.0,0.11502673,2.4604944e-06,0.0
90432391,0.0019823103,2.5992502e-05,2.797713e-05,0.0016309817,0.012253565,0.0,0.0,0.15295352,0.0,0.0,3.1174296e-11,0.0,nan,nan,nan,nan,nan,nan,0.0,0.0019777971,0.0,0.47846326,nan,0.0,0.15295352,0.0,0.31702548,0.0,0.0,0.0,0.0,0.08582531,0.0006775795,0.0
90632355,0.0061160964,2.6806636e-05,0.0030433696,0.0006045432,0.012307572,0.0,0.0,0.1523783,0.0,0.0,3.13226e-11,0.0,nan,nan,nan,nan,nan,nan,0.0,0.0010748265,0.0,0.47028705,nan,0.0,0.1523783,0.0,0.3480853,0.0,0.0,0.0,0.0,0.04973999,0.0015801671,0.0
90832382,0.003198154,2.7482516e-05,0.000114306844,0.0014674762,0.01237325,0.0,0.0,0.15368338,0.0,0.0,3.146095e-11,0.0,nan,nan,nan,nan,nan,nan,0.0,0.0018449351,0.0,0.46383268,nan,0.0,0.15368338,0.0,0.3395571,0.0,0.0,0.0,0.0,0.042355154,0.0026734795,0.0
91032352,0.001950231,2.8079976e-05,0.0047196867,0.00087502296,0.012356455,0.0,0.0,0.15307143,0.0,0.0,3.158636e-11,0.0,nan,nan,nan,nan,nan,nan,0.0,0.0033476758,0.0,0.4551698,nan,0.0,0.15307143,0.0,0.42224944,0.0,0.0,0.0,0.0,0.0033641958,0.0036588782,0.0
91232402,0.007311206,2.8253182e-05,0.0007497711,0.00091095845,0.012388936,0.0,0.0,0.15440111,0.0,0.0,3.166318e-11,0.0,nan,nan,nan,nan,nan,nan,0.0,0.004276124,0.0,0.43157774,nan,0.0,0.15440111,0.0,0.36094278,0.0,0.0,0.0,0.0,0.0239999,0.0041919365,0.0
91422394,0.01504266,2.865812e-05,0.0061850096,0.0012042411,0.0123158535,0.0,0.0,0.15326968,0.0,0.0,3.1679385e-11,0.0,nan,nan,nan,nan,nan,nan,0.0,0.002509205,0.0,0.40342978,nan,0.0,0.15326968,0.0,0.41951004,0.0,0.0,0.0,0.0,0.03256197,0.004160833,0.0
91632412,0.009484962,2.913626e-05,0.0042828107,0.0011936842,0.012306234,0.0,0.0,0.15321255,0.0,0.0,3.1679822e-11,0.0,nan,nan,nan,nan,nan,nan,0.0,0.0057991934,0.0,0.37220123,nan,0.0,0.15321255,0.0,0.38124725,0.0,0.0,0.0,0.0,0.01784883,0.0037735815,0.0
91832400,0.0039876215,2.9330444e-05,0.009232113,0.0012075878,0.012248021,0.0,0.0,0.15262486,0.0,0.0,3.16409e-11,0.0,nan,nan,nan,nan,nan,nan,0.0,0.0069300337,0.0,0.3357867,nan,0.0,0.15262486,0.0,0.29054737,0.0,0.0,0.0,0.0,1.2544535e-05,0.0035515823,0.0
92032352,0.026884746,2.9253753e-05,0.00084009394,0.013569909,0.01230593,0.0,0.0,0.15397069,0.0,0.0,3.1569775e-11,0.0,nan,nan,nan,nan,nan,nan,0.0,0.0066630994,0.0,0.29949185,nan,0.0,0.15397069,0.0,0.75614434,0.0,0.0,0.0,0.0,0.0009661764,0.0037082431,0.0
92232354,0.006183438,2.8910183e-05,0.001171148,0.00036523485,0.012306743,0.0,0.0,0.15335108,0.0,0.0,3.1463512e-11,0.0,nan,nan,nan,nan,nan,nan,0.0,0.007069979,0.0,0.26523855,nan,0.0,0.15335108,0.0,1.3563963,0.0,0.0,0.0,0.0,7.20438e-05,0.0042302627,0.0
92432354,0.002498477,2.8407472e-05,0.0014940577,0.00060160714,0.0123573365,0.0,0.0,0.15465367,0.0,0.0,3.134116e-11,0.0,nan,nan,nan,nan,nan,nan,0.0,0.014362426,0.0,0.22962628,nan,0.0,0.15465367,0.0,1.0600652,0.0,0.0,0.0,0.0,0.003774797,0.004425145,0.0
92632400,0.013984508,2.7859816e-05,0.0020177488,0.012467288,0.012358396,0.0,0.0,0.15401667,0.0,0.0,3.121636e-11,0.0,nan,nan,nan,nan,nan,nan,0.0,0.008741084,0.0,0.20064151,nan,0.0,0.15401667,0.0,1.2278947,0.0,0.0,0.0,0.0,0.0010450942,0.0039855223,0.0
92832374,0.0038614192,2.732513e-05,0.0027870967,0.010367294,0.0123688765,0.0,0.0,0.15339045,0.0,0.0,3.109418e-11,0.0,nan,nan,nan,nan,nan,nan,0.0,0.009147932,0.0,0.17588615,nan,0.0,0.15339045,0.0,1.1500759,0.0,0.0,0.0,0.0,0.0050447346,0.0019064463,0.0
93032399,0.0074404073,2.6853651e-05,0.0029123598,0.00017061451,0.0124118095,0.0,0.0,0.15469317,0.0,0.0,3.0993024e-11,0.0,nan,nan,nan,nan,nan,nan,0.0,0.0041076154,0.0,0.15425064,nan,0.0,0.15469317,0.0,1.3269722,0.0,0.0,0.0,0.0,0.016591681,0.0010260668,0.0
93232400,0.0002368091,2.632308e-05,0.0043402454,6.96499e-05,0.012380609,0.0,0.0,0.15405495,0.0,0.0,3.0946825e-11,0.0,nan,nan,nan,nan,nan,nan,0.0,0.003916949,0.0,0.13909827,nan,0.0,0.15405495,0.0,1.4345411,0.0,0.0,0.0,0.0,0.0161786,0.0008342359,0.0
93432399,0.0027692562,2.578847e-05,0.0039221984,9.082166e-05,0.012303493,0.0,0.0,0.15343179,0.0,0.0,3.0967444e-11,0.0,nan,nan,nan,nan,nan,nan,0.0,0.008513676,0.0,0.12743177,nan,0.0,0.15343179,0.0,1.56382,0.0,0.0,0.0,0.0,0.0037965442,0.001379744,0.0
93632375,0.008926634,2.5558173e-05,0.0010092609,0.00015888773,0.012213484,0.0,0.0,0.1528134,0.0,0.0,3.104261e-11,0.0,nan,nan,nan,nan,nan,nan,0.0,0.0075038713,0.0,0.117468506,nan,0.0,0.1528134,0.0,2.0391154,0.0,0.0,0.0,0.0,0.029969657,0.0033944084,0.0
93832397,0.012498863,2.5752295e-05,0.0036164413,0.00021043266,0.0121813975,0.0,0.0,0.15412515,0.0,0.0,3.11543e-11,0.0,nan,nan,nan,nan,nan,nan,0.0,0.005252334,0.0,0.110480614,nan,0.0,0.15412515,0.0,2.2501678,0.0,0.0,0.0,0.0,0.028827287,0.003499699,0.0
94032361,0.0057334015,2.6072807e-05,0.0012038995,0.00029535123,0.012080187,0.0,0.0,0.15350813,0.0,0.0,3.1280287e-11,0.0,nan,nan,nan,nan,nan,nan,0.0,0.007991391,0.0,0.10470808,nan,0.0,0.15350813,0.0,1.9028904,0.0,0.0,0.0,0.0,6.0419403e-05,0.0028492834,0.0
94232371,0.0012888912,2.6346743e-05,5.7668776e-06,0.00037531793,0.011944879,0.0,0.0,0.1528893,0.0,0.0,3.1400306e-11,0.0,nan,nan,nan,nan,nan,nan,0.0,0.0021537002,0.0,0.09971041,nan,0.0,0.1528893,0.0,1.8619889,0.0,0.0,0.0,0.0,0.0012167895,0.0019013193,0.0
94432402,0.008362005,2.641429e-05,0.0011225269,0.0002582289,0.011808372,0.0,0.0,0.15226322,0.0,0.0,3.1495025e-11,0.0,nan,nan,nan,nan,nan,nan,0.0,0.0030851427,0.0,0.0948449,nan,0.0,0.15226322,0.0,2.076601,0.0,0.0,0.0,0.0,0.0034012182,0.00075140334,0.0
94632357,0.008508986,2.6420399e-05,0.0032696037,0.00014525262,0.011827389,0.0,0.0,0.15354478,0.0,0.0,3.1567467e-11,0.0,nan,nan,nan,nan,nan,nan,0.0,0.002787062,0.0,0.09078309,nan,0.0,0.15354478,0.0,2.5690484,0.0,0.0,0.0,0.0,0.03027751,0.00062693434,0.0
94832354,0.0002675658,2.6417847e-05,0.0064747413,0.00033491073,0.011763729,0.0,0.0,0.15290694,0.0,0.0,3.1625945e-11,0.0,nan,nan,nan,nan,nan,nan,0.0,0.0017401457,0.0,0.086924,nan,0.0,0.15290694,0.0,2.9635203,0.0,0.0,0.0,0.0,0.047632795,0.00041002943,0.0
95032399,0.0039542695,2.6315685e-05,0.026252456,0.00029305098,0.01175568,0.0,0.0,0.15227994,0.0,0.0,3.1685397e-11,0.0,nan,nan,nan,nan,nan,nan,0.0,7.163922e-06,0.0,0.08293745,nan,0.0,0.15227994,0.0,2.8034637,0.0,0.0,0.0,0.0,0.06844462,6.5624954e-05,0.0
95232365,0.0061446778,2.629733e-05,0.030836437,0.00038240114,0.011826986,0.0,0.0,0.15357323,0.0,0.0,3.1761673e-11,0.0,nan,nan,nan,nan,nan,nan,0.0,0.000106115855,0.0,0.079512134,nan,0.0,0.15357323,0.0,3.086156,0.0,0.0,0.0,0.0,0.06257395,1.740779e-05,0.0
95432400,0.003699313,2.6293224e-05,0.016111534,0.00045240115,0.011776902,0.0,0.0,0.15296826,0.0,0.0,3.185227e-11,0.0,nan,nan,nan,nan,nan,nan,0.0,0.0005699251,0.0,0.07640578,nan,0.0,0.15296826,0.0,3.392097,0.0,0.0,0.0,0.0,0.06355765,4.7029325e-06,0.0
95632351,0.0060992865,2.6224277e-05,0.035153903,0.00059089024,0.011765435,0.0,0.0,0.15237089,0.0,0.0,3.1959987e-11,0.0,nan,nan,nan,nan,nan,nan,0.0,0.0017818488,0.0,0.073415615,nan,0.0,0.15237089,0.0,3.1440408,0.0,0.0,0.0,0.0,0.024145665,2.4206243e-05,0.0
95832357,0.00037980897,2.5592453e-05,0.0012734968,0.0014052038,0.011552362,0.0,0.0,0.15177746,0.0,0.0,3.2071807e-11,0.0,nan,nan,nan,nan,nan,nan,0.0,0.0026254172,0.0,0.07121599,nan,0.0,0.15177746,0.0,3.9086661,0.0,0.0,0.0,0.0,0.026122287,0.0006621768,0.0
96032396,0.004546052,2.4982619e-05,0.00016453097,0.0014365638,0.011488394,0.0,0.0,0.1530777,0.0,0.0,3.2162762e-11,0.0,nan,nan,nan,nan,nan,nan,0.0,0.0008127621,0.0,0.06981397,nan,0.0,0.1530777,0.0,5.1184707,0.0,0.0,0.0,0.0,0.048203778,0.002343038,0.0
96232356,0.0034102711,2.5155428e-05,0.020321297,0.0008432109,0.011694533,0.0,0.0,0.15247124,0.0,0.0,3.2277445e-11,0.0,nan,nan,nan,nan,nan,nan,0.0,0.001040481,0.0,0.06841323,nan,0.0,0.15247124,0.0,5.883678,0.0,0.0,0.0,0.0,0.042120438,0.0045147953,0.0
96432372,0.008890474,2.5686555e-05,0.03926916,0.00078084756,0.011940099,0.0,0.0,0.15188147,0.0,0.0,3.2418082e-11,0.0,nan,nan,nan,nan,nan,nan,0.0,0.00010190768,0.0,0.06695162,nan,0.0,0.15188147,0.0,7.85635,0.0,0.0,0.0,0.0,0.10001629,0.0035493425,0.0
96632359,0.0068522864,2.637724e-05,0.017630214,0.0011137906,0.012061473,0.0,0.0,0.15320194,0.0,0.0,3.256919e-11,0.0,nan,nan,nan,nan,nan,nan,0.0,7.511172e-05,0.0,0.06556202,nan,0.0,0.15320194,0.0,5.474735,0.0,0.0,0.0,0.0,0.1027974,0.0023775888,0.0
96822388,0.0048476597,2.6900074e-05,0.005608917,0.0016374604,0.011934628,0.0,0.0,0.1520862,0.0,0.0,3.2697022e-11,0.0,nan,nan,nan,nan,nan,nan,0.0,0.0009057087,0.0,0.06447245,nan,0.0,0.1520862,0.0,4.534323,0.0,0.0,0.0,0.0,0.04281728,0.0020058919,0.0
97022426,0.0012525552,2.7077378e-05,0.002698972,0.0017494053,0.011908025,0.0,0.0,0.15149991,0.0,0.0,3.2821478e-11,0.0,nan,nan,nan,nan,nan,nan,0.0,8.5819505e-05,0.0,0.06365979,nan,0.0,0.15149991,0.0,3.89865,0.0,0.0,0.0,0.0,0.0039637294,0.0021523095,0.0
97222347,8.449718e-05,2.7567707e-05,0.0024280115,0.0021723185,0.01181458,0.0,0.0,0.15281823,0.0,0.0,3.2920135e-11,0.0,nan,nan,nan,nan,nan,nan,0.0,7.138826e-05,0.0,0.06298485,nan,0.0,0.15281823,0.0,3.4892752,0.0,0.0,0.0,0.0,0.0064708535,0.0031153625,0.0
97432397,3.2195847e-05,2.7905373e-05,0.0010581233,0.0018536578,0.011677346,0.0,0.0,0.15275003,0.0,0.0,3.300157e-11,0.0,nan,nan,nan,nan,nan,nan,0.0,8.956228e-05,0.0,0.06261923,nan,0.0,0.15275003,0.0,3.5405188,0.0,0.0,0.0,0.0,2.7684639e-05,0.0034860128,0.0
97632356,0.0023647393,2.7954387e-05,0.00014517474,0.0014473923,0.011555061,0.0,0.0,0.15216368,0.0,0.0,3.30663e-11,0.0,nan,nan,nan,nan,nan,nan,0.0,0.00046544804,0.0,0.062417,nan,0.0,0.15216368,0.0,3.323911,0.0,0.0,0.0,0.0,0.00027243973,0.0039628074,0.0
97832384,0.0023727936,2.7845916e-05,0.0036165405,0.002803453,0.011411661,0.0,0.0,0.15157796,0.0,0.0,3.3124586e-11,0.0,nan,nan,nan,nan,nan,nan,0.0,0.0003734602,0.0,0.062311783,nan,0.0,0.15157796,0.0,4.170646,0.0,0.0,0.0,0.0,6.864185e-06,0.0048637893,0.0
98032360,0.0031289742,2.7742668e-05,2.0177902e-06,0.0012808404,0.011369247,0.0,0.0,0.15288089,0.0,0.0,3.318509e-11,0.0,nan,nan,nan,nan,nan,nan,0.0,0.00033426972,0.0,0.06224499,nan,0.0,0.15288089,0.0,4.0177097,0.0,0.0,0.0,0.0,0.027448,0.007711922,0.0
98232365,0.011036892,2.7764983e-05,0.00035289442,0.0009085618,0.011317267,0.0,0.0,0.15228756,0.0,0.0,3.3271486e-11,0.0,nan,nan,nan,nan,nan,nan,0.0,8.601167e-06,0.0,0.06223616,nan,0.0,0.15228756,0.0,4.357727,0.0,0.0,0.0,0.0,0.038718488,0.008584773,0.0
98432408,0.004433955,2.7873702e-05,0.0032941413,0.00076761853,0.011276502,0.0,0.0,0.15167779,0.0,0.0,3.339159e-11,0.0,nan,nan,nan,nan,nan,nan,0.0,1.5858639e-05,0.0,0.062237162,nan,0.0,0.15167779,0.0,4.378245,0.0,0.0,0.0,0.0,0.017939702,0.008576079,0.0
98622367,0.0064278897,2.8054568e-05,0.0002379832,0.0006000035,0.0112414695,0.0,0.0,0.15245235,0.0,0.0,3.3531768e-11,0.0,nan,nan,nan,nan,nan,nan,0.0,0.000104764455,0.0,0.062238257,nan,0.0,0.15245235,0.0,3.908957,0.0,0.0,0.0,0.0,0.0042146184,0.007842058,0.0
98832420,0.009984532,2.8309762e-05,2.645637e-05,0.0005293052,0.011222317,0.0,0.0,0.15237789,0.0,0.0,3.3712463e-11,0.0,nan,nan,nan,nan,nan,nan,0.0,0.0009706701,0.0,0.06220688,nan,0.0,0.15237789,0.0,3.55057,0.0,0.0,0.0,0.0,0.007221645,0.0056691463,0.0
99032399,0.015871743,2.8658826e-05,0.00048212966,0.0030023002,0.011164042,0.0,0.0,0.15179718,0.0,0.0,3.389452e-11,0.0,nan,nan,nan,nan,nan,nan,0.0,0.0026643632,0.0,0.062209,nan,0.0,0.15179718,0.0,3.6883588,0.0,0.0,0.0,0.0,0.0059043197,0.0049639046,0.0
99232361,0.011036141,2.907404e-05,0.000736701,0.002704285,0.011148836,0.0,0.0,0.15311475,0.0,0.0,3.4080266e-11,0.0,nan,nan,nan,nan,nan,nan,0.0,0.0015855154,0.0,0.062209982,nan,0.0,0.15311475,0.0,3.7554955,0.0,0.0,0.0,0.0,0.00052564015,0.004653242,0.0
99432396,0.008254255,2.9385508e-05,0.0003557341,0.00081618776,0.011067628,0.0,0.0,0.15253292,0.0,0.0,3.426274e-11,0.0,nan,nan,nan,nan,nan,nan,0.0,0.00042270383,0.0,0.06217873,nan,0.0,0.15253292,0.0,4.3112693,0.0,0.0,0.0,0.0,0.0001821275,0.005602846,0.0
99632399,0.0018562479,2.9671817e-05,0.001993592,0.0017677477,0.010993047,0.0,0.0,0.15196538,0.0,0.0,3.4438674e-11,0.0,nan,nan,nan,nan,nan,nan,0.0,2.8992608e-05,0.0,0.06220544,nan,0.0,0.15196538,0.0,4.348716,0.0,0.0,0.0,0.0,0.010907504,0.006584098,0.0
99832397,0.0038202566,2.98423e-05,0.002494649,0.0012244174,0.0109828105,0.0,0.0,0.15327276,0.0,0.0,3.460123e-11,0.0,nan,nan,nan,nan,nan,nan,0.0,0.0001657307,0.0,0.06225135,nan,0.0,0.15327276,0.0,4.8764424,0.0,0.0,0.0,0.0,0.0027503916,0.007755252,0.0
100032402,0.013657954,3.0143772e-05,5.198533e-05,0.0010706584,0.010937856,0.0,0.0,0.1526746,0.0,0.0,3.474673e-11,0.0,nan,nan,nan,nan,nan,nan,0.0,8.883077e-06,0.0,0.06230084,nan,0.0,0.1526746,0.0,4.693578,0.0,0.0,0.0,0.0,0.00048444868,0.008422931,0.0
100232397,0.008597129,3.0539588e-05,0.00010839738,0.0011288883,0.01091851,0.0,0.0,0.15207529,0.0,0.0,3.4876515e-11,0.0,nan,nan,nan,nan,nan,nan,0.0,0.0014264985,0.0,0.062302154,nan,0.0,0.15207529,0.0,4.862111,0.0,0.0,0.0,0.0,0.0024171618,0.0073252968,0.0
100432396,0.0172333,3.1119143e-05,0.00879994,0.0013954223,0.010913092,0.0,0.0,0.1514943,0.0,0.0,3.4993446e-11,0.0,nan,nan,nan,nan,nan,nan,0.0,0.0024623706,0.0,0.062311914,nan,0.0,0.1514943,0.0,4.7474856,0.0,0.0,0.0,0.0,0.00036099236,0.0057045068,0.0
100632383,0.017065674,3.167882e-05,0.0011693359,0.0014434883,0.0109243225,0.0,0.0,0.1528133,0.0,0.0,3.5102088e-11,0.0,nan,nan,nan,nan,nan,nan,0.0,0.0036242784,0.0,0.06226735,nan,0.0,0.1528133,0.0,4.6307936,0.0,0.0,0.0,0.0,0.0030759808,0.0043857014,0.0
100822355,0.0027944997,3.2114585e-05,0.0023095116,0.0011409748,0.010791887,0.0,0.0,0.15171836,0.0,0.0,3.5194566e-11,0.0,nan,nan,nan,nan,nan,nan,0.0,0.003578745,0.0,0.062236104,nan,0.0,0.15171836,0.0,4.1676126,0.0,0.0,0.0,0.0,0.0061505707,0.003819388,0.0
101032398,0.0031244778,3.2451033e-05,0.014015799,0.000799493,0.010707651,0.0,0.0,0.15166266,0.0,0.0,3.530199e-11,0.0,nan,nan,nan,nan,nan,nan,0.0,0.0025222686,0.0,0.062185843,nan,0.0,0.15166266,0.0,4.3298917,0.0,0.0,0.0,0.0,0.03005982,0.004539834,0.0
101232412,0.0031502307,3.268879e-05,0.00732302,0.0014044595,0.010696509,0.0,0.0,0.15296644,0.0,0.0,3.539173e-11,0.0,nan,nan,nan,nan,nan,nan,0.0,0.000574603,0.0,0.0622281,nan,0.0,0.15296644,0.0,5.4854302,0.0,0.0,0.0,0.0,0.00015791289,0.005729144,0.0
101432391,0.024443291,3.294348e-05,0.0054155034,0.0006124919,0.010706731,0.0,0.0,0.15233365,0.0,0.0,3.545674e-11,0.0,nan,nan,nan,nan,nan,nan,0.0,4.1341777e-06,0.0,0.062229205,nan,0.0,0.15233365,0.0,5.0322185,0.0,0.0,0.0,0.0,0.006760315,0.006737711,0.0
101632399,0.009907522,3.34834e-05,0.0016709068,0.0018424265,0.010728593,0.0,0.0,0.15360956,0.0,0.0,3.5512204e-11,0.0,nan,nan,nan,nan,nan,nan,0.0,0.0016160444,0.0,0.0622049,nan,0.0,0.15360956,0.0,4.943575,0.0,0.0,0.0,0.0,0.04932587,0.0058504855,0.0
101832396,0.012599656,3.4032688e-05,0.002289779,0.00049481046,0.010662216,0.0,0.0,0.15297718,0.0,0.0,3.5567903e-11,0.0,nan,nan,nan,nan,nan,nan,0.0,0.00024002716,0.0,0.0621348,nan,0.0,0.15297718,0.0,5.1940103,0.0,0.0,0.0,0.0,0.019523013,0.0035323037,0.0
102032353,0.02064122,3.456006e-05,7.834307e-05,0.0005061776,0.010590003,0.0,0.0,0.15234968,0.0,0.0,3.5625662e-11,0.0,nan,nan,nan,nan,nan,nan,0.0,0.0044588735,0.0,0.062101323,nan,0.0,0.15234968,0.0,4.9075646,0.0,0.0,0.0,0.0,0.00038482208,0.002829962,0.0
102232396,0.02297873,3.5023608e-05,0.004015117,0.00045961255,0.0105274655,0.0,0.0,0.15172613,0.0,0.0,3.5680306e-11,0.0,nan,nan,nan,nan,nan,nan,0.0,0.0024325089,0.0,0.0620795,nan,0.0,0.15172613,0.0,4.710102,0.0,0.0,0.0,0.0,0.00034182903,0.0025203514,0.0
102432361,0.020429572,3.542966e-05,6.50092e-05,0.00060667505,0.010522144,0.0,0.0,0.15300222,0.0,0.0,3.5725062e-11,0.0,nan,nan,nan,nan,nan,nan,0.0,0.0013303199,0.0,0.06203698,nan,0.0,0.15300222,0.0,4.456711,0.0,0.0,0.0,0.0,0.013279292,0.00247383,0.0
102632399,0.011660639,3.572653e-05,0.0018840038,0.0007488122,0.010452675,0.0,0.0,0.15237932,0.0,0.0,3.5758948e-11,0.0,nan,nan,nan,nan,nan,nan,0.0,0.0010244291,0.0,0.061920468,nan,0.0,0.15237932,0.0,4.3746133,0.0,0.0,0.0,0.0,0.026770867,0.0028247852,0.0
102822391,0.0241571,3.5991925e-05,0.0006172611,0.00063224277,0.010430971,0.0,0.0,0.15314658,0.0,0.0,3.5759763e-11,0.0,nan,nan,nan,nan,nan,nan,0.0,0.000645986,0.0,0.061833102,nan,0.0,0.15314658,0.0,4.2190332,0.0,0.0,0.0,0.0,0.017332083,0.002941459,0.0
103032396,0.026423791,3.6348825e-05,0.0036552206,0.005388923,0.010416102,0.0,0.0,0.1530252,0.0,0.0,3.5765925e-11,0.0,nan,nan,nan,nan,nan,nan,0.0,0.0013174724,0.0,0.06172012,nan,0.0,0.1530252,0.0,4.9183044,0.0,0.0,0.0,0.0,0.004892689,0.0028150522,0.0
103232403,0.023218632,3.6573772e-05,8.6015105e-05,0.00088334683,0.010363059,0.0,0.0,0.15238273,0.0,0.0,3.5738416e-11,0.0,nan,nan,nan,nan,nan,nan,0.0,0.0033321013,0.0,0.06152822,nan,0.0,0.15238273,0.0,4.7877936,0.0,0.0,0.0,0.0,0.00096355996,0.0028826166,0.0
103432357,0.013736329,3.6758967e-05,0.008049154,0.004923587,0.010287213,0.0,0.0,0.15175049,0.0,0.0,3.5694447e-11,0.0,nan,nan,nan,nan,nan,nan,0.0,0.0007090364,0.0,0.061288867,nan,0.0,0.15175049,0.0,5.280598,0.0,0.0,0.0,0.0,0.0006042848,0.0029075253,0.0
103632421,0.017148297,3.6821424e-05,0.004672095,0.0043741614,0.010276911,0.0,0.0,0.1530147,0.0,0.0,3.5615965e-11,0.0,nan,nan,nan,nan,nan,nan,0.0,0.0018565084,0.0,0.061069533,nan,0.0,0.1530147,0.0,5.198153,0.0,0.0,0.0,0.0,0.028141048,0.0028877857,0.0
103832396,0.029353997,3.6836907e-05,0.007060188,0.004292979,0.0102145225,0.0,0.0,0.15238579,0.0,0.0,3.549025e-11,0.0,nan,nan,nan,nan,nan,nan,0.0,0.0037955034,0.0,0.060740713,nan,0.0,0.15238579,0.0,4.7310843,0.0,0.0,0.0,0.0,0.008864644,0.0025790087,0.0
104032356,0.006651927,3.657558e-05,0.017525936,0.0029259508,0.010137191,0.0,0.0,0.15175314,0.0,0.0,3.532073e-11,0.0,nan,nan,nan,nan,nan,nan,0.0,0.0021101076,0.0,0.060329836,nan,0.0,0.15175314,0.0,4.78803,0.0,0.0,0.0,0.0,9.053576e-05,0.0020058914,0.0
104232353,0.01105473,3.558409e-05,0.017569916,0.0015022288,0.010071124,0.0,0.0,0.15112376,0.0,0.0,3.5059233e-11,0.0,nan,nan,nan,nan,nan,nan,0.0,0.009156167,0.0,0.059818882,nan,0.0,0.15112376,0.0,4.252277,0.0,0.0,0.0,0.0,0.004062054,0.0020824962,0.0
104432396,0.01952492,3.4607965e-05,0.0067083356,0.0011333425,0.010083797,0.0,0.0,0.15237945,0.0,0.0,3.4681147e-11,0.0,nan,nan,nan,nan,nan,nan,0.0,0.0029560302,0.0,0.058917806,nan,0.0,0.15237945,0.0,4.3983684,0.0,0.0,0.0,0.0,0.0031369687,0.0019786549,0.0
104632376,0.013755495,3.336955e-05,0.01716846,0.0009926251,0.010081069,0.0,0.0,0.15174814,0.0,0.0,3.415578e-11,0.0,nan,nan,nan,nan,nan,nan,0.0,0.0072331093,0.0,0.057651874,nan,0.0,0.15174814,0.0,5.1686497,0.0,0.0,0.0,0.0,0.016632877,0.0016970559,0.0
104832396,0.021817576,3.1804608e-05,0.010420705,0.00080618425,0.010086151,0.0,0.0,0.15111926,0.0,0.0,3.350652e-11,0.0,nan,nan,nan,nan,nan,nan,0.0,0.006382753,0.0,0.055850845,nan,0.0,0.15111926,0.0,5.6331186,0.0,0.0,0.0,0.0,0.11092807,0.0014982753,0.0
105032400,0.033043224,2.9974814e-05,0.00840338,0.00067085226,0.01014612,0.0,0.0,0.15236926,0.0,0.0,3.276941e-11,0.0,nan,nan,nan,nan,nan,nan,0.0,0.005093103,0.0,0.05333768,nan,0.0,0.15236926,0.0,5.795432,0.0,0.0,0.0,0.0,0.18015206,0.0016257877,0.0
105232402,0.036020152,2.8018203e-05,0.007427667,0.00046147953,0.010171437,0.0,0.0,0.15173118,0.0,0.0,3.1961683e-11,0.0,nan,nan,nan,nan,nan,nan,0.0,0.006315696,0.0,0.050603256,nan,0.0,0.15173118,0.0,6.1746984,0.0,0.0,0.0,0.0,0.29867774,0.0015626061,0.0
105422392,0.033499107,2.600776e-05,0.0051233126,0.00013564204,0.010163048,0.0,0.0,0.15060611,0.0,0.0,3.1114517e-11,0.0,nan,nan,nan,nan,nan,nan,0.0,0.0031844026,0.0,0.04750646,nan,0.0,0.15060611,0.0,6.804227,0.0,0.0,0.0,0.0,0.22372176,0.0015032941,0.0
105632377,0.035962727,2.3982158e-05,0.0063512716,2.7783186e-05,0.010274365,0.0,0.0,0.15046242,0.0,0.0,3.026451e-11,0.0,nan,nan,nan,nan,nan,nan,0.0,0.005728232,0.0,0.044143345,nan,0.0,0.15046242,0.0,6.996024,0.0,0.0,0.0,0.0,0.2809026,0.0007375641,0.0
105832397,0.032470454,2.1995991e-05,0.008686653,0.0018085507,0.010442184,0.0,0.0,0.15169781,0.0,0.0,2.9425958e-11,0.0,nan,nan,nan,nan,nan,nan,0.0,0.0061820378,0.0,0.04028648,nan,0.0,0.15169781,0.0,6.3906317,0.0,0.0,0.0,0.0,0.37669873,0.00032040366,0.0
107422413,0.011904096,8.943054e-06,0.004056518,0.0017610638,0.011583236,0.0,0.0,0.14984617,0.0,0.0,2.5600702e-11,0.0,nan,nan,nan,nan,nan,nan,0.0,0.0017286857,0.0,0.020457909,nan,0.0,0.14984617,0.0,7.512823,0.0,0.0,0.0,0.0,0.58439726,0.0003291387,0.0
107632462,0.014517954,8.114967e-06,0.0051986068,0.0013814791,0.011971112,0.0,0.0,0.14975023,0.0,0.0,2.5488622e-11,0.0,nan,nan,nan,nan,nan,nan,0.0,0.0019720641,0.0,0.019131394,nan,0.0,0.14975023,0.0,7.4812317,0.0,0.0,0.0,0.0,0.9253088,0.0007497595,0.0
107832365,0.008270945,7.347901e-06,0.00866797,0.0011174402,0.012311919,0.0,0.0,0.15102738,0.0,0.0,2.543277e-11,0.0,nan,nan,nan,nan,nan,nan,0.0,0.00076225755,0.0,0.01870949,nan,0.0,0.15102738,0.0,7.988228,0.0,0.0,0.0,0.0,1.1513408,0.0018141329,0.0
108032396,0.020707486,6.6985904e-06,0.014781152,0.0006550381,0.012567391,0.0,0.0,0.1504735,0.0,0.0,2.5440707e-11,0.0,nan,nan,nan,nan,nan,nan,0.0,0.0031035966,0.0,0.01880189,nan,0.0,0.1504735,0.0,7.8244147,0.0,0.0,0.0,0.0,1.4166001,0.0022648247,0.0
108232352,0.0038697291,6.06019e-06,0.011716232,0.0006418509,0.012712821,0.0,0.0,0.1499282,0.0,0.0,2.5505468e-11,0.0,nan,nan,nan,nan,nan,nan,0.0,0.0027660779,0.0,0.018915107,nan,0.0,0.1499282,0.0,7.511353,0.0,0.0,0.0,0.0,1.7065248,0.0026510975,0.0
108432398,0.0044660224,5.554406e-06,0.010390526,0.0035141879,0.012706858,0.0,0.0,0.1494035,0.0,0.0,2.561396e-11,0.0,nan,nan,nan,nan,nan,nan,0.0,0.0016736373,0.0,0.019045264,nan,0.0,0.1494035,0.0,8.027457,0.0,0.0,0.0,0.0,1.9807326,0.003305171,0.0
108632400,0.0035996465,5.180276e-06,0.03166341,0.0026705945,0.012732993,0.0,0.0,0.15071872,0.0,0.0,2.5758519e-11,0.0,nan,nan,nan,nan,nan,nan,0.0,0.0022116606,0.0,0.01919128,nan,0.0,0.15071872,0.0,7.7851725,0.0,0.0,0.0,0.0,1.9593154,0.0036695984,0.0
108832391,0.003941616,5.019138e-06,0.02068335,0.0023878745,0.01261616,0.0,0.0,0.15018652,0.0,0.0,2.5921114e-11,0.0,nan,nan,nan,nan,nan,nan,0.0,0.002101002,0.0,0.019347142,nan,0.0,0.15018652,0.0,8.422765,0.0,0.0,0.0,0.0,1.8197955,0.00397536,0.0
109032400,0.0030973088,5.1988704e-06,0.010605592,0.0012891602,0.012505907,0.0,0.0,0.1514647,0.0,0.0,2.6080837e-11,0.0,nan,nan,nan,nan,nan,nan,0.0,0.0010593231,0.0,0.019514136,nan,0.0,0.1514647,0.0,8.261583,0.0,0.0,0.0,0.0,2.1724026,0.0044857785,0.0
109232446,0.00203586,5.4640363e-06,0.00048356215,0.0031765115,0.012227868,0.0,0.0,0.15086661,0.0,0.0,2.6235665e-11,0.0,nan,nan,nan,nan,nan,nan,0.0,0.00047803667,0.0,0.019686539,nan,0.0,0.15086661,0.0,8.071714,0.0,0.0,0.0,0.0,2.3944561,0.007429778,0.0
109422347,0.002124306,5.475249e-06,0.005408202,0.0030684632,0.011892234,0.0,0.0,0.14976671,0.0,0.0,2.6368702e-11,0.0,nan,nan,nan,nan,nan,nan,0.0,0.0011882045,0.0,0.01985546,nan,0.0,0.14976671,0.0,7.992321,0.0,0.0,0.0,0.0,2.7942104,0.0100226635,0.0
109632396,0.0009664591,5.6145363e-06,0.002425797,0.0023921235,0.011655347,0.0,0.0,0.15151326,0.0,0.0,2.65078e-11,0.0,nan,nan,nan,nan,nan,nan,0.0,0.0011069234,0.0,0.020051012,nan,0.0,0.15151326,0.0,8.487362,0.0,0.0,0.0,0.0,2.2686853,0.012822888,0.0
109832396,0.015334312,5.4812003e-06,0.0043253344,0.0023789194,0.011290419,0.0,0.0,0.15089521,0.0,0.0,2.661491e-11,0.0,nan,nan,nan,nan,nan,nan,0.0,0.00079212367,0.0,0.020238824,nan,0.0,0.15089521,0.0,8.625932,0.0,0.0,0.0,0.0,2.177125,0.01572725,0.0
110032402,0.003416985,5.121872e-06,0.0027868352,0.0016415588,0.010932007,0.0,0.0,0.1502678,0.0,0.0,2.6695752e-11,0.0,nan,nan,nan,nan,nan,nan,0.0,0.0016818919,0.0,0.0204287,nan,0.0,0.1502678,0.0,8.10032,0.0,0.0,0.0,0.0,2.384428,0.01696063,0.0
110232399,0.001580335,4.801966e-06,0.00044309878,0.006007008,0.0105982805,0.0,0.0,0.1496336,0.0,0.0,2.6773687e-11,0.0,nan,nan,nan,nan,nan,nan,0.0,0.0008923351,0.0,0.020622877,nan,0.0,0.1496336,0.0,8.497639,0.0,0.0,0.0,0.0,2.538459,0.014912609,0.0
110432359,4.240463e-05,4.7526723e-06,7.964383e-08,0.0011957409,0.01040335,0.0,0.0,0.15084018,0.0,0.0,2.6843043e-11,0.0,nan,nan,nan,nan,nan,nan,0.0,0.0024573216,0.0,0.020819763,nan,0.0,0.15084018,0.0,8.385846,0.0,0.0,0.0,0.0,2.614468,0.012642212,0.0
110632375,0.0022150727,4.9358177e-06,0.0028618819,0.00079493166,0.010232486,0.0,0.0,0.1501673,0.0,0.0,2.6880503e-11,0.0,nan,nan,nan,nan,nan,nan,0.0,0.00067667646,0.0,0.021016613,nan,0.0,0.1501673,0.0,8.248741,0.0,0.0,0.0,0.0,2.3918812,0.011373189,0.0
110832376,0.009623509,5.066279e-06,0.00026492125,0.00089954014,0.010115616,0.0,0.0,0.14949113,0.0,0.0,2.6886342e-11,0.0,nan,nan,nan,nan,nan,nan,0.0,0.0005349191,0.0,0.021213593,nan,0.0,0.14949113,0.0,8.173631,0.0,0.0,0.0,0.0,2.2600594,0.011359106,0.0
111032372,0.00939912,5.400375e-06,0.000254197,0.0009156112,0.010094968,0.0,0.0,0.15066011,0.0,0.0,2.688122e-11,0.0,nan,nan,nan,nan,nan,nan,0.0,0.0011727035,0.0,0.021413969,nan,0.0,0.15066011,0.0,8.038517,0.0,0.0,0.0,0.0,2.1818097,0.01175766,0.0
111232381,0.011402264,5.8432497e-06,0.006929773,0.000750385,0.010069935,0.0,0.0,0.14998427,0.0,0.0,2.6871486e-11,0.0,nan,nan,nan,nan,nan,nan,0.0,0.0005706532,0.0,0.021615094,nan,0.0,0.14998427,0.0,7.6942024,0.0,0.0,0.0,0.0,2.027104,0.01313302,0.0
111432383,0.016711652,6.311041e-06,0.0026892482,0.0006767861,0.010073659,0.0,0.0,0.14932868,0.0,0.0,2.6870983e-11,0.0,nan,nan,nan,nan,nan,nan,0.0,0.00045424112,0.0,0.02181696,nan,0.0,0.14932868,0.0,8.437223,0.0,0.0,0.0,0.0,1.8699012,0.017890997,0.0
111632366,0.0132472385,6.6034836e-06,0.00021898437,0.014036518,0.010150757,0.0,0.0,0.15051311,0.0,0.0,2.688541e-11,0.0,nan,nan,nan,nan,nan,nan,0.0,0.00069929677,0.0,0.022021448,nan,0.0,0.15051311,0.0,8.60013,0.0,0.0,0.0,0.0,1.7602695,0.019814733,0.0
111832410,0.013404802,6.758437e-06,0.0063220733,0.0010555345,0.010199544,0.0,0.0,0.14988165,0.0,0.0,2.6911934e-11,0.0,nan,nan,nan,nan,nan,nan,0.0,0.0003121513,0.0,0.022225529,nan,0.0,0.14988165,0.0,8.091368,0.0,0.0,0.0,0.0,1.8602915,0.02093662,0.0
112032355,0.013564424,6.87679e-06,0.0082684085,0.014915286,0.010257229,0.0,0.0,0.14925319,0.0,0.0,2.6950423e-11,0.0,nan,nan,nan,nan,nan,nan,0.0,0.00027867578,0.0,0.022429308,nan,0.0,0.14925319,0.0,8.893866,0.0,0.0,0.0,0.0,1.9757981,0.021064198,0.0
112232400,0.018575283,6.9853263e-06,0.016167117,0.014174246,0.010350314,0.0,0.0,0.15046476,0.0,0.0,2.7007306e-11,0.0,nan,nan,nan,nan,nan,nan,0.0,0.00058199663,0.0,0.022632077,nan,0.0,0.15046476,0.0,8.65804,0.0,0.0,0.0,0.0,1.9692824,0.020167667,0.0
112432410,0.024717594,7.236848e-06,0.006379634,0.0131941475,0.010393797,0.0,0.0,0.14985803,0.0,0.0,2.7087178e-11,0.0,nan,nan,nan,nan,nan,nan,0.0,0.0014008816,0.0,0.022834074,nan,0.0,0.14985803,0.0,8.672544,0.0,0.0,0.0,0.0,2.0198927,0.0201953,0.0
112632399,0.011603289,7.4938284e-06,0.0045646154,0.010248171,0.010451127,0.0,0.0,0.14927272,0.0,0.0,2.718881e-11,0.0,nan,nan,nan,nan,nan,nan,0.0,0.00045164276,0.0,0.02303461,nan,0.0,0.14927272,0.0,8.647813,0.0,0.0,0.0,0.0,2.0882554,0.020948708,0.0
112832381,0.014200362,7.5721528e-06,0.00091863936,0.0095587475,0.010491451,0.0,0.0,0.14870517,0.0,0.0,2.7310623e-11,0.0,nan,nan,nan,nan,nan,nan,0.0,0.0005462779,0.0,0.023232942,nan,0.0,0.14870517,0.0,8.604662,0.0,0.0,0.0,0.0,2.0812094,0.021280006,0.0
113032396,0.028331527,7.5825965e-06,0.00086646475,0.009363563,0.010535537,0.0,0.0,0.14997815,0.0,0.0,2.7456445e-11,0.0,nan,nan,nan,nan,nan,nan,0.0,9.408656e-05,0.0,0.02342821,nan,0.0,0.14997815,0.0,8.927252,0.0,0.0,0.0,0.0,2.1559756,0.020462368,0.0
113232396,0.026583401,7.4818495e-06,0.0015350282,0.007820804,0.010540246,0.0,0.0,0.14942889,0.0,0.0,2.7621143e-11,0.0,nan,nan,nan,nan,nan,nan,0.0,1.4050181e-06,0.0,0.02362034,nan,0.0,0.14942889,0.0,8.709839,0.0,0.0,0.0,0.0,2.3804715,0.018990114,0.0
113432396,0.03228301,7.2407447e-06,0.0042371764,0.007785997,0.010537399,0.0,0.0,0.14889243,0.0,0.0,2.7799459e-11,0.0,nan,nan,nan,nan,nan,nan,0.0,6.2273284e-05,0.0,0.023808565,nan,0.0,0.14889243,0.0,8.66435,0.0,0.0,0.0,0.0,2.542005,0.016851325,0.0
113632380,0.045337707,6.885917e-06,0.0030009237,0.008395837,0.010526733,0.0,0.0,0.15016711,0.0,0.0,2.7988644e-11,0.0,nan,nan,nan,nan,nan,nan,0.0,8.331879e-05,0.0,0.023992544,nan,0.0,0.15016711,0.0,8.179616,0.0,0.0,0.0,0.0,3.096531,0.014193923,0.0
113832382,0.05882603,6.4168266e-06,3.9943166e-05,0.006919085,0.010496075,0.0,0.0,0.14960398,0.0,0.0,2.8172135e-11,0.0,nan,nan,nan,nan,nan,nan,0.0,0.00018122362,0.0,0.024170764,nan,0.0,0.14960398,0.0,8.740141,0.0,0.0,0.0,0.0,3.5431325,0.012323608,0.0
114032396,0.08015013,5.773163e-06,0.0006911669,0.012370607,0.010533129,0.0,0.0,0.14903772,0.0,0.0,2.8334392e-11,0.0,nan,nan,nan,nan,nan,nan,0.0,7.769562e-05,0.0,0.02434413,nan,0.0,0.14903772,0.0,8.403362,0.0,0.0,0.0,0.0,3.642941,0.011909608,0.0
114232381,0.06325476,5.044766e-06,0.0028270122,0.01355595,0.010680119,0.0,0.0,0.15030944,0.0,0.0,2.846703e-11,0.0,nan,nan,nan,nan,nan,nan,0.0,2.8395221e-05,0.0,0.024512043,nan,0.0,0.15030944,0.0,7.516305,0.0,0.0,0.0,0.0,3.8310463,0.011025663,0.0
114432396,0.062719606,4.368363e-06,0.00029791234,0.01329412,0.010826476,0.0,0.0,0.1497557,0.0,0.0,2.8565436e-11,0.0,nan,nan,nan,nan,nan,nan,0.0,6.129292e-05,0.0,0.02467313,nan,0.0,0.1497557,0.0,7.15494,0.0,0.0,0.0,0.0,4.0598397,0.008469311,0.0
114632362,0.023396213,3.7274515e-06,0.00080758525,0.007338217,0.011006286,0.0,0.0,0.14920698,0.0,0.0,2.8636232e-11,0.0,nan,nan,nan,nan,nan,nan,0.0,5.9152273e-05,0.0,0.024829973,nan,0.0,0.14920698,0.0,6.5064607,0.0,0.0,0.0,0.0,4.3952656,0.0075735836,0.0
114832396,0.022117056,3.2109504e-06,0.0011327945,0.0064149788,0.011247899,0.0,0.0,0.14868349,0.0,0.0,2.8680723e-11,0.0,nan,nan,nan,nan,nan,nan,0.0,0.00075143826,0.0,0.024982098,nan,0.0,0.14868349,0.0,7.11273,0.0,0.0,0.0,0.0,4.657188,0.007022974,0.0
115032389,0.015733272,2.7807748e-06,0.0023075982,0.0055427724,0.011511859,0.0,0.0,0.1499911,0.0,0.0,2.8718668e-11,0.0,nan,nan,nan,nan,nan,nan,0.0,0.00063176756,0.0,0.025130413,nan,0.0,0.1499911,0.0,3.4232118,0.0,0.0,0.0,0.0,4.508909,0.0066779368,0.0
115232396,0.005720946,2.4058422e-06,0.0054071015,0.005807252,0.011774439,0.0,0.0,0.14948468,0.0,0.0,2.8748568e-11,0.0,nan,nan,nan,nan,nan,nan,0.0,0.002938566,0.0,0.025273697,nan,0.0,0.14948468,0.0,4.272409,0.0,0.0,0.0,0.0,4.41472,0.006721035,0.0
115432387,0.007053812,2.0032392e-06,0.0043544313,0.0054059285,0.011988783,0.0,0.0,0.1508381,0.0,0.0,2.877556e-11,0.0,nan,nan,nan,nan,nan,nan,0.0,0.0007713934,0.0,0.025416467,nan,0.0,0.1508381,0.0,4.029025,0.0,0.0,0.0,0.0,4.5472097,0.006528379,0.0
115632386,0.0038534256,1.6617815e-06,3.621223e-05,0.004862803,0.012120125,0.0,0.0,0.1503711,0.0,0.0,2.8798724e-11,0.0,nan,nan,nan,nan,nan,nan,0.0,1.8271068e-06,0.0,0.025557509,nan,0.0,0.1503711,0.0,4.394109,0.0,0.0,0.0,0.0,4.736616,0.0058099725,0.0
115832401,0.00534941,1.4162835e-06,1.951455e-05,0.0046173725,0.012265018,0.0,0.0,0.14992005,0.0,0.0,2.8806086e-11,0.0,nan,nan,nan,nan,nan,nan,0.0,1.9778043e-05,0.0,0.025697248,nan,0.0,0.14992005,0.0,3.97492,0.0,0.0,0.0,0.0,5.0128126,0.0051571256,0.0
116032408,0.0034261611,1.2507018e-06,0.00048370747,0.0043087024,0.012357027,0.0,0.0,0.14948188,0.0,0.0,2.8799444e-11,0.0,nan,nan,nan,nan,nan,nan,0.0,1.192134e-05,0.0,0.025833286,nan,0.0,0.14948188,0.0,4.4464993,0.0,0.0,0.0,0.0,5.123405,0.004666648,0.0
116232364,0.0024461157,1.1144434e-06,0.0008002734,0.0034265183,0.012480975,0.0,0.0,0.15089452,0.0,0.0,2.877943e-11,0.0,nan,nan,nan,nan,nan,nan,0.0,3.7502994e-07,0.0,0.025971211,nan,0.0,0.15089452,0.0,4.676071,0.0,0.0,0.0,0.0,5.061356,0.004650459,0.0
116432383,0.007371151,9.724256e-07,0.0029219128,0.004927452,0.0125034535,0.0,0.0,0.15047874,0.0,0.0,2.8754579e-11,0.0,nan,nan,nan,nan,nan,nan,0.0,2.3764831e-05,0.0,0.026108343,nan,0.0,0.15047874,0.0,4.1899624,0.0,0.0,0.0,0.0,4.9295692,0.00485518,0.0
116632393,0.009933072,8.746182e-07,0.00080993335,0.0034255893,0.012514559,0.0,0.0,0.1500524,0.0,0.0,2.8721681e-11,0.0,nan,nan,nan,nan,nan,nan,0.0,0.00036842498,0.0,0.02624463,nan,0.0,0.1500524,0.0,3.982802,0.0,0.0,0.0,0.0,4.962147,0.0050693653,0.0
116832357,0.007954722,7.502445e-07,0.0024121841,0.0025279645,0.012560757,0.0,0.0,0.1514644,0.0,0.0,2.8681904e-11,0.0,nan,nan,nan,nan,nan,nan,0.0,0.00073503767,0.0,0.026376102,nan,0.0,0.1514644,0.0,4.4228973,0.0,0.0,0.0,0.0,4.994414,0.005576243,0.0
117022398,0.0042623146,5.991308e-07,0.0046223165,0.001454216,0.012430504,0.0,0.0,0.15046501,0.0,0.0,2.86329e-11,0.0,nan,nan,nan,nan,nan,nan,0.0,0.0011752078,0.0,0.026503412,nan,0.0,0.15046501,0.0,3.4054222,0.0,0.0,0.0,0.0,5.1497965,0.0054284274,0.0
117232460,0.0042284015,4.6013386e-07,0.0045314645,0.0013960262,0.012396391,0.0,0.0,0.15237427,0.0,0.0,2.8610869e-11,0.0,nan,nan,nan,nan,nan,nan,0.0,0.0030322468,0.0,0.026643956,nan,0.0,0.15237427,0.0,2.5289102,0.0,0.0,0.0,0.0,5.6227293,0.0049376357,0.0
117432399,0.0076502184,3.7214292e-07,0.0028438475,0.0011094974,0.012220576,0.0,0.0,0.15187374,0.0,0.0,2.8597746e-11,0.0,nan,nan,nan,nan,nan,nan,0.0,0.0026643747,0.0,0.026772084,nan,0.0,0.15187374,0.0,2.8111691,0.0,0.0,0.0,0.0,5.5748754,0.003799258,0.0
117632396,0.006413333,3.2443486e-07,0.0037714448,0.0010202206,0.012033596,0.0,0.0,0.15137243,0.0,0.0,2.8608371e-11,0.0,nan,nan,nan,nan,nan,nan,0.0,0.0010594523,0.0,0.026904447,nan,0.0,0.15137243,0.0,2.7477958,0.0,0.0,0.0,0.0,5.648453,0.0033496423,0.0
117832386,0.005249274,2.8186534e-07,0.0046028895,0.0006449054,0.011853028,0.0,0.0,0.15085773,0.0,0.0,2.8645843e-11,0.0,nan,nan,nan,nan,nan,nan,0.0,0.0025027185,0.0,0.027036127,nan,0.0,0.15085773,0.0,2.8253126,0.0,0.0,0.0,0.0,5.529268,0.003115174,0.0
119232392,0.0047978684,1.319961e-07,0.0006976036,0.00045814094,0.011132246,0.0,0.0,0.15256473,0.0,0.0,2.9348867e-11,0.0,nan,nan,nan,nan,nan,nan,0.0,0.00092638476,0.0,0.02788917,nan,0.0,0.15256473,0.0,2.2070649,0.0,0.0,0.0,0.0,4.980028,0.0010582309,0.0
119432396,0.0042716227,1.3747199e-07,0.0015441765,0.00024783003,0.011049018,0.0,0.0,0.15197302,0.0,0.0,2.9464802e-11,0.0,nan,nan,nan,nan,nan,nan,0.0,0.0013545906,0.0,0.028001348,nan,0.0,0.15197302,0.0,2.4596508,0.0,0.0,0.0,0.0,5.2043333,0.0010014472,0.0
119632390,0.0021284092,1.4931958e-07,0.00052734674,0.00030232925,0.010970274,0.0,0.0,0.15138704,0.0,0.0,2.957788e-11,0.0,nan,nan,nan,nan,nan,nan,0.0,0.0010863286,0.0,0.028105656,nan,0.0,0.15138704,0.0,2.3059177,0.0,0.0,0.0,0.0,5.5183954,0.0009471102,0.0
119832359,0.0032269543,1.6198733e-07,0.0046165646,0.0034919276,0.010955991,0.0,0.0,0.15266645,0.0,0.0,2.9687714e-11,0.0,nan,nan,nan,nan,nan,nan,0.0,0.0017303664,0.0,0.028212333,nan,0.0,0.15266645,0.0,1.9794071,0.0,0.0,0.0,0.0,5.2605877,0.0009447216,0.0
120032379,0.00076382136,1.7309412e-07,0.00075107085,0.00032180196,0.010894265,0.0,0.0,0.15204227,0.0,0.0,2.978989e-11,0.0,nan,nan,nan,nan,nan,nan,0.0,0.0005773299,0.0,0.028316274,nan,0.0,0.15204227,0.0,1.9375703,0.0,0.0,0.0,0.0,5.4283075,0.000984324,0.0
120232399,0.00016741548,1.9099717e-07,0.0003551326,0.0006173917,0.010843666,0.0,0.0,0.15142897,0.0,0.0,2.9886985e-11,0.0,nan,nan,nan,nan,nan,nan,0.0,0.0012945797,0.0,0.028412543,nan,0.0,0.15142897,0.0,1.9275291,0.0,0.0,0.0,0.0,5.4583225,0.0013038011,0.0
120432400,0.00029135926,2.2645968e-07,7.190867e-05,0.0006240585,0.010803151,0.0,0.0,0.15081581,0.0,0.0,2.9982655e-11,0.0,nan,nan,nan,nan,nan,nan,0.0,0.00042013035,0.0,0.028511284,nan,0.0,0.15081581,0.0,1.6335956,0.0,0.0,0.0,0.0,5.4772778,0.00181307,0.0
120632377,0.009270776,2.9863807e-07,0.00027565405,0.0045843874,0.010826089,0.0,0.0,0.15209463,0.0,0.0,3.008001e-11,0.0,nan,nan,nan,nan,nan,nan,0.0,0.00019122916,0.0,0.028607626,nan,0.0,0.15209463,0.0,1.8164527,0.0,0.0,0.0,0.0,5.6609287,0.0027417743,0.0
120832392,0.0007733312,3.8939618e-07,1.5644042e-05,0.0035534722,0.010802188,0.0,0.0,0.15150471,0.0,0.0,3.0179807e-11,0.0,nan,nan,nan,nan,nan,nan,0.0,0.0008666766,0.0,0.028701823,nan,0.0,0.15150471,0.0,1.3470564,0.0,0.0,0.0,0.0,5.4665775,0.0040274416,0.0
121032356,0.00062045036,4.684712e-07,0.0019847741,0.0024666204,0.010782279,0.0,0.0,0.15092623,0.0,0.0,3.027957e-11,0.0,nan,nan,nan,nan,nan,nan,0.0,0.00061273726,0.0,0.0287888,nan,0.0,0.15092623,0.0,1.5943031,0.0,0.0,0.0,0.0,5.2555614,0.0064545954,0.0
121232396,0.005126561,5.0016956e-07,0.0010763847,0.0019953304,0.010821313,0.0,0.0,0.15222715,0.0,0.0,3.0375723e-11,0.0,nan,nan,nan,nan,nan,nan,0.0,8.851275e-05,0.0,0.028878856,nan,0.0,0.15222715,0.0,1.6022017,0.0,0.0,0.0,0.0,5.018456,0.0067508123,0.0
121432379,0.0024549947,4.7362974e-07,0.002907585,0.0012752127,0.01080784,0.0,0.0,0.15163305,0.0,0.0,3.046984e-11,0.0,nan,nan,nan,nan,nan,nan,0.0,3.97618e-05,0.0,0.028966561,nan,0.0,0.15163305,0.0,1.8222462,0.0,0.0,0.0,0.0,5.5533648,0.00624649,0.0
121632399,0.0025603664,4.1664254e-07,0.001077184,0.0013381637,0.010797684,0.0,0.0,0.15106173,0.0,0.0,3.057036e-11,0.0,nan,nan,nan,nan,nan,nan,0.0,2.9872634e-05,0.0,0.0290468,nan,0.0,0.15106173,0.0,2.0704474,0.0,0.0,0.0,0.0,5.301799,0.003744699,0.0
121832399,0.002708764,3.834067e-07,0.000112536276,0.0009933228,0.010836259,0.0,0.0,0.15237269,0.0,0.0,3.0682155e-11,0.0,nan,nan,nan,nan,nan,nan,0.0,0.0001623477,0.0,0.029129004,nan,0.0,0.15237269,0.0,2.3740184,0.0,0.0,0.0,0.0,5.3806224,0.0029012007,0.0
122032409,0.0051112487,3.6025844e-07,0.0045195855,0.0019002759,0.010811558,0.0,0.0,0.15180258,0.0,0.0,3.0815385e-11,0.0,nan,nan,nan,nan,nan,nan,0.0,4.4260323e-05,0.0,0.02920814,nan,0.0,0.15180258,0.0,2.7110424,0.0,0.0,0.0,0.0,5.4114122,0.0026214335,0.0
122232400,0.0042978018,3.768305e-07,0.007671219,0.0020824752,0.010791353,0.0,0.0,0.1512453,0.0,0.0,3.0974542e-11,0.0,nan,nan,nan,nan,nan,nan,0.0,0.00023772055,0.0,0.029284641,nan,0.0,0.1512453,0.0,2.7289803,0.0,0.0,0.0,0.0,5.5143247,0.0029446005,0.0
