timestamp,rollspeed,pitchspeed,yawspeed,q[0],q[1],q[2],q[3],delta_q_reset[0],delta_q_reset[1],delta_q_reset[2],delta_q_reset[3],quat_reset_counter
349563869,-0.001979271,0.0015767126,-0.0038633994,-0.36829254,-0.0033302456,-0.0012186426,-0.92970324,0.99983305,7.0253416e-05,-8.834456e-05,0.018276114,3
349595069,-0.0017571752,0.0017607703,-0.0058960696,-0.3683684,-0.0033192222,-0.0012008515,-0.92967325,0.99983305,7.0253416e-05,-8.834456e-05,0.018276114,3
349625484,-8.688087e-05,-0.0017532147,-0.0040591517,-0.36843047,-0.003313291,-0.0011959691,-0.92964864,0.99983305,7.0253416e-05,-8.834456e-05,0.018276114,3
349658291,0.0013179189,0.00040245953,-0.0033207855,-0.36850443,-0.003320764,-0.0011987961,-0.9296193,0.99983305,7.0253416e-05,-8.834456e-05,0.018276114,3
349689504,-0.00025588193,-0.00054841465,-0.0047133802,-0.36858237,-0.003314952,-0.0011955807,-0.9295885,0.99983305,7.0253416e-05,-8.834456e-05,0.018276114,3
349721517,4.803075e-05,0.0005157891,-0.0038618864,-0.3686583,-0.0033025844,-0.0011912236,-0.92955834,0.99983305,7.0253416e-05,-8.834456e-05,0.018276114,3
349753474,0.00090527086,-0.0010808187,-0.0034410479,-0.36873782,-0.0033221492,-0.001208981,-0.9295267,0.99983305,7.0253416e-05,-8.834456e-05,0.018276114,3
349785469,-0.0017498087,0.0017797906,-0.004932013,-0.36881173,-0.0033196572,-0.0012129238,-0.9294975,0.99983305,7.0253416e-05,-8.834456e-05,0.018276114,3
349813487,-0.002085664,-0.0018283848,-0.0031150177,-0.36886913,-0.0033304975,-0.0012106651,-0.92947465,0.99983305,7.0253416e-05,-8.834456e-05,0.018276114,3
349845469,-0.00037505932,-0.0015139163,-0.003856147,-0.36893836,-0.0033430487,-0.0012080286,-0.9294471,0.99983305,7.0253416e-05,-8.834456e-05,0.018276114,3
349877469,-0.001124961,-0.0006582337,-0.0026991633,-0.36900836,-0.0033401,-0.0012235055,-0.92941934,0.99983305,7.0253416e-05,-8.834456e-05,0.018276114,3
349909475,-0.0005763158,0.00041084742,-0.004514554,-0.3690809,-0.0033308784,-0.0012337769,-0.9293905,0.99983305,7.0253416e-05,-8.834456e-05,0.018276114,3
349941491,-5.4666772e-05,0.0006154799,-0.004081395,-0.3691616,-0.0033347001,-0.0012405847,-0.9293584,0.99983305,7.0253416e-05,-8.834456e-05,0.018276114,3
349973468,-0.00101785,-0.0006564449,-0.0028025038,-0.36922804,-0.0033440322,-0.0012388024,-0.9293321,0.99983305,7.0253416e-05,-8.834456e-05,0.018276114,3
350005469,-0.0010164432,-1.8300314e-05,-0.0029104487,-0.36929965,-0.0033354952,-0.0012415661,-0.92930365,0.99983305,7.0253416e-05,-8.834456e-05,0.018276114,3
350037475,-5.0206552e-05,0.0017770764,-0.0041923732,-0.36936796,-0.003323279,-0.0012564972,-0.9292765,0.99983305,7.0253416e-05,-8.834456e-05,0.018276114,3
350069503,0.0006917375,0.0005151876,-0.0033315015,-0.36943996,-0.0033232188,-0.0012563332,-0.92924786,0.99983305,7.0253416e-05,-8.834456e-05,0.018276114,3
350097489,-0.00025943248,0.0005097033,-0.0042813336,-0.3695004,-0.0033221212,-0.0012403027,-0.9292239,0.99983305,7.0253416e-05,-8.834456e-05,0.018276114,3
350129493,-0.00058469514,-0.000977657,-0.003965915,-0.36955416,-0.0033265005,-0.0012356511,-0.92920244,0.99983305,7.0253416e-05,-8.834456e-05,0.018276114,3
350161469,-0.00069588644,-0.0012974875,-0.002897061,-0.36960334,-0.0033174618,-0.0012352784,-0.9291829,0.99983305,7.0253416e-05,-8.834456e-05,0.018276114,3
350193469,0.0010035767,-0.0013977712,-0.002784661,-0.36966318,-0.0033337255,-0.0012207039,-0.9291591,0.99983305,7.0253416e-05,-8.834456e-05,0.018276114,3
350225521,-0.00048508367,0.00082694826,-0.00227417,-0.3697095,-0.0033539534,-0.0012126549,-0.9291406,0.99983305,7.0253416e-05,-8.834456e-05,0.018276114,3
350257495,0.0007960346,0.0013533188,-0.005237735,-0.36976892,-0.003357551,-0.0012150799,-0.9291169,0.99983305,7.0253416e-05,-8.834456e-05,0.018276114,3
350287917,-0.00022002566,-0.0005711599,-0.0031240936,-0.36982948,-0.00335507,-0.0012113225,-0.9290928,0.99983305,7.0253416e-05,-8.834456e-05,0.018276114,3
350320669,-0.0006908787,-0.00012827915,-0.0035503474,-0.36988306,-0.0033560519,-0.0012131941,-0.92907155,0.99983305,7.0253416e-05,-8.834456e-05,0.018276114,3
350351927,-0.0010117849,0.0009214489,-0.004602459,-0.36995244,-0.0033704776,-0.0012073948,-0.9290439,0.99983305,7.0253416e-05,-8.834456e-05,0.018276114,3
350380669,-0.0013183862,0.0006224256,-0.00514277,-0.37000233,-0.003364783,-0.001209598,-0.92902404,0.99983305,7.0253416e-05,-8.834456e-05,0.018276114,3
350411905,0.0003228446,-0.00015768479,-0.0032711565,-0.37005976,-0.0033634782,-0.0012147463,-0.9290011,0.99983305,7.0253416e-05,-8.834456e-05,0.018276114,3
350444675,0.00080440636,0.0015704527,-0.0042897733,-0.37012348,-0.003359872,-0.0012301389,-0.92897564,0.99983305,7.0253416e-05,-8.834456e-05,0.018276114,3
350476669,-0.0004761943,0.0010377248,-0.004508723,-0.3701779,-0.0033669015,-0.0012325861,-0.928954,0.99983305,7.0253416e-05,-8.834456e-05,0.018276114,3
350508669,-0.0014318522,0.0008281389,-0.004400285,-0.37022415,-0.0033505445,-0.001235498,-0.9289357,0.99983305,7.0253416e-05,-8.834456e-05,0.018276114,3
350540693,-0.00016740803,0.0021240087,-0.0025933946,-0.37026682,-0.003360471,-0.0012309084,-0.92891866,0.99983305,7.0253416e-05,-8.834456e-05,0.018276114,3
350572675,0.00038149732,-0.00056057546,-0.004814815,-0.3703188,-0.00336348,-0.0012231077,-0.9288978,0.99983305,7.0253416e-05,-8.834456e-05,0.018276114,3
350604669,-0.0019470211,-0.0010015725,-0.0068326304,-0.37038395,-0.0033550651,-0.0012164307,-0.9288719,0.99983305,7.0253416e-05,-8.834456e-05,0.018276114,3
350636669,-0.0014286127,0.00082141237,-0.0040776487,-0.37041777,-0.0033504483,-0.0012079319,-0.9288585,0.99983305,7.0253416e-05,-8.834456e-05,0.018276114,3
350668669,0.0007051254,0.00039603794,-0.0050259205,-0.37046963,-0.0033358447,-0.0012045784,-0.92883784,0.99983305,7.0253416e-05,-8.834456e-05,0.018276114,3
350700673,0.0005151271,0.0006717131,-0.0048689623,-0.37052163,-0.003340274,-0.001196955,-0.9288171,0.99983305,7.0253416e-05,-8.834456e-05,0.018276114,3
350732675,-0.001751286,-0.0011899055,-0.0038336457,-0.37056884,-0.003338709,-0.0011999262,-0.9287983,0.99983305,7.0253416e-05,-8.834456e-05,0.018276114,3
350764669,0.0009057394,-0.002138632,-0.003288591,-0.37059608,-0.0033411046,-0.001195046,-0.9287874,0.99983305,7.0253416e-05,-8.834456e-05,0.018276114,3
350796668,-0.0009972756,-0.001305831,-0.0044850535,-0.37063864,-0.0033485633,-0.0011927716,-0.9287704,0.99983305,7.0253416e-05,-8.834456e-05,0.018276114,3
350828680,0.00048714422,0.0010409175,-0.0037451244,-0.37068063,-0.003356102,-0.001186768,-0.9287537,0.99983305,7.0253416e-05,-8.834456e-05,0.018276114,3
350856696,-0.0026007076,0.00073018204,-0.003755407,-0.37070674,-0.0033589243,-0.0011882447,-0.92874324,0.99983305,7.0253416e-05,-8.834456e-05,0.018276114,3
350888669,6.826338e-05,0.0015675011,-0.0048143426,-0.3707522,-0.0033618554,-0.0011893709,-0.928725,0.99983305,7.0253416e-05,-8.834456e-05,0.018276114,3
350920675,0.00017134938,0.0008178187,-0.004387919,-0.37080127,-0.0033523052,-0.0011903077,-0.9287055,0.99983305,7.0253416e-05,-8.834456e-05,0.018276114,3
350952669,-4.2528147e-05,-0.0003599046,-0.005113192,-0.37084085,-0.003353509,-0.0011883772,-0.9286896,0.99983305,7.0253416e-05,-8.834456e-05,0.018276114,3
350984713,-3.4047407e-05,0.0020919659,-0.0039706593,-0.37088892,-0.0033530667,-0.0011966641,-0.92867047,0.99983305,7.0253416e-05,-8.834456e-05,0.018276114,3
351016669,0.00028246024,0.0010350287,-0.004808276,-0.37094235,-0.0033588735,-0.0012021067,-0.9286491,0.99983305,7.0253416e-05,-8.834456e-05,0.018276114,3
351047069,-0.0019524632,-0.0005606149,-0.004489555,-0.3709785,-0.0033510705,-0.0011993065,-0.92863464,0.99983305,7.0253416e-05,-8.834456e-05,0.018276114,3
351080708,0.0006051479,-0.0014962561,-0.005373335,-0.37103197,-0.003358105,-0.0012036014,-0.9286133,0.99983305,7.0253416e-05,-8.834456e-05,0.018276114,3
351108669,0.00059796113,-0.0013013328,-0.003515792,-0.37106916,-0.0033640852,-0.0011994531,-0.92859846,0.99983305,7.0253416e-05,-8.834456e-05,0.018276114,3
351143886,0.0020539255,0.0019755873,-0.0025946067,-0.37110978,-0.0033650743,-0.0012000381,-0.92858213,0.99983305,7.0253416e-05,-8.834456e-05,0.018276114,3
351171900,0.0018811632,-0.0014115877,-0.005213098,-0.37115225,-0.0033782588,-0.0012127325,-0.9285651,0.99983305,7.0253416e-05,-8.834456e-05,0.018276114,3
351203868,-0.0030240426,0.0011440422,-0.003851059,-0.37119365,-0.0033719079,-0.0012255999,-0.9285486,0.99983305,7.0253416e-05,-8.834456e-05,0.018276114,3
351235869,-0.0015194446,0.00092588563,-0.0048137796,-0.37123072,-0.0033718902,-0.00123828,-0.9285338,0.99983305,7.0253416e-05,-8.834456e-05,0.018276114,3
351267875,0.0002807161,-0.001938028,-0.003506737,-0.3712705,-0.003376673,-0.0012221278,-0.9285178,0.99983305,7.0253416e-05,-8.834456e-05,0.018276114,3
351299869,0.00016936765,0.00019683118,-0.004580464,-0.37129915,-0.0033834684,-0.0012225424,-0.92850643,0.99983305,7.0253416e-05,-8.834456e-05,0.018276114,3
351331869,-0.0009920413,0.0027525015,-0.003553964,-0.3713417,-0.0033811235,-0.0012325656,-0.9284893,0.99983305,7.0253416e-05,-8.834456e-05,0.018276114,3
351363875,0.00040083798,0.00092373625,-0.0058586933,-0.37138644,-0.0033785861,-0.0012359994,-0.9284715,0.99983305,7.0253416e-05,-8.834456e-05,0.018276114,3
351395880,-0.00067073596,-0.0011932389,-0.0039396016,-0.37141508,-0.0033718122,-0.0012484576,-0.92846,0.99983305,7.0253416e-05,-8.834456e-05,0.018276114,3
351423894,-0.001518708,0.0006162574,-0.0051189605,-0.37144762,-0.003372392,-0.0012464011,-0.92844707,0.99983305,7.0253416e-05,-8.834456e-05,0.018276114,3
351455875,-0.00035069475,-1.883047e-05,-0.0027754786,-0.37147722,-0.0033692524,-0.0012446125,-0.92843515,0.99983305,7.0253416e-05,-8.834456e-05,0.018276114,3
351487869,0.0012425678,-0.00012234953,-0.0025631636,-0.3714995,-0.0033776644,-0.0012518034,-0.92842627,0.99983305,7.0253416e-05,-8.834456e-05,0.018276114,3
351519869,-0.0013080534,0.0010297968,-0.003942638,-0.371557,-0.0033794704,-0.001249593,-0.92840326,0.99983305,7.0253416e-05,-8.834456e-05,0.018276114,3
351551869,-0.00014185964,0.00029063338,-0.003308012,-0.37159577,-0.003377264,-0.0012432749,-0.92838776,0.99983305,7.0253416e-05,-8.834456e-05,0.018276114,3
351583882,-0.0016237947,6.836525e-05,-0.0053367587,-0.37164032,-0.00337693,-0.0012483154,-0.9283699,0.99983305,7.0253416e-05,-8.834456e-05,0.018276114,3
351615869,7.988454e-05,0.0010406295,-0.0036223636,-0.37169766,-0.0033863806,-0.0012392438,-0.9283468,0.99983305,7.0253416e-05,-8.834456e-05,0.018276114,3
351647887,-0.0025772452,-0.0019745675,-0.0044629104,-0.37174025,-0.0033854728,-0.0012405231,-0.9283299,0.99983305,7.0253416e-05,-8.834456e-05,0.018276114,3
351675887,0.00019745808,-0.0006854887,-0.0052137305,-0.37178177,-0.003385572,-0.0012298336,-0.9283132,0.99983305,7.0253416e-05,-8.834456e-05,0.018276114,3
351707868,-0.0007763109,0.000716082,-0.003937524,-0.371835,-0.003374737,-0.0012314225,-0.928292,0.99983305,7.0253416e-05,-8.834456e-05,0.018276114,3
351739869,-0.00023553765,-0.0006634566,-0.0038243793,-0.37188774,-0.0033777887,-0.001228122,-0.92827076,0.99983305,7.0253416e-05,-8.834456e-05,0.018276114,3
351771918,-0.0006669054,-0.0009810601,-0.0041355263,-0.3719214,-0.0033862006,-0.0012349866,-0.92825735,0.99983305,7.0253416e-05,-8.834456e-05,0.018276114,3
351803868,-0.0020562722,0.0017879324,-0.003204842,-0.37196478,-0.0033775002,-0.0012296129,-0.9282399,0.99983305,7.0253416e-05,-8.834456e-05,0.018276114,3
351835869,0.0010301555,0.00019077308,-0.0036095008,-0.37200913,-0.0033738464,-0.0012304172,-0.9282222,0.99983305,7.0253416e-05,-8.834456e-05,0.018276114,3
351867088,0.00017704966,-0.001194851,-0.0032823794,-0.37205455,-0.003380123,-0.0012341015,-0.92820394,0.99983305,7.0253416e-05,-8.834456e-05,0.018276114,3
351899090,0.0025181067,0.0014735318,-0.0036057762,-0.37209615,-0.003385844,-0.0012560872,-0.92818713,0.99983305,7.0253416e-05,-8.834456e-05,0.018276114,3
351931093,-0.00067027006,-2.1935673e-05,-0.0031962162,-0.37214118,-0.003369244,-0.0012567057,-0.9281692,0.99983305,7.0253416e-05,-8.834456e-05,0.018276114,3
351959069,7.333455e-05,0.0007224212,-0.0032965268,-0.3721804,-0.0033698347,-0.0012558898,-0.92815346,0.99983305,7.0253416e-05,-8.834456e-05,0.018276114,3
351991093,0.0016701072,-0.0008644791,-0.0030558812,-0.37223303,-0.0033663667,-0.001259016,-0.92813236,0.99983305,7.0253416e-05,-8.834456e-05,0.018276114,3
352023068,-0.0013308947,-0.0008318882,-0.0051859687,-0.3722859,-0.003368126,-0.0012495255,-0.92811114,0.99983305,7.0253416e-05,-8.834456e-05,0.018276114,3
352055081,-0.0019347153,0.0011526484,-0.00278452,-0.37234232,-0.0033596996,-0.0012405745,-0.92808855,0.99983305,7.0253416e-05,-8.834456e-05,0.018276114,3
352087069,0.0018933741,-0.0008808776,-0.0046635964,-0.37238896,-0.0033588435,-0.0012346371,-0.92806983,0.99983305,7.0253416e-05,-8.834456e-05,0.018276114,3
352119082,7.84219e-05,0.001254038,-0.0041451287,-0.3724338,-0.0033646445,-0.0012497623,-0.9280519,0.99983305,7.0253416e-05,-8.834456e-05,0.018276114,3
352151069,-0.00045665493,7.63752e-05,-0.00466426,-0.37249398,-0.003360753,-0.0012583417,-0.9280277,0.99983305,7.0253416e-05,-8.834456e-05,0.018276114,3
352183086,-0.0022493345,0.00049787725,-0.0047944086,-0.37253657,-0.003365868,-0.0012420564,-0.9280106,0.99983305,7.0253416e-05,-8.834456e-05,0.018276114,3
352211075,-0.00065687834,-2.500799e-05,-0.0038188049,-0.37257406,-0.0033796057,-0.0012450345,-0.92799544,0.99983305,7.0253416e-05,-8.834456e-05,0.018276114,3
352243101,0.00018003385,-0.00023321481,-0.0027562538,-0.37262702,-0.0033764786,-0.0012322017,-0.9279743,0.99983305,7.0253416e-05,-8.834456e-05,0.018276114,3
352275070,0.002314902,-0.00066211855,-0.003483158,-0.3726743,-0.0033772197,-0.001236962,-0.9279553,0.99983305,7.0253416e-05,-8.834456e-05,0.018276114,3
352307075,0.00019923167,7.3999225e-05,-0.0056223646,-0.37271833,-0.003379753,-0.001248463,-0.92793757,0.99983305,7.0253416e-05,-8.834456e-05,0.018276114,3
352339069,-0.0007721253,0.0015683637,-0.0026357844,-0.37273672,-0.0033735412,-0.0012359574,-0.92793024,0.99983305,7.0253416e-05,-8.834456e-05,0.018276114,3
352371113,0.0010494015,-0.0012219388,-0.005080498,-0.37276444,-0.0033786984,-0.0012217499,-0.9279191,0.99983305,7.0253416e-05,-8.834456e-05,0.018276114,3
352403075,-0.0010842265,0.00017898605,-0.0050915116,-0.37279114,-0.0033813736,-0.0012400135,-0.9279083,0.99983305,7.0253416e-05,-8.834456e-05,0.018276114,3
352435086,0.00051949616,-0.0018536837,-0.004755081,-0.37282723,-0.0033817436,-0.001244173,-0.9278939,0.99983305,7.0253416e-05,-8.834456e-05,0.018276114,3
352467075,-0.00043816504,-0.0008840859,-0.0041257595,-0.37287077,-0.0033927327,-0.0012537604,-0.92787623,0.99983305,7.0253416e-05,-8.834456e-05,0.018276114,3
352499070,-0.00065861037,0.00092810404,-0.004454767,-0.3728987,-0.0033989633,-0.0012522982,-0.927865,0.99983305,7.0253416e-05,-8.834456e-05,0.018276114,3
352531069,-0.0010967487,-0.00075930334,-0.0016801443,-0.37292856,-0.0034000028,-0.0012453613,-0.9278531,0.99983305,7.0253416e-05,-8.834456e-05,0.018276114,3
352563069,-0.0007763802,-0.00023680204,-0.0032740883,-0.37297514,-0.0033964214,-0.0012646419,-0.92783433,0.99983305,7.0253416e-05,-8.834456e-05,0.018276114,3
352595094,0.00062086945,0.0006110801,-0.0047667194,-0.37303045,-0.0033955686,-0.0012690232,-0.9278121,0.99983305,7.0253416e-05,-8.834456e-05,0.018276114,3
352627069,0.0012712866,0.0009268919,-0.0053027277,-0.3730819,-0.003391493,-0.0012722411,-0.9277914,0.99983305,7.0253416e-05,-8.834456e-05,0.018276114,3
352658269,0.0010526469,-0.0010834489,-0.0025840504,-0.3731183,-0.0034043381,-0.0012842778,-0.9277767,0.99983305,7.0253416e-05,-8.834456e-05,0.018276114,3
352689499,-0.00045193883,-0.00012985908,-0.0026753084,-0.37316138,-0.0033970808,-0.0012871071,-0.9277594,0.99983305,7.0253416e-05,-8.834456e-05,0.018276114,3
352722269,-0.00044761517,8.2493934e-05,-0.0034885688,-0.3731978,-0.0033921984,-0.0012861561,-0.9277448,0.99983305,7.0253416e-05,-8.834456e-05,0.018276114,3
352750269,-0.0009794828,0.00061138615,-0.003493945,-0.3732312,-0.003395181,-0.0012733965,-0.92773134,0.99983305,7.0253416e-05,-8.834456e-05,0.018276114,3
352782268,0.0024308092,-0.0015227958,-0.004423308,-0.3732789,-0.0033921064,-0.0012754798,-0.9277122,0.99983305,7.0253416e-05,-8.834456e-05,0.018276114,3
352814302,0.002317272,0.0012486326,-0.00486581,-0.37334102,-0.003388387,-0.0012946555,-0.92768717,0.99983305,7.0253416e-05,-8.834456e-05,0.018276114,3
352846269,0.00093795004,-0.0009950417,-0.005375446,-0.37341326,-0.0033810763,-0.0012954387,-0.9276581,0.99983305,7.0253416e-05,-8.834456e-05,0.018276114,3
352878268,-0.0015055061,0.0006049812,-0.0059285024,-0.37346712,-0.0033642442,-0.0012919876,-0.9276365,0.99983305,7.0253416e-05,-8.834456e-05,0.018276114,3
352910274,-0.00012807408,-0.001306189,-0.004206486,-0.3735124,-0.0033756841,-0.0012818911,-0.92761815,0.99983305,7.0253416e-05,-8.834456e-05,0.018276114,3
352942317,0.00041723484,0.00017567078,-0.0050574606,-0.37356007,-0.0033813044,-0.0012851574,-0.92759895,0.99983305,7.0253416e-05,-8.834456e-05,0.018276114,3
352974284,-0.0013016807,-0.0025819098,-0.0038826542,-0.37361777,-0.0033913786,-0.0012852425,-0.92757565,0.99983305,7.0253416e-05,-8.834456e-05,0.018276114,3
353006287,-0.00044796418,-0.00045496027,-0.003998317,-0.373663,-0.0034056723,-0.0012765626,-0.92755747,0.99983305,7.0253416e-05,-8.834456e-05,0.018276114,3
353038270,0.0022260854,0.00094856124,-0.0023925193,-0.37370834,-0.0034206442,-0.0012878594,-0.9275391,0.99983305,7.0253416e-05,-8.834456e-05,0.018276114,3
353070277,-0.0016217151,0.001893259,-0.003056112,-0.37374094,-0.0034164384,-0.0012840289,-0.92752606,0.99983305,7.0253416e-05,-8.834456e-05,0.018276114,3
353102282,-0.00034448085,-0.0013017952,-0.0030321814,-0.37377372,-0.0034211194,-0.0012781968,-0.92751276,0.99983305,7.0253416e-05,-8.834456e-05,0.018276114,3
353134269,-0.0005565301,-0.0007684962,-0.003994169,-0.373801,-0.0034277267,-0.0012746444,-0.9275018,0.99983305,7.0253416e-05,-8.834456e-05,0.018276114,3
353166269,0.0001901493,-0.00077014335,-0.0033500693,-0.37383175,-0.0034174302,-0.0012807252,-0.9274894,0.99983305,7.0253416e-05,-8.834456e-05,0.018276114,3
353198300,-0.00024681562,-0.0008789932,-0.0021749255,-0.3738608,-0.0034288357,-0.0012705179,-0.92747766,0.99983305,7.0253416e-05,-8.834456e-05,0.018276114,3
353226269,0.00039991247,0.001046374,-0.0019775233,-0.37389335,-0.0034319228,-0.0012786657,-0.9274645,0.99983305,7.0253416e-05,-8.834456e-05,0.018276114,3
353258296,0.00061958213,8.214405e-05,-0.0037749466,-0.37392822,-0.0034375556,-0.0012856014,-0.9274505,0.99983305,7.0253416e-05,-8.834456e-05,0.018276114,3
353290269,0.0014733755,-0.00045858906,-0.0039818864,-0.3739665,-0.003445199,-0.0013002296,-0.9274349,0.99983305,7.0253416e-05,-8.834456e-05,0.018276114,3
353322269,-0.0007557651,7.433345e-05,-0.004942444,-0.3739969,-0.0034445808,-0.0012888197,-0.92742276,0.99983305,7.0253416e-05,-8.834456e-05,0.018276114,3
353354269,-0.00066479354,-0.0009835751,-0.0035607757,-0.37403068,-0.0034452253,-0.0012994177,-0.92740905,0.99983305,7.0253416e-05,-8.834456e-05,0.018276114,3
353386290,0.0012681703,0.00017923675,-0.005148073,-0.3740628,-0.0034421615,-0.0013117293,-0.9273961,0.99983305,7.0253416e-05,-8.834456e-05,0.018276114,3
353417521,-0.00026482367,-0.00064531853,-0.0048657157,-0.3740941,-0.0034452598,-0.0013123273,-0.9273835,0.99983305,7.0253416e-05,-8.834456e-05,0.018276114,3
353449508,0.00029037416,-0.00076224795,-0.0035358192,-0.3741282,-0.003445155,-0.0013074727,-0.92736965,0.99983305,7.0253416e-05,-8.834456e-05,0.018276114,3
353481480,-0.00032832497,-0.000576964,-0.0061066533,-0.3741435,-0.0034491771,-0.0013052272,-0.9273636,0.99983305,7.0253416e-05,-8.834456e-05,0.018276114,3
353509510,0.0007336172,0.0004990731,-0.0050453553,-0.37417427,-0.003441206,-0.0013096149,-0.9273511,0.99983305,7.0253416e-05,-8.834456e-05,0.018276114,3
353541512,-0.0025616216,0.0006295598,-0.0027246699,-0.37420362,-0.0034531027,-0.0012979564,-0.9273393,0.99983305,7.0253416e-05,-8.834456e-05,0.018276114,3
353573469,0.0010752154,0.0007388048,-0.003441283,-0.37423086,-0.0034496326,-0.0012924918,-0.92732835,0.99983305,7.0253416e-05,-8.834456e-05,0.018276114,3
353605475,-0.0004480764,-0.0010929997,-0.0034266424,-0.3742525,-0.003447925,-0.0012867148,-0.9273195,0.99983305,7.0253416e-05,-8.834456e-05,0.018276114,3
353637471,0.0004086604,-3.555807e-05,-0.0050189216,-0.37428296,-0.003454582,-0.0012864831,-0.9273073,0.99983305,7.0253416e-05,-8.834456e-05,0.018276114,3
353669501,0.00072343415,0.0023075575,-0.004494692,-0.3743184,-0.00344548,-0.0013015136,-0.927293,0.99983305,7.0253416e-05,-8.834456e-05,0.018276114,3
353701492,-0.00022900791,-0.00013362948,-0.0046939077,-0.37433794,-0.003440322,-0.0013082819,-0.9272851,0.99983305,7.0253416e-05,-8.834456e-05,0.018276114,3
353733469,-0.00043910276,-0.0013175544,-0.0047028973,-0.37436426,-0.0034495457,-0.001304103,-0.9272744,0.99983305,7.0253416e-05,-8.834456e-05,0.018276114,3
353765473,-0.001291645,-0.002370289,-0.0031975082,-0.37438852,-0.003441482,-0.0012998559,-0.92726463,0.99983305,7.0253416e-05,-8.834456e-05,0.018276114,3
353793475,0.00030456297,-0.0021606525,-0.004581912,-0.3744218,-0.003432267,-0.0012829857,-0.92725134,0.99983305,7.0253416e-05,-8.834456e-05,0.018276114,3
353825469,-1.7512473e-05,0.0003887469,-0.004169214,-0.37445518,-0.0034338583,-0.0012721831,-0.92723787,0.99983305,7.0253416e-05,-8.834456e-05,0.018276114,3
353857486,-0.0007544388,-0.0018443336,-0.0053262613,-0.3744942,-0.0034233243,-0.0012644663,-0.9272221,0.99983305,7.0253416e-05,-8.834456e-05,0.018276114,3
353889500,-0.0011829229,0.00050612015,-0.0036491125,-0.3745352,-0.0034301472,-0.0012563695,-0.9272055,0.99983305,7.0253416e-05,-8.834456e-05,0.018276114,3
353921487,-0.00044207333,-0.0024701757,-0.0033019916,-0.37456846,-0.0034322874,-0.0012634909,-0.92719203,0.99983305,7.0253416e-05,-8.834456e-05,0.018276114,3
353953507,-0.0008516825,-0.0006777796,-0.0050044428,-0.3746028,-0.0034382439,-0.001265912,-0.92717814,0.99983305,7.0253416e-05,-8.834456e-05,0.018276114,3
353985471,-1.1808821e-05,0.0018883124,-0.0039588907,-0.37464795,-0.003441429,-0.0012768854,-0.92715997,0.99983305,7.0253416e-05,-8.834456e-05,0.018276114,3
354017489,-0.0014996559,0.00019029138,-0.004279905,-0.37470055,-0.003451282,-0.0012692397,-0.92713857,0.99983305,7.0253416e-05,-8.834456e-05,0.018276114,3
354045469,-1.2107776e-05,-0.00098221,-0.0032052342,-0.37473306,-0.0034536503,-0.001274442,-0.92712545,0.99983305,7.0253416e-05,-8.834456e-05,0.018276114,3
354077469,-0.0007678722,0.00019805986,-0.0015084029,-0.3747837,-0.0034473334,-0.0012814128,-0.92710495,0.99983305,7.0253416e-05,-8.834456e-05,0.018276114,3
354109469,-0.00011118082,-0.00096780807,-0.003426612,-0.37480745,-0.0034469874,-0.0012847893,-0.9270955,0.99983305,7.0253416e-05,-8.834456e-05,0.018276114,3
354141494,0.00084264425,0.00050556846,-0.003839971,-0.37484607,-0.0034440034,-0.0012877509,-0.9270798,0.99983305,7.0253416e-05,-8.834456e-05,0.018276114,3
354173477,0.0021225086,0.00018468936,-0.0042596883,-0.3748764,-0.0034518642,-0.0013029163,-0.9270675,0.99983305,7.0253416e-05,-8.834456e-05,0.018276114,3
354204669,0.0013816503,-3.2502692e-05,-0.005009194,-0.3749231,-0.0034444975,-0.0012995369,-0.9270487,0.99983305,7.0253416e-05,-8.834456e-05,0.018276114,3
354236668,-0.00096599536,0.00029521785,-0.003952798,-0.3749567,-0.0034437105,-0.0013037596,-0.9270351,0.99983305,7.0253416e-05,-8.834456e-05,0.018276114,3
354267897,-0.00017214811,0.0013032105,-0.0032898635,-0.37497577,-0.0034363843,-0.0013107317,-0.92702734,0.99983305,7.0253416e-05,-8.834456e-05,0.018276114,3
354300669,-0.0009585256,0.0006060783,-0.0046976833,-0.3750165,-0.0034303912,-0.0013046383,-0.92701083,0.99983305,7.0253416e-05,-8.834456e-05,0.018276114,3
354328678,-0.0014939137,0.0013567205,-0.0043840813,-0.37504146,-0.0034210703,-0.0013084296,-0.92700076,0.99983305,7.0253416e-05,-8.834456e-05,0.018276114,3
354360669,-1.1931756e-05,9.248179e-05,-0.0024553956,-0.3750778,-0.0034163566,-0.0013191294,-0.9269862,0.99983305,7.0253416e-05,-8.834456e-05,0.018276114,3
354392668,-0.0006411942,-0.00067351054,-0.004155653,-0.37513036,-0.0034193732,-0.0013122403,-0.9269649,0.99983305,7.0253416e-05,-8.834456e-05,0.018276114,3
354424669,-0.0030931272,0.00019292856,-0.0020360404,-0.3751776,-0.0034289605,-0.0013099492,-0.92694575,0.99983305,7.0253416e-05,-8.834456e-05,0.018276114,3
354456708,-0.0021341513,-0.00033786206,-0.0034179604,-0.37520182,-0.0034279937,-0.0013011794,-0.9269359,0.99983305,7.0253416e-05,-8.834456e-05,0.018276114,3
354488675,0.00063949684,-0.0013070564,-0.0045719636,-0.375214,-0.0034259108,-0.0013105706,-0.926931,0.99983305,7.0253416e-05,-8.834456e-05,0.018276114,3
354520709,0.0012846445,0.00070583343,-0.0061728563,-0.37524208,-0.003433367,-0.0013185326,-0.9269195,0.99983305,7.0253416e-05,-8.834456e-05,0.018276114,3
354552669,-0.0007382741,-0.000878542,-0.003524973,-0.37525594,-0.0034477606,-0.0013206354,-0.926914,0.99983305,7.0253416e-05,-8.834456e-05,0.018276114,3
354584695,-0.002026276,-0.0011898322,-0.0030770844,-0.375274,-0.0034473897,-0.0013013139,-0.92690665,0.99983305,7.0253416e-05,-8.834456e-05,0.018276114,3
354616675,-0.0010687768,0.00040878684,-0.0024515186,-0.3753006,-0.003446288,-0.001305353,-0.9268959,0.99983305,7.0253416e-05,-8.834456e-05,0.018276114,3
354648675,-0.00064528314,-0.0010849694,-0.003181758,-0.37532556,-0.0034464628,-0.0013009504,-0.92688584,0.99983305,7.0253416e-05,-8.834456e-05,0.018276114,3
354680669,-0.0013846763,0.0015775114,-0.0036286432,-0.3753545,-0.0034428008,-0.0013027119,-0.926874,0.99983305,7.0253416e-05,-8.834456e-05,0.018276114,3
354712702,0.00063638994,0.0021089497,-0.002984134,-0.37536386,-0.00343382,-0.0013063162,-0.92687035,0.99983305,7.0253416e-05,-8.834456e-05,0.018276114,3
354744698,0.0013835063,0.00018290774,-0.003914127,-0.37538934,-0.0034261898,-0.0013129461,-0.9268599,0.99983305,7.0253416e-05,-8.834456e-05,0.018276114,3
354776669,0.001389475,-0.00034310616,-0.0034846321,-0.37540185,-0.0034130889,-0.0013334727,-0.9268549,0.99983305,7.0253416e-05,-8.834456e-05,0.018276114,3
354804676,0.00021985685,0.00039667066,-0.004874201,-0.37542036,-0.003410046,-0.0013337217,-0.92684746,0.99983305,7.0253416e-05,-8.834456e-05,0.018276114,3
354836669,0.0009699502,8.294033e-05,-0.0047669495,-0.37543544,-0.0034119023,-0.0013412489,-0.9268413,0.99983305,7.0253416e-05,-8.834456e-05,0.018276114,3
354868674,-0.0004231506,-0.0004505593,-0.0037041532,-0.37545964,-0.003411575,-0.0013495552,-0.92683154,0.99983305,7.0253416e-05,-8.834456e-05,0.018276114,3
354900674,-0.0010555399,0.00018267566,-0.0049832133,-0.375486,-0.0034168977,-0.0013440966,-0.9268209,0.99983305,7.0253416e-05,-8.834456e-05,0.018276114,3
354932675,-0.0010587277,0.00018757675,-0.003919938,-0.37551633,-0.0034191606,-0.0013567249,-0.9268085,0.99983305,7.0253416e-05,-8.834456e-05,0.018276114,3
354964704,0.00041884452,0.00040192163,-0.0020961892,-0.37553862,-0.0034098765,-0.001352353,-0.9267996,0.99983305,7.0253416e-05,-8.834456e-05,0.018276114,3
354996669,0.0016361782,-0.00072245294,-0.0038804559,-0.37555757,-0.0034184938,-0.0013591144,-0.92679185,0.99983305,7.0253416e-05,-8.834456e-05,0.018276114,3
355027869,0.0012876875,0.0017809696,-0.004869598,-0.37558535,-0.0034041787,-0.0013659733,-0.9267805,0.99983305,7.0253416e-05,-8.834456e-05,0.018276114,3
355059102,-0.0005674319,0.0003705935,-0.0037792288,-0.37561747,-0.003407516,-0.0013726233,-0.9267676,0.99983305,7.0253416e-05,-8.834456e-05,0.018276114,3
355089530,-0.001931724,-0.00035441417,-0.0043231156,-0.3756468,-0.0033974058,-0.0013677203,-0.9267557,0.99983305,7.0253416e-05,-8.834456e-05,0.018276114,3
355121476,0.0007534976,-2.7249858e-05,-0.0040061167,-0.37566206,-0.0033882908,-0.0013553092,-0.9267495,0.99983305,7.0253416e-05,-8.834456e-05,0.018276114,3
355151875,0.00054837775,0.00114638,-0.00540503,-0.37568504,-0.0033903704,-0.001372053,-0.9267403,0.99983305,7.0253416e-05,-8.834456e-05,0.018276114,3
355183918,-7.714331e-05,0.00050868804,-0.004440639,-0.37572214,-0.003377655,-0.0013884366,-0.9267252,0.99983305,7.0253416e-05,-8.834456e-05,0.018276114,3
355215869,0.0011816388,-0.0015132023,-0.0038878268,-0.37575835,-0.0033939825,-0.0013852104,-0.9267104,0.99983305,7.0253416e-05,-8.834456e-05,0.018276114,3
355247869,0.00021948677,-0.0017427274,-0.005377347,-0.37579766,-0.003390676,-0.0013867486,-0.9266945,0.99983305,7.0253416e-05,-8.834456e-05,0.018276114,3
355279875,0.000937094,-2.404768e-05,-0.004095789,-0.37584665,-0.003391954,-0.0013932578,-0.92667466,0.99983305,7.0253416e-05,-8.834456e-05,0.018276114,3
355311868,7.726718e-06,-0.0005514917,-0.0033626675,-0.37588918,-0.0033847934,-0.001411631,-0.9266574,0.99983305,7.0253416e-05,-8.834456e-05,0.018276114,3
355343888,-0.0016814148,-0.00077799434,-0.005608175,-0.37593615,-0.0033862235,-0.0014035294,-0.9266383,0.99983305,7.0253416e-05,-8.834456e-05,0.018276114,3
355371877,0.002238032,-0.0011807058,-0.0022866307,-0.37595817,-0.0033861403,-0.0014057113,-0.9266294,0.99983305,7.0253416e-05,-8.834456e-05,0.018276114,3
355403869,-0.00041968678,0.00019594425,-0.0028374875,-0.3760027,-0.0033868148,-0.0014032882,-0.92661136,0.99983305,7.0253416e-05,-8.834456e-05,0.018276114,3
355435869,1.0461081e-06,-0.00043434912,-0.0020871789,-0.37604252,-0.0033845021,-0.0013906404,-0.9265953,0.99983305,7.0253416e-05,-8.834456e-05,0.018276114,3
355467875,-0.0015793634,-3.4516794e-05,-0.0047623618,-0.37608442,-0.00337766,-0.0013741757,-0.9265783,0.99983305,7.0253416e-05,-8.834456e-05,0.018276114,3
355499916,0.0001169818,-0.0007514657,-0.004326392,-0.37612715,-0.0033740522,-0.0013703097,-0.92656094,0.99983305,7.0253416e-05,-8.834456e-05,0.018276114,3
355531869,-0.00061629503,-0.001174179,-0.0028396565,-0.37617055,-0.0033738916,-0.0013681509,-0.9265434,0.99983305,7.0253416e-05,-8.834456e-05,0.018276114,3
355563869,0.001824359,0.00028399783,-0.0050675445,-0.3762275,-0.0033794953,-0.001389601,-0.9265202,0.99983305,7.0253416e-05,-8.834456e-05,0.018276114,3
355595882,-0.0009449901,-0.00012780691,-0.004115405,-0.37628078,-0.0033682757,-0.0013859662,-0.9264986,0.99983305,7.0253416e-05,-8.834456e-05,0.018276114,3
355623882,0.00096015836,0.0009519319,-0.0017727916,-0.376322,-0.0033600244,-0.0013889815,-0.9264818,0.99983305,7.0253416e-05,-8.834456e-05,0.018276114,3
355655869,-0.00030940853,0.00019124048,-0.0038976595,-0.3763783,-0.003362251,-0.0013929034,-0.9264589,0.99983305,7.0253416e-05,-8.834456e-05,0.018276114,3
355687875,-9.128859e-05,0.00040528429,-0.0038985338,-0.3764329,-0.003366599,-0.0013974571,-0.9264367,0.99983305,7.0253416e-05,-8.834456e-05,0.018276114,3
355719868,-9.081012e-05,0.002001652,-0.004012998,-0.3764759,-0.0033612614,-0.0014098053,-0.9264193,0.99983305,7.0253416e-05,-8.834456e-05,0.018276114,3
355751869,-0.0011598102,0.00020721197,-0.0016711289,-0.3765268,-0.003361609,-0.0014158059,-0.9263986,0.99983305,7.0253416e-05,-8.834456e-05,0.018276114,3
355783869,2.1716114e-06,0.00017885712,-0.0035865488,-0.37657154,-0.0033556293,-0.0014053256,-0.9263804,0.99983305,7.0253416e-05,-8.834456e-05,0.018276114,3
355815099,0.00086352613,-0.0003367893,-0.0030388841,-0.37659496,-0.003361109,-0.0014166319,-0.92637086,0.99983305,7.0253416e-05,-8.834456e-05,0.018276114,3
355847095,-0.00072747155,0.00041144522,-0.004113902,-0.3766372,-0.0033584018,-0.001418984,-0.92635363,0.99983305,7.0253416e-05,-8.834456e-05,0.018276114,3
355879086,0.0003313896,-0.00034381426,-0.0035618553,-0.37667236,-0.0033559664,-0.0014194443,-0.92633945,0.99983305,7.0253416e-05,-8.834456e-05,0.018276114,3
355910315,0.00025346095,-0.0002810426,-0.005060205,-0.37672308,-0.0033582845,-0.0014224718,-0.9263187,0.99983305,7.0253416e-05,-8.834456e-05,0.018276114,3
355939089,-0.00030410057,8.3155e-05,-0.0046360204,-0.3767592,-0.0033644652,-0.0014363937,-0.9263041,0.99983305,7.0253416e-05,-8.834456e-05,0.018276114,3
355971070,-0.0010434351,-0.0005539592,-0.004207847,-0.37680143,-0.0033778588,-0.0014332976,-0.9262868,0.99983305,7.0253416e-05,-8.834456e-05,0.018276114,3
356003079,0.0009940739,-0.00076145807,-0.0046230946,-0.3768516,-0.0033859315,-0.0014395885,-0.9262663,0.99983305,7.0253416e-05,-8.834456e-05,0.018276114,3
356035070,0.00065452396,-0.0038341046,-0.002790803,-0.3768748,-0.0033859806,-0.0014448087,-0.9262569,0.99983305,7.0253416e-05,-8.834456e-05,0.018276114,3
356067068,-0.00061338337,0.0016673065,-0.004423984,-0.37690377,-0.0033838784,-0.0014593869,-0.9262451,0.99983305,7.0253416e-05,-8.834456e-05,0.018276114,3
356099112,0.0019443256,0.0011614886,-0.003659102,-0.3769364,-0.0033771931,-0.0014524478,-0.9262318,0.99983305,7.0253416e-05,-8.834456e-05,0.018276114,3
356131086,0.00023719773,0.0012516142,-0.0037707346,-0.37696788,-0.0033737242,-0.0014634345,-0.9262191,0.99983305,7.0253416e-05,-8.834456e-05,0.018276114,3
356159112,0.00096786977,-0.00055031374,-0.0026931984,-0.37700856,-0.003372815,-0.001463519,-0.9262025,0.99983305,7.0253416e-05,-8.834456e-05,0.018276114,3
356191069,0.0010933968,0.0022084364,-0.0052658357,-0.37703905,-0.0033792364,-0.0014649498,-0.9261901,0.99983305,7.0253416e-05,-8.834456e-05,0.018276114,3
356223069,0.0013970062,0.0005169779,-0.0032457944,-0.37706885,-0.0033858514,-0.0014774721,-0.92617786,0.99983305,7.0253416e-05,-8.834456e-05,0.018276114,3
356255094,0.0016122538,0.0013664889,-0.0033414683,-0.3770953,-0.003389401,-0.0014903527,-0.9261671,0.99983305,7.0253416e-05,-8.834456e-05,0.018276114,3
356287108,1.4721183e-05,0.00095004356,-0.0025969436,-0.377136,-0.0033853182,-0.0014978984,-0.9261505,0.99983305,7.0253416e-05,-8.834456e-05,0.018276114,3
356319083,0.0006556787,0.0016802198,-0.003553521,-0.37716755,-0.003380845,-0.0015048269,-0.9261376,0.99983305,7.0253416e-05,-8.834456e-05,0.018276114,3
356351076,0.0001307592,-0.00011697004,-0.0012096157,-0.37718156,-0.0033814784,-0.0015187862,-0.92613196,0.99983305,7.0253416e-05,-8.834456e-05,0.018276114,3
356383086,0.0003346519,-0.00065411173,-0.0024772468,-0.37719896,-0.003380429,-0.0015149565,-0.92612493,0.99983305,7.0253416e-05,-8.834456e-05,0.018276114,3
356415101,-9.234587e-05,0.0031746484,-0.0020647596,-0.37721393,-0.003371011,-0.0015318616,-0.9261188,0.99983305,7.0253416e-05,-8.834456e-05,0.018276114,3
356447069,-0.0023144754,0.00040544962,-0.0039715497,-0.37723833,-0.0033786742,-0.0015338601,-0.92610884,0.99983305,7.0253416e-05,-8.834456e-05,0.018276114,3
356479076,-0.0012684983,0.0006426577,-0.00024867873,-0.37724572,-0.0033804718,-0.0015458517,-0.92610574,0.99983305,7.0253416e-05,-8.834456e-05,0.018276114,3
356511069,0.0026219115,0.000587092,-0.011826772,-0.37729374,-0.0033888924,-0.0015540511,-0.9260861,0.99983305,7.0253416e-05,-8.834456e-05,0.018276114,3
356542269,0.0039532618,-0.0019487632,0.0022107083,-0.37733653,-0.003402809,-0.0015722308,-0.92606866,0.99983305,7.0253416e-05,-8.834456e-05,0.018276114,3
356575069,-0.0011899094,0.00031693777,0.009746053,-0.37718192,-0.0033995956,-0.0015744114,-0.92613167,0.99983305,7.0253416e-05,-8.834456e-05,0.018276114,3
356607069,-0.0023086118,-0.0030707698,0.0021122997,-0.37708935,-0.003394306,-0.0015797055,-0.9261694,0.99983305,7.0253416e-05,-8.834456e-05,0.018276114,3
356638278,-0.005483882,-0.0028531642,-0.015587301,-0.37722433,-0.0033821259,-0.0015714598,-0.9261145,0.99983305,7.0253416e-05,-8.834456e-05,0.018276114,3
356670296,-0.008968234,-0.0011237573,-0.012585962,-0.37744385,-0.0033890724,-0.0015698741,-0.926025,0.99983305,7.0253416e-05,-8.834456e-05,0.018276114,3
356702290,0.0025219298,-0.0040927213,-0.001645826,-0.3775341,-0.0034092963,-0.0015882322,-0.9259881,0.99983305,7.0253416e-05,-8.834456e-05,0.018276114,3
356734273,0.008234767,0.014069629,0.009389397,-0.3774511,-0.00339686,-0.0016034172,-0.92602193,0.99983305,7.0253416e-05,-8.834456e-05,0.018276114,3
356766278,-0.0049729533,-0.0026196816,-0.0027117752,-0.37734848,-0.0034019887,-0.0016087675,-0.9260638,0.99983305,7.0253416e-05,-8.834456e-05,0.018276114,3
356798281,0.004611159,0.0032782438,-0.0044838935,-0.37736887,-0.0033961688,-0.0016096864,-0.92605543,0.99983305,7.0253416e-05,-8.834456e-05,0.018276114,3
356830269,-0.00046002644,0.0036620563,-0.012276531,-0.3775202,-0.0033951863,-0.0016139321,-0.92599374,0.99983305,7.0253416e-05,-8.834456e-05,0.018276114,3
356862268,-0.00085304177,0.0009380285,0.0006990833,-0.37755486,-0.0033700464,-0.0015948362,-0.9259798,0.99983305,7.0253416e-05,-8.834456e-05,0.018276114,3
356894268,-0.013513466,0.008570336,0.010065133,-0.37740168,-0.0032268614,-0.0015255323,-0.92604274,0.99983305,7.0253416e-05,-8.834456e-05,0.018276114,3
356926305,0.003517,-0.0073712287,-0.0038097252,-0.37739122,-0.0032070104,-0.001524487,-0.9260472,0.99983305,7.0253416e-05,-8.834456e-05,0.018276114,3
356958268,-0.0024723092,-0.005194635,-0.023162724,-0.37771347,-0.0032227086,-0.0015387395,-0.9259156,0.99983305,7.0253416e-05,-8.834456e-05,0.018276114,3
356990269,-0.006891871,0.039550174,-0.0057946006,-0.3779163,-0.0032134242,-0.0015679027,-0.92583287,0.99983305,7.0253416e-05,-8.834456e-05,0.018276114,3
357022269,-0.004407365,0.0024659138,0.015293236,-0.37783465,-0.003234265,-0.0015725889,-0.9258662,0.99983305,7.0253416e-05,-8.834456e-05,0.018276114,3
357054315,0.026857667,0.018785577,0.0310269,-0.37769,-0.0031493157,-0.0014720731,-0.9259257,0.99983305,7.0253416e-05,-8.834456e-05,0.018276114,3
357086269,0.0041881786,0.03269626,-0.0043163733,-0.3776933,-0.0031729843,-0.0014779525,-0.9259242,0.99983305,7.0253416e-05,-8.834456e-05,0.018276114,3
357118291,-0.08872426,0.066738576,-0.024403945,-0.37774602,-0.0031464314,-0.0015183921,-0.9259027,0.99983305,7.0253416e-05,-8.834456e-05,0.018276114,3
357150269,-0.040032744,0.055996303,-0.0416063,-0.3778334,-0.0030705058,-0.001528555,-0.9258672,0.99983305,7.0253416e-05,-8.834456e-05,0.018276114,3
357182310,-0.080131344,-0.083444215,-0.02763847,-0.37781313,-0.0031684584,-0.0013527193,-0.92587554,0.99983305,7.0253416e-05,-8.834456e-05,0.018276114,3
357214268,0.06398957,0.01989859,-0.008824014,-0.377765,-0.0031624215,-0.0016132422,-0.9258948,0.99983305,7.0253416e-05,-8.834456e-05,0.018276114,3
357246269,0.040188894,-0.022444736,-0.003816865,-0.37775707,-0.003028317,-0.001531644,-0.9258986,0.99983305,7.0253416e-05,-8.834456e-05,0.018276114,3
357278269,0.11073837,0.070588514,-0.0030019265,-0.37777478,-0.003252146,-0.0018288732,-0.9258901,0.99983305,7.0253416e-05,-8.834456e-05,0.018276114,3
357310280,-0.0718146,0.016763784,-0.046615712,-0.3778608,-0.0031678258,-0.0013294261,-0.92585605,0.99983305,7.0253416e-05,-8.834456e-05,0.018276114,3
357342275,-0.044366818,0.10982833,-0.040527735,-0.37784538,-0.0030067407,-0.0017516915,-0.92586225,0.99983305,7.0253416e-05,-8.834456e-05,0.018276114,3
357373469,0.03456749,0.06920044,-0.014562785,-0.37782407,-0.0030658825,-0.0010682319,-0.9258718,0.99983305,7.0253416e-05,-8.834456e-05,0.018276114,3
357405469,-0.19773954,-0.10418795,0.006855038,-0.37785202,-0.0031461888,-0.00096222584,-0.9258602,0.99983305,7.0253416e-05,-8.834456e-05,0.018276114,3
357437501,-0.056072284,0.04416472,-0.049146727,-0.37785438,-0.0028043853,-0.0006985131,-0.9258606,0.99983305,7.0253416e-05,-8.834456e-05,0.018276114,3
357469469,-0.5125113,0.06798845,-0.10022493,-0.3779361,-0.0026552863,0.00019561032,-0.9258279,0.99983305,7.0253416e-05,-8.834456e-05,0.018276114,3
357501468,-0.2318816,0.30092072,-0.049769748,-0.3779485,-0.0026834141,0.00021782785,-0.9258228,0.99983305,7.0253416e-05,-8.834456e-05,0.018276114,3
357533469,-0.28058547,0.2497321,-0.003323534,-0.37795797,-0.002403879,0.0008049543,-0.92581934,0.99983305,7.0253416e-05,-8.834456e-05,0.018276114,3
357565489,-0.2761015,0.28609845,-0.102166325,-0.37811753,-0.0021180408,0.0015316819,-0.92575395,0.99983305,7.0253416e-05,-8.834456e-05,0.018276114,3
357597475,-0.3135197,0.2779551,0.015464231,-0.3779958,-0.0016765345,0.0019581565,-0.9258037,0.99983305,7.0253416e-05,-8.834456e-05,0.018276114,3
357629477,-0.19074291,-0.1223418,0.058470707,-0.37790543,-0.001912955,0.0016611674,-0.92584085,0.99983305,7.0253416e-05,-8.834456e-05,0.018276114,3
357657469,-0.013329444,-0.015815817,0.06342072,-0.37785378,-0.0022368876,0.0011957911,-0.9258618,0.99983305,7.0253416e-05,-8.834456e-05,0.018276114,3
357689505,0.11672486,-0.24935448,0.07640003,-0.37775698,-0.0020009652,0.0010069621,-0.92590207,0.99983305,7.0253416e-05,-8.834456e-05,0.018276114,3
357721469,0.09789719,0.25184524,-0.041227352,-0.37777087,-0.0011579704,0.00054384285,-0.9258982,0.99983305,7.0253416e-05,-8.834456e-05,0.018276114,3
357753469,-0.2079354,-0.3067191,-0.013430476,-0.37773183,-0.0021606726,0.00060569926,-0.9259123,0.99983305,7.0253416e-05,-8.834456e-05,0.018276114,3
357785501,0.10416933,0.3137013,0.072369866,-0.3773752,-0.0017374415,0.00044256193,-0.9260588,0.99983305,7.0253416e-05,-8.834456e-05,0.018276114,3
357817482,-0.5230624,-0.123162396,0.061997235,-0.3771533,-0.00039901724,0.0019458798,-0.9261487,0.99983305,7.0253416e-05,-8.834456e-05,0.018276114,3
357849468,0.18017642,0.016466882,0.00064604473,-0.37661493,-0.001194335,0.0022309083,-0.92636645,0.99983305,7.0253416e-05,-8.834456e-05,0.018276114,3
357881471,-0.47828034,0.052076235,-0.01935595,-0.3760186,-0.00078607665,0.0029639304,-0.9266071,0.99983305,7.0253416e-05,-8.834456e-05,0.018276114,3
357909519,-0.26210874,-0.115590036,0.052693646,-0.37544084,-0.00019113105,0.0037764336,-0.9268387,0.99983305,7.0253416e-05,-8.834456e-05,0.018276114,3
357941469,0.32209313,0.12871408,-0.0039785895,-0.37504846,-0.0001196448,0.003381045,-0.92699903,0.99983305,7.0253416e-05,-8.834456e-05,0.018276114,3
357973468,0.17813465,-0.001217956,-0.09584173,-0.3746523,-0.00073356106,0.0029265143,-0.9271605,0.99983305,7.0253416e-05,-8.834456e-05,0.018276114,3
358005475,-0.1259057,0.13043366,-0.06299151,-0.37455657,-3.4148125e-05,0.0022464024,-0.92720133,0.99983305,7.0253416e-05,-8.834456e-05,0.018276114,3
358037469,0.22735639,-0.33127078,0.10156244,-0.37437868,-0.0016320576,0.0021531417,-0.92727196,0.99983305,7.0253416e-05,-8.834456e-05,0.018276114,3
358069484,-0.06006516,-0.054382104,0.06892096,-0.37455526,-0.001141227,0.0013401095,-0.92720294,0.99983305,7.0253416e-05,-8.834456e-05,0.018276114,3
358099911,0.2647814,-0.2431922,-0.057683945,-0.37458742,-0.0020904655,0.00031232327,-0.92718923,0.99983305,7.0253416e-05,-8.834456e-05,0.018276114,3
358132669,-0.27281836,0.25263062,-0.03700294,-0.3748005,-0.0007893021,0.0015117354,-0.927104,0.99983305,7.0253416e-05,-8.834456e-05,0.018276114,3
358164693,0.39649084,-0.06913057,0.041600756,-0.3745895,-0.0020429464,0.00051543245,-0.92718846,0.99983305,7.0253416e-05,-8.834456e-05,0.018276114,3
358191912,0.07322562,0.13679807,0.019281011,-0.37448385,-0.002654417,4.2315507e-05,-0.92722964,0.99983305,7.0253416e-05,-8.834456e-05,0.018276114,3
358224675,-0.14335145,-0.28278914,0.029817121,-0.37443724,-0.0028837202,0.00027538263,-0.92724776,0.99983305,7.0253416e-05,-8.834456e-05,0.018276114,3
358256668,0.070482865,0.30672377,-0.033517096,-0.37437195,-0.0022388184,9.202366e-05,-0.927276,0.99983305,7.0253416e-05,-8.834456e-05,0.018276114,3
358288669,-0.37669456,-0.15289204,-0.02322183,-0.3743087,-0.0027126533,0.0021048011,-0.92729783,0.99983305,7.0253416e-05,-8.834456e-05,0.018276114,3
358320669,0.19299336,0.0031540827,0.012363338,-0.37420952,-0.0031778673,0.0008053303,-0.92733836,0.99983305,7.0253416e-05,-8.834456e-05,0.018276114,3
358352702,-0.5565191,-0.15007077,0.034035366,-0.3740074,-0.0031184005,0.0028271896,-0.92741615,0.99983305,7.0253416e-05,-8.834456e-05,0.018276114,3
358384669,0.32752606,0.10976278,0.0716827,-0.37382254,-0.0023201727,0.0032945324,-0.9274915,0.99983305,7.0253416e-05,-8.834456e-05,0.018276114,3
358416688,-0.19316159,-0.36038578,0.05235376,-0.37395126,-0.00065162487,0.004329981,-0.927438,0.99983305,7.0253416e-05,-8.834456e-05,0.018276114,3
358444668,0.10123146,-0.08377912,0.0021956686,-0.37392184,-0.000638745,0.0045943214,-0.92744863,0.99983305,7.0253416e-05,-8.834456e-05,0.018276114,3
358476669,-0.21236992,0.072248966,-0.042238984,-0.37401858,-0.00026335276,0.0054963273,-0.92740494,0.99983305,7.0253416e-05,-8.834456e-05,0.018276114,3
358508669,0.18786126,0.20202954,0.09156332,-0.37397417,0.00028831683,0.0047167065,-0.92742705,0.99983305,7.0253416e-05,-8.834456e-05,0.018276114,3
358540675,-0.03482358,-0.2586706,0.20284098,-0.37402928,-0.00033368065,0.0046626553,-0.9274051,0.99983305,7.0253416e-05,-8.834456e-05,0.018276114,3
358572669,0.23109418,0.3172196,0.09708407,-0.37433583,-0.00042986416,0.004396336,-0.9272827,0.99983305,7.0253416e-05,-8.834456e-05,0.018276114,3
358604669,-0.04879763,-0.24811715,0.14374262,-0.37457862,-0.0002025258,0.004175032,-0.9271857,0.99983305,7.0253416e-05,-8.834456e-05,0.018276114,3
358636669,0.2409912,0.20711362,0.015298421,-0.37506476,-0.00077174196,0.003231201,-0.9269927,0.99983305,7.0253416e-05,-8.834456e-05,0.018276114,3
358668668,-0.09003052,-0.10674643,-0.024106469,-0.37545642,-0.0011631883,0.002681273,-0.9268354,0.99983305,7.0253416e-05,-8.834456e-05,0.018276114,3
358696684,0.03252405,-0.083941385,0.059944954,-0.37557414,-0.0014822946,0.0015980368,-0.9267899,0.99983305,7.0253416e-05,-8.834456e-05,0.018276114,3
358728675,0.26764983,0.14508554,-0.0026147421,-0.37585497,-0.0015089958,0.0004183584,-0.9266773,0.99983305,7.0253416e-05,-8.834456e-05,0.018276114,3
358760668,-0.1388733,-0.16312094,0.07869098,-0.37604812,-0.0017717573,0.0008300281,-0.9265981,0.99983305,7.0253416e-05,-8.834456e-05,0.018276114,3
358792669,0.2656074,0.17595851,0.022596857,-0.37616548,-0.0010370982,0.0007466368,-0.92655164,0.99983305,7.0253416e-05,-8.834456e-05,0.018276114,3
358824669,-0.31487262,-0.21709006,0.006058149,-0.37599897,-0.0009886718,0.0016649878,-0.92661816,0.99983305,7.0253416e-05,-8.834456e-05,0.018276114,3
358856668,0.32578924,-0.0035713925,0.02877098,-0.37578797,-0.001584761,0.0012710909,-0.9267035,0.99983305,7.0253416e-05,-8.834456e-05,0.018276114,3
358888669,-0.10667056,0.05170108,-0.07365311,-0.37580213,-0.0014767842,0.0009323218,-0.9266983,0.99983305,7.0253416e-05,-8.834456e-05,0.018276114,3
358919909,0.075749256,0.054589923,-0.07420939,-0.3759552,-0.00174571,0.0006397603,-0.92663604,0.99983305,7.0253416e-05,-8.834456e-05,0.018276114,3
358951913,-0.084038116,-0.13228719,0.026297275,-0.3759247,-0.001424165,0.00076359214,-0.92664886,0.99983305,7.0253416e-05,-8.834456e-05,0.018276114,3
358983887,0.08942501,0.2997091,-0.029441003,-0.37594607,-0.0012250815,0.000639072,-0.9266406,0.99983305,7.0253416e-05,-8.834456e-05,0.018276114,3
359015875,-0.2528364,-0.081494525,0.046636425,-0.37596038,-0.0015393267,0.0008997701,-0.9266341,0.99983305,7.0253416e-05,-8.834456e-05,0.018276114,3
359047869,0.12337091,0.21831822,0.025607264,-0.37601694,-0.0011357254,0.00013451594,-0.9266121,0.99983305,7.0253416e-05,-8.834456e-05,0.018276114,3
359079913,-0.48279002,-0.14175124,0.0649373,-0.37605146,-0.0012531125,0.0013214647,-0.926597,0.99983305,7.0253416e-05,-8.834456e-05,0.018276114,3
359111869,0.0062871287,0.20835702,0.02519037,-0.37596118,-0.0007715617,0.0018911613,-0.92663324,0.99983305,7.0253416e-05,-8.834456e-05,0.018276114,3
359143908,-0.23241763,-0.14638805,0.06079851,-0.37571934,-0.0007696285,0.0010753453,-0.9267326,0.99983305,7.0253416e-05,-8.834456e-05,0.018276114,3
359175875,-0.0015617128,-0.07700937,0.06565788,-0.37551704,-0.0018628697,0.0010805692,-0.926813,0.99983305,7.0253416e-05,-8.834456e-05,0.018276114,3
359207906,-0.22967792,-0.042910304,0.08116742,-0.37543368,-0.001834592,0.0012386339,-0.9268466,0.99983305,7.0253416e-05,-8.834456e-05,0.018276114,3
359235883,-0.36102185,-0.19904776,-0.070982344,-0.37547764,-0.0013188899,0.0012633273,-0.9268297,0.99983305,7.0253416e-05,-8.834456e-05,0.018276114,3
359267880,0.31099394,-0.06628494,-0.014252594,-0.37542397,-0.0022438632,0.0011777516,-0.9268498,0.99983305,7.0253416e-05,-8.834456e-05,0.018276114,3
359299868,-0.28292444,-0.05474283,-0.061768983,-0.37540695,-0.0021832653,0.0013286435,-0.9268566,0.99983305,7.0253416e-05,-8.834456e-05,0.018276114,3
359331868,-0.1564584,-0.15770549,-0.028529683,-0.3752933,-0.0020521206,0.0021304355,-0.9269014,0.99983305,7.0253416e-05,-8.834456e-05,0.018276114,3
359363882,0.19070889,0.10349848,-0.11544272,-0.3752258,-0.002468023,0.0021455945,-0.9269277,0.99983305,7.0253416e-05,-8.834456e-05,0.018276114,3
359395917,-0.31813526,-0.10375296,-0.12274238,-0.37532368,-0.002504176,0.0014386817,-0.9268893,0.99983305,7.0253416e-05,-8.834456e-05,0.018276114,3
359427869,-0.077022836,-0.3611692,-0.024108237,-0.37524626,-0.0045222454,0.0021232583,-0.92691165,0.99983305,7.0253416e-05,-8.834456e-05,0.018276114,3
359459893,0.15792598,-0.13920273,-0.045621596,-0.37505752,-0.0074247867,0.003694708,-0.92696446,0.99983305,7.0253416e-05,-8.834456e-05,0.018276114,3
359487894,0.119213276,-0.18410502,0.03479885,-0.3748618,-0.010085937,0.004636588,-0.9270143,0.99983305,7.0253416e-05,-8.834456e-05,0.018276114,3
359519869,0.35082528,-0.037967104,0.02320043,-0.3746085,-0.0134620415,0.004624659,-0.9270739,0.99983305,7.0253416e-05,-8.834456e-05,0.018276114,3
359551875,-0.065615565,-0.5365187,-0.034304693,-0.37423623,-0.018018674,0.0063656233,-0.9271365,0.99983305,7.0253416e-05,-8.834456e-05,0.018276114,3
359583868,-0.30198482,-0.32929227,0.08987964,-0.3734646,-0.020636134,0.008518698,-0.9273758,0.99983305,7.0253416e-05,-8.834456e-05,0.018276114,3
359615868,0.1936232,0.22179715,-0.01672986,-0.37306294,-0.020935204,0.009674526,-0.9275194,0.99983305,7.0253416e-05,-8.834456e-05,0.018276114,3
359647869,-0.25039577,0.5029243,-0.1463722,-0.37305567,-0.018152218,0.009323557,-0.9275846,0.99983305,7.0253416e-05,-8.834456e-05,0.018276114,3
359678301,0.14382038,0.35055086,0.15173171,-0.37257802,-0.012980751,0.007939788,-0.9278761,0.99983305,7.0253416e-05,-8.834456e-05,0.018276114,3
359711085,0.2596612,0.54761016,0.0057636714,-0.372272,-0.006928368,0.0049093235,-0.92808485,0.99983305,7.0253416e-05,-8.834456e-05,0.018276114,3
359743086,-0.045622587,-0.030822948,0.058041815,-0.37166533,-0.0034383286,0.0037313176,-0.92835295,0.99983305,7.0253416e-05,-8.834456e-05,0.018276114,3
359771068,0.14692353,0.20815742,0.078905374,-0.37120104,-0.0012623293,0.00212395,-0.9285493,0.99983305,7.0253416e-05,-8.834456e-05,0.018276114,3
359806312,0.056111615,-0.45843098,0.0210699,-0.37142888,-0.0020943107,-0.00078121823,-0.9284587,0.99983305,7.0253416e-05,-8.834456e-05,0.018276114,3
359839076,0.3961989,0.11894304,-0.011366934,-0.37161753,-0.0029115886,-0.0009978608,-0.9283809,0.99983305,7.0253416e-05,-8.834456e-05,0.018276114,3
359871069,-0.5950325,-0.19545522,0.011814711,-0.3716209,-0.0010960185,0.0020459308,-0.9283817,0.99983305,7.0253416e-05,-8.834456e-05,0.018276114,3
359903069,0.041783392,0.46095935,-0.03926753,-0.37176278,0.0020926043,0.0026684082,-0.9283216,0.99983305,7.0253416e-05,-8.834456e-05,0.018276114,3
359935069,-0.23228607,-0.45167565,0.003994082,-0.37160853,0.0033088506,0.0038957128,-0.92837554,0.99983305,7.0253416e-05,-8.834456e-05,0.018276114,3
359967075,0.366816,-0.047322072,-0.025057096,-0.3715564,0.0022911555,0.0019039499,-0.92840564,0.99983305,7.0253416e-05,-8.834456e-05,0.018276114,3
359999070,-0.009304222,-0.013640559,0.0065284665,-0.3718409,-0.0014304905,0.000861579,-0.928295,0.99983305,7.0253416e-05,-8.834456e-05,0.018276114,3
360031069,-0.028586533,0.09937705,-0.0498317,-0.37227017,-0.0010018488,1.8066996e-05,-0.92812395,0.99983305,7.0253416e-05,-8.834456e-05,0.018276114,3
360063069,-0.19406974,0.02051327,-0.045430403,-0.37228718,0.00019998584,0.00069700374,-0.9281174,0.99983305,7.0253416e-05,-8.834456e-05,0.018276114,3
360095069,-0.28228456,-0.30791095,0.08164436,-0.37200418,-0.0012427242,0.004590089,-0.9282189,0.99983305,7.0253416e-05,-8.834456e-05,0.018276114,3
360127075,-0.21892925,0.2420409,0.05731699,-0.37210104,0.0005926301,0.0052721123,-0.92817706,0.99983305,7.0253416e-05,-8.834456e-05,0.018276114,3
360159070,0.17589268,-0.021338513,0.15146714,-0.37203395,0.0012727004,0.0054636556,-0.9282022,0.99983305,7.0253416e-05,-8.834456e-05,0.018276114,3
360191069,0.5052494,0.1123644,-0.0526905,-0.37246704,0.00010952321,0.0031693114,-0.92804,0.99983305,7.0253416e-05,-8.834456e-05,0.018276114,3
360219068,0.2640315,0.04631026,0.03818609,-0.37284952,-0.00065785367,0.0008946468,-0.9278912,0.99983305,7.0253416e-05,-8.834456e-05,0.018276114,3
360251112,0.03775521,-0.27989078,-0.0074866647,-0.37341484,-0.0018140844,0.00014083224,-0.9276627,0.99983305,7.0253416e-05,-8.834456e-05,0.018276114,3
360283075,-0.16893809,0.46266192,-0.08796876,-0.3737193,-0.001162246,0.0010885479,-0.92754054,0.99983305,7.0253416e-05,-8.834456e-05,0.018276114,3
360315077,-0.035219815,-0.29176503,0.09112705,-0.37361568,-0.0011083083,0.00094850844,-0.9275825,0.99983305,7.0253416e-05,-8.834456e-05,0.018276114,3
360347069,0.13454458,-0.1727409,-0.052506298,-0.37410256,-0.0015227132,0.00063119235,-0.92738587,0.99983305,7.0253416e-05,-8.834456e-05,0.018276114,3
360379090,0.11037228,0.2655333,-0.06972004,-0.37453312,-0.0017857543,0.00015423345,-0.9272118,0.99983305,7.0253416e-05,-8.834456e-05,0.018276114,3
360411069,-0.32242388,-0.02850026,0.02894814,-0.37513402,-0.0007494817,0.00066203775,-0.92697,0.99983305,7.0253416e-05,-8.834456e-05,0.018276114,3
360443076,0.15065382,0.4124874,-0.1998154,-0.37622732,-0.001328375,-6.377441e-05,-0.9265264,0.99983305,7.0253416e-05,-8.834456e-05,0.018276114,3
360472677,-0.14626686,0.119008675,-0.13853836,-0.37744096,-0.0013178352,0.00013432208,-0.9260328,0.99983305,7.0253416e-05,-8.834456e-05,0.018276114,3
360503869,0.16632326,0.25609195,-0.0179132,-0.37855917,-0.0010818994,0.00046341165,-0.9255763,0.99983305,7.0253416e-05,-8.834456e-05,0.018276114,3
360535069,0.65097505,-0.21561612,-0.10030356,-0.38025323,-0.0013686932,1.1004007e-05,-0.9248814,0.99983305,7.0253416e-05,-8.834456e-05,0.018276114,3
360566290,-0.13122934,-0.43960637,-0.1250093,-0.38201752,-0.0013390685,-3.7383052e-06,-0.9241541,0.99983305,7.0253416e-05,-8.834456e-05,0.018276114,3
360598269,-0.11873175,-0.0015793215,-0.12900157,-0.3838377,-0.0010155614,0.0005502579,-0.92339987,0.99983305,7.0253416e-05,-8.834456e-05,0.018276114,3
360630268,0.03088436,0.38992128,-0.13496768,-0.38552314,-0.0003192072,0.00015700169,-0.92269814,0.99983305,7.0253416e-05,-8.834456e-05,0.018276114,3
360662275,0.2028184,0.21013193,-0.1362231,-0.38706592,-0.0015221371,-0.0007023363,-0.9220506,0.99983305,7.0253416e-05,-8.834456e-05,0.018276114,3
360694269,-0.0643121,0.16916797,-0.105670184,-0.3886741,-0.0012848595,0.0005434125,-0.92137426,0.99983305,7.0253416e-05,-8.834456e-05,0.018276114,3
360726268,-0.17299095,0.14468612,-0.090355776,-0.3901411,7.7540746e-05,0.0016929562,-0.92075366,0.99983305,7.0253416e-05,-8.834456e-05,0.018276114,3
360758269,0.0072024073,-0.45182648,-0.13304888,-0.39170703,3.1472788e-05,0.0013395125,-0.920089,0.99983305,7.0253416e-05,-8.834456e-05,0.018276114,3
360786268,0.059923556,0.29752737,-0.197933,-0.39358178,-0.0007158293,-8.846575e-05,-0.9192893,0.99983305,7.0253416e-05,-8.834456e-05,0.018276114,3
360818286,0.14141707,0.22546083,-0.16669007,-0.39613917,-0.0012970763,-0.0005607749,-0.91818947,0.99983305,7.0253416e-05,-8.834456e-05,0.018276114,3
360850275,-0.15384388,0.20925973,-0.23944055,-0.3987318,-0.00063846563,-0.0008533732,-0.91706705,0.99983305,7.0253416e-05,-8.834456e-05,0.018276114,3
360882269,-0.0023700094,0.05470974,-0.16783276,-0.40134028,-0.0017926961,0.00016995793,-0.91592735,0.99983305,7.0253416e-05,-8.834456e-05,0.018276114,3
360914269,0.5049049,0.16049069,-0.16192764,-0.4040241,-0.0005709616,-0.000486645,-0.9147481,0.99983305,7.0253416e-05,-8.834456e-05,0.018276114,3
360946269,0.24793902,0.010304328,-0.2548182,-0.40726775,-0.00041264668,-0.001056096,-0.91330814,0.99983305,7.0253416e-05,-8.834456e-05,0.018276114,3
360978275,0.17252171,-0.054965332,-0.24654853,-0.41076759,-0.0027402255,-0.0002956604,-0.9117359,0.99983305,7.0253416e-05,-8.834456e-05,0.018276114,3
361010269,0.10556974,-0.044907264,-0.1508748,-0.414022,-0.0020077014,0.0005856982,-0.91026443,0.99983305,7.0253416e-05,-8.834456e-05,0.018276114,3
361038315,-0.06869645,-0.053341817,-0.0930006,-0.41588467,-0.00151672,0.0011255497,-0.9094155,0.99983305,7.0253416e-05,-8.834456e-05,0.018276114,3
361070286,0.15110125,-0.4526441,-0.054498192,-0.4173597,-0.004281581,0.0026948112,-0.90872735,0.99983305,7.0253416e-05,-8.834456e-05,0.018276114,3
361102269,-0.322804,0.10104296,-0.09481068,-0.4183866,-0.004040468,0.0027921235,-0.9082558,0.99983305,7.0253416e-05,-8.834456e-05,0.018276114,3
361134271,0.027631026,0.1068125,-0.06489914,-0.418974,-0.0027288357,0.0019068947,-0.9079922,0.99983305,7.0253416e-05,-8.834456e-05,0.018276114,3
361166275,-0.21908888,0.35018998,-0.07956121,-0.41985592,-0.0016519867,0.00026949646,-0.90758926,0.99983305,7.0253416e-05,-8.834456e-05,0.018276114,3
361198268,-0.0460521,0.02901129,-0.10698056,-0.4207784,-0.0025429213,-0.00079214777,-0.9071595,0.99983305,7.0253416e-05,-8.834456e-05,0.018276114,3
361230269,-0.5458094,0.21760231,-0.12377864,-0.42131537,-0.0022533324,0.00012503055,-0.90691143,0.99983305,7.0253416e-05,-8.834456e-05,0.018276114,3
361261469,-0.01170131,-0.20423599,-0.07132877,-0.42178228,-0.0027236633,0.0012364095,-0.90669227,0.99983305,7.0253416e-05,-8.834456e-05,0.018276114,3
361292718,-0.40376663,0.2205495,-0.11166704,-0.42274213,-0.0026726178,0.0004039971,-0.906246,0.99983305,7.0253416e-05,-8.834456e-05,0.018276114,3
361325478,0.07359862,-0.025879482,-0.07720016,-0.42369312,-0.00290631,-0.0008637231,-0.9058007,0.99983305,7.0253416e-05,-8.834456e-05,0.018276114,3
361353469,-0.21049783,-0.15920414,-0.026646703,-0.42427897,-0.0034030422,-0.0012761755,-0.90552425,0.99983305,7.0253416e-05,-8.834456e-05,0.018276114,3
361385475,0.23157297,-0.0364409,0.010436058,-0.42494735,-0.0031200112,-0.00091842597,-0.9052123,0.99983305,7.0253416e-05,-8.834456e-05,0.018276114,3
361417469,0.041773234,0.19244471,-0.14113444,-0.42618638,-0.001329016,-2.4396595e-05,-0.9046344,0.99983305,7.0253416e-05,-8.834456e-05,0.018276114,3
361449490,-0.0006418609,0.45588455,-0.12505367,-0.4274577,-0.00029786638,0.0012338494,-0.90403455,0.99983305,7.0253416e-05,-8.834456e-05,0.018276114,3
361481469,-8.254219e-05,0.33912763,-0.117007665,-0.4291169,0.0020253456,0.0015154162,-0.90324545,0.99983305,7.0253416e-05,-8.834456e-05,0.018276114,3
361513475,-0.21210429,0.26217386,-0.13764688,-0.4310196,0.0046741986,0.002106814,-0.902328,0.99983305,7.0253416e-05,-8.834456e-05,0.018276114,3
361545469,-0.13697171,-0.0020635126,-0.16164283,-0.43299586,0.0049607246,0.0022800143,-0.90137947,0.99983305,7.0253416e-05,-8.834456e-05,0.018276114,3
361577489,-0.01427905,0.24846317,-0.21861747,-0.43523428,0.0045985174,0.0021028202,-0.90030307,0.99983305,7.0253416e-05,-8.834456e-05,0.018276114,3
361605477,0.30219463,-0.17011099,-0.12386155,-0.4374032,0.003557574,0.002911193,-0.8992538,0.99983305,7.0253416e-05,-8.834456e-05,0.018276114,3
361637477,-0.33088636,-0.025381103,-0.09709983,-0.44008166,0.004141424,0.0062390915,-0.8979266,0.99983305,7.0253416e-05,-8.834456e-05,0.018276114,3
361669468,-0.0020273696,-0.44403198,-0.07729176,-0.44289127,0.0040839184,0.0076284194,-0.8965336,0.99983305,7.0253416e-05,-8.834456e-05,0.018276114,3
361701475,-0.4711003,-0.20039208,-0.08568415,-0.4458534,0.0050007417,0.007828922,-0.89505774,0.99983305,7.0253416e-05,-8.834456e-05,0.018276114,3
361733469,-0.17769946,0.050370313,-0.13545376,-0.44885114,0.0051783808,0.006726152,-0.8935663,0.99983305,7.0253416e-05,-8.834456e-05,0.018276114,3
361765508,0.39652708,0.50062966,-0.26732448,-0.45212945,0.004924539,0.0054422007,-0.8919221,0.99983305,7.0253416e-05,-8.834456e-05,0.018276114,3
361797469,0.2959549,-0.50396943,-0.24548203,-0.4552857,0.0024561945,0.004446994,-0.890331,0.99983305,7.0253416e-05,-8.834456e-05,0.018276114,3
361829471,-0.22967857,0.25617456,-0.2523095,-0.45821694,0.0020197066,0.0025185503,-0.8888346,0.99983305,7.0253416e-05,-8.834456e-05,0.018276114,3
361857472,-0.3595025,0.1681748,-0.18403168,-0.46052432,0.0019696595,0.002376882,-0.8876417,0.99983305,7.0253416e-05,-8.834456e-05,0.018276114,3
361889477,-0.028409114,0.20505518,-0.19338587,-0.46301985,0.0018865969,0.0029460047,-0.88634104,0.99983305,7.0253416e-05,-8.834456e-05,0.018276114,3
361921469,-0.021998491,-0.13528855,-0.22472954,-0.4654858,0.0017895501,0.0046088635,-0.88504153,0.99983305,7.0253416e-05,-8.834456e-05,0.018276114,3
361953490,-0.0704486,0.038772862,-0.2941843,-0.4679048,0.0012835877,0.004271162,-0.88376766,0.99983305,7.0253416e-05,-8.834456e-05,0.018276114,3
