timestamp,gyro_rad[0],gyro_rad[1],gyro_rad[2],gyro_integral_dt,accelerometer_timestamp_relative,accelerometer_m_s2[0],accelerometer_m_s2[1],accelerometer_m_s2[2],accelerometer_integral_dt
349539869,-0.0026925842,-0.0025087195,-0.00025712285,4000,0,0.019678753,-0.03124935,-9.701843,4000
349543881,-0.0010965077,-0.0022934075,-0.00046396154,4012,0,0.028769601,-0.044618633,-9.69651,4012
349547887,-0.0023802468,0.0006850076,-0.0008090981,4006,0,0.025360957,-0.05367202,-9.696038,4006
349551892,-0.002690433,0.00014581102,-0.0009100088,4005,0,0.024504034,-0.03615336,-9.700315,4005
349555869,-0.00044778877,-0.0007071829,-0.0016419102,3977,0,0.026878582,-0.0389153,-9.705099,3977
349559869,-0.002357716,0.0001481832,0.0004681485,4000,0,0.035527702,-0.043711882,-9.70927,4000
349563869,-0.0037629593,0.0009028457,0.00025511856,4000,0,0.033540864,-0.027861424,-9.699392,4000
349567869,-0.002893253,-0.002613724,-0.0013148569,4000,0,0.03560015,-0.03899369,-9.712161,4000
349571114,-0.0030789755,-0.00015086918,0.000316584,3245,0,0.03520224,-0.044082563,-9.708177,3245
349575069,-0.004823512,0.00025506283,0.0012060966,3955,0,0.021065513,-0.04316624,-9.690854,3955
349579105,-0.0029063616,-0.0015424748,0.00058783486,4036,0,0.038401175,-0.04567282,-9.711624,4036
349583070,-0.004733544,6.1401406e-05,0.0009934729,3965,0,0.05193263,-0.040925153,-9.709174,3965
349587069,-0.0022710373,4.4318676e-05,0.00059282035,3999,0,0.04087798,-0.037962362,-9.712111,3999
349591088,-0.0026926512,-0.0006052067,-0.001443635,4019,0,0.03029203,-0.03993468,-9.711166,4019
349595069,-0.0035414244,0.0010869104,-0.0017752185,3981,0,0.043123033,-0.0508101,-9.687887,3981
349598295,-0.0033370464,0.001561149,-0.00035834883,3226,0,0.0345633,-0.05717753,-9.702852,3226
349602269,-0.003017309,0.0010077702,0.001426588,3974,0,0.030690055,-0.04507731,-9.693635,3974
349606269,-0.0022798216,-0.00028743126,0.001016342,4000,0,0.033932555,-0.03684958,-9.689846,4000
349610269,-0.0036519542,-0.000272628,4.5586432e-05,4000,0,0.029278947,-0.026471397,-9.701824,4000
349614269,-0.003877137,-0.0017589814,0.0014472152,4000,0,0.039855085,-0.02738579,-9.703548,4000
349618298,-0.0009972095,-0.00048805246,0.000593076,4029,0,0.039341386,-0.03320806,-9.700326,4029
349622269,-0.0012128315,-0.00090436323,0.0018692807,3971,0,0.036554743,-0.048559677,-9.720561,3971
349625484,-0.001871309,-0.002427036,6.2717285e-05,3215,0,0.05451529,-0.0447768,-9.728927,3215
349629503,-0.0020577023,-0.000264014,0.0012297182,4019,0,0.056826036,-0.031433832,-9.744386,4019
349634269,-0.0017636217,-0.0012324287,-0.0001347778,4766,0,0.058749095,-0.0324216,-9.724134,4766
349638271,7.8043464e-05,-0.0011302738,-0.0011038943,4002,0,0.05859248,-0.02937625,-9.709263,4002
349642283,-0.002675699,-0.0016642566,-0.0016540608,4012,0,0.05492959,-0.020875236,-9.734389,4012
349646311,-0.0022777994,-0.0010311495,6.632224e-05,4028,0,0.050388288,-0.028000785,-9.706655,4028
349650268,-0.0024891114,-0.0012182624,0.0011248088,3957,0,0.032536276,-0.037995882,-9.704347,3957
349654269,-0.001637593,-0.0013292802,-5.2189604e-05,4001,0,0.044248488,-0.045281347,-9.727191,4001
349658291,-0.0004670499,-0.00027135003,0.0008044184,4022,0,0.040814117,-0.038940977,-9.71212,4022
349662269,-0.0034381978,-0.0010352471,-0.0003852532,3978,0,0.029763106,-0.040315647,-9.706932,3978
349665493,-0.0026713763,-0.001085028,0.0013827676,3224,0,0.031667218,-0.05907906,-9.72055,3224
349669504,-0.0024894157,0.0014487862,0.00090483617,4011,0,0.047560584,-0.05465352,-9.708781,4011
349673469,-0.0018458745,0.0009921067,0.00036384765,3965,0,0.042294,-0.04046737,-9.724518,3965
349677476,-0.0021625087,0.0004675025,-0.00048335845,4007,0,0.05872037,-0.021846386,-9.733945,4007
349681487,-0.002903375,-0.0012311473,-0.0002654869,4011,0,0.049459867,-0.0342157,-9.71163,4011
349685502,-0.0016227447,-0.0017708007,-0.0015293026,4015,0,0.045222346,-0.05238924,-9.721515,4015
349689504,-0.0020427764,-0.0012228438,-0.0005824981,4002,0,0.036612682,-0.04864552,-9.731137,4002
349693469,-0.0017358899,-0.00017318552,-4.9361523e-05,3965,0,0.029358257,-0.048088167,-9.715804,3965
349697469,-0.003981218,0.0016540149,0.002162494,4000,0,0.023563905,-0.04612998,-9.711232,4000
349701475,-0.004518153,-0.0005105253,-0.001341107,4006,0,0.021613862,-0.03656356,-9.7129,4006
349705491,-0.0011031178,0.001320952,0.00015638207,4016,0,0.046464473,-0.038265854,-9.674184,4016
349709469,-0.0003591225,-0.0008021896,0.0011278612,3978,0,0.04063191,-0.044496015,-9.670351,3978
349713486,-0.004396357,-0.00081338093,-0.000914714,4017,0,0.03587911,-0.039276656,-9.680902,4017
349717469,-0.0027862408,-0.0010243895,-0.0005842177,3983,0,0.018702924,-0.033161473,-9.708071,3983
349721517,-0.0017425566,-0.00015992131,0.0002769553,4048,0,0.035012156,-0.036550473,-9.708397,4048
349725490,-0.0009966742,-0.00068992015,0.00028262084,3973,0,0.035511784,-0.032751296,-9.707496,3973
349729469,-0.00066646084,-0.0010177013,-0.0003571694,3979,0,0.03454938,-0.025972692,-9.696582,3979
349733516,-0.00014210645,-0.001120027,-0.00014684061,4047,0,0.030675147,-0.026421728,-9.691796,4047
349737469,0.0008242135,-0.002734547,-0.00023721793,3953,0,0.024823457,-0.035968132,-9.676636,3953
349741475,-0.00077528454,-0.001338114,-0.00046741636,4006,0,0.018184334,-0.056983653,-9.689931,4006
349745469,-0.0009862056,-0.00027155984,-0.00047396202,3994,0,0.016208114,-0.056971006,-9.677014,3994
349749471,-0.0009853285,-0.0023956327,-0.0012017852,4002,0,0.032964204,-0.032838237,-9.707839,4002
349753474,-0.0008873565,-0.0017570843,0.00070123654,4003,0,0.02701014,-0.025634082,-9.725554,4003
349757468,-0.0007811103,-0.00091022544,0.00027602154,3994,0,0.0384516,-0.027491739,-9.716013,3994
349761478,-0.0012083988,-0.0025082815,0.0009306326,4010,0,0.03642284,-0.024013968,-9.679941,4010
349765469,-0.0029061579,-0.0015522769,-0.0006904896,3991,0,0.040343087,-0.016901193,-9.703262,3991
349769469,-0.0007914882,-0.00048329076,0.0010152102,4000,0,0.037509687,-0.0260596,-9.716974,4000
349773469,-0.0013105386,-0.0005979838,-0.00037162667,4000,0,0.028742723,-0.03981324,-9.688506,4000
349777469,-0.0019501167,0.0007948825,0.00058124954,4000,0,0.030294709,-0.040869135,-9.712639,4000
349781469,-0.0025862844,0.0005830775,-0.0003719554,4000,0,0.041348,-0.035208404,-9.724955,4000
349785469,-0.0035356542,0.0011063049,-0.000806854,4000,0,0.035517164,-0.037980977,-9.717459,4000
349789475,-0.0012300793,-0.0015307843,-4.8676935e-05,4006,0,0.045919165,-0.052641593,-9.681359,4006
349793514,-0.0023766598,-0.001977079,0.00047389307,4039,0,0.039195813,-0.05645466,-9.661805,4039
349797486,-0.002260284,-0.002076271,-0.0012027227,3972,0,0.04158301,-0.042919125,-9.688611,3972
349801469,-0.0017414502,-0.0006994815,0.0020905926,3983,0,0.036932692,-0.038458038,-9.709435,3983
349805469,-0.0019530925,0.00037019455,0.0009017876,4000,0,0.05372264,-0.038871974,-9.695006,4000
349809475,6.681861e-05,-0.0017553181,0.0014538943,4006,0,0.045668207,-0.0336824,-9.708271,4006
349813487,-0.0038717492,-0.0025018496,0.0010118976,4012,0,0.024851784,-0.028811343,-9.69044,4012
349817490,-0.0025989732,-0.0017569484,0.0011277084,4003,0,0.021687225,-0.03938533,-9.708026,4003
349821469,-0.0033424194,-0.0002602529,0.00142777,3979,0,0.030245505,-0.02452641,-9.701291,3979
349825469,-0.00078521715,-0.0016500015,0.0012369552,4000,0,0.038485274,-0.018905591,-9.720295,4000
349829476,-0.0013057756,-0.0012387404,-0.0010029589,4007,0,0.037583753,-0.026098795,-9.724088,4007
349833477,-0.0019502783,-0.001117598,0.00090839894,4001,0,0.033143327,-0.020736374,-9.7061,4001
349837469,-0.001204295,-0.0012314845,6.1061444e-05,3992,0,0.03275789,-0.018908875,-9.720772,3992
349841469,-0.001942737,-0.0022871864,6.041094e-05,4000,0,0.025121456,-0.028016299,-9.724598,4000
349845469,-0.0021631198,-0.0021880157,0.00027635813,4000,0,0.02979598,-0.024617659,-9.713238,4000
349849475,-0.0026923537,-0.0014381635,5.4187603e-05,4006,0,0.038925916,-0.025541944,-9.704581,4006
349853475,-0.0013237778,-0.0011224392,0.0010238722,4000,0,0.040358275,-0.036137044,-9.722579,4000
349857468,-0.0008883037,-0.0004874625,0.00016822378,3993,0,0.040030133,-0.055765234,-9.734848,3993
349861472,-3.354751e-05,0.0021748177,4.7269194e-05,4004,0,0.041743394,-0.051350065,-9.702589,4004
349865469,-0.0006775709,0.000690533,0.0011184576,3997,0,0.04305194,-0.04449996,-9.672259,3997
349869475,0.00029647734,0.00090438116,-0.00037440288,4006,0,0.025878768,-0.050301872,-9.6770525,4006
349873469,-0.0015293456,-0.0005883448,0.0010149082,3994,0,0.025906438,-0.052286237,-9.696509,3994
349877469,-0.0029135542,-0.0013323079,0.00143544,4000,0,0.037997656,-0.061474226,-9.718672,4000
349881503,-0.0017405649,-0.00016977408,0.00038213073,4034,0,0.042757735,-0.045624517,-9.712026,4034
349885469,-0.0022775205,-0.00014443957,0.0019657551,3966,0,0.028302971,-0.024020415,-9.70283,3966
349889476,-0.0030182018,0.00069520326,0.0005756625,4007,0,0.025901753,-0.025946232,-9.695171,4007
349893469,-0.0009926335,5.0709114e-05,0.00058857625,3993,0,0.023953399,-0.025466228,-9.693316,3993
349897469,-0.0019497133,0.00058370054,0.0010029913,4000,0,0.03397528,-0.017806185,-9.687585,4000
349901509,0.0005063951,0.00046244756,0.00039225098,4040,0,0.040263932,-0.025422454,-9.6903925,4040
349905469,-0.0015418015,-0.0004683988,-0.00017456339,3960,0,0.03979931,-0.04281108,-9.692613,3960
349909475,-0.0023650138,-0.00026314746,-0.00037809872,4006,0,0.03255962,-0.0575044,-9.686001,4006
349913469,-0.0021612449,-0.0013351558,0.00059027143,3994,0,0.022476565,-0.040728994,-9.685127,3994
349917469,-0.00078886136,-0.0010171211,-0.0006682959,4000,0,0.03206857,-0.042239524,-9.710696,4000
349921507,-0.001315306,0.00077636086,-0.00017866773,4038,0,0.033047788,-0.039813474,-9.699945,4038
349925469,-0.0016194675,0.0006861914,-0.0001589282,3962,0,0.025572523,-0.0289406,-9.722909,3962
349929483,-0.0029178245,-0.0014484519,6.0072187e-05,4014,0,0.036077414,-0.032317508,-9.723572,4014
349933469,-0.0017339294,-0.0027264324,-0.0004647146,3986,0,0.04383066,-0.036668207,-9.730146,3986
349937469,-0.00014714827,-0.0008229305,-0.00046713112,4000,0,0.031894337,-0.04474934,-9.736317,4000
349941491,-0.0018436746,-5.851026e-05,5.406261e-05,4022,0,0.018317958,-0.050970268,-9.721171,4022
349945468,-0.0029043257,-0.0009184243,-5.4564083e-05,3977,0,0.018393258,-0.04811167,-9.728333,3977
349949475,-0.0014112663,-0.0009214838,0.0002736069,4007,0,0.020193756,-0.046059858,-9.71282,4007
349953469,-0.001332117,-0.0018544485,0.0013429832,3994,0,0.02887186,-0.043306556,-9.726731,3994
349957469,-0.0005647164,-0.0014586297,0.00017913655,4000,0,0.036119517,-0.034761176,-9.727501,4000
349961503,-0.0018393148,-0.0016447987,0.0012376509,4034,0,0.033178937,-0.020291837,-9.706998,4034
349965486,-0.002816976,-0.0014504668,0.00015344842,3983,0,0.024430396,-0.024710318,-9.720084,3983
349969475,-0.0018362429,-0.00047790303,0.0008066504,3989,0,0.012523716,-0.030386778,-9.716602,3989
349973468,-0.0028073073,-0.0013303763,0.0013318761,3993,0,0.019267106,-0.028932977,-9.715143,3993
349977469,-0.0029048428,0.00078943034,0.00046917304,4001,0,0.039879534,-0.016096886,-9.718919,4001
349981511,-0.0018482949,-0.00026993625,0.0011175402,4042,0,0.05002698,-0.023294825,-9.726483,4042
349985482,-0.0007627529,0.0009953076,-0.0013322909,3971,0,0.049018152,-0.018948784,-9.727308,3971
349989512,-0.0020650793,-0.0013541378,-0.00057733577,4030,0,0.03271624,-0.018461958,-9.73643,4030
349993468,-0.002049211,-0.00057315035,0.0002746364,3956,0,0.024001641,-0.028535204,-9.705964,3956
349997475,-0.00035289428,4.428579e-05,0.00016455041,4007,0,0.025425658,-0.040338032,-9.700377,4007
350001491,-0.003866802,0.0001532087,0.00046953573,4016,0,0.028828813,-0.041299634,-9.702268,4016
350005469,-0.0028061348,-0.0006922062,0.0012244898,3978,0,0.039424814,-0.033727016,-9.720197,3978
350009506,-0.001311225,-0.00048089187,0.00037498635,4037,0,0.04993828,-0.032146018,-9.688428,4037
350013469,-0.0007866469,-0.0005880895,0.001554669,3963,0,0.05503724,-0.026416464,-9.69372,3963
350017475,-0.00067673885,4.9716124e-05,0.00037966794,4006,0,0.032802273,-0.037085943,-9.723064,4006
350021469,-0.0021461118,0.0010023864,-0.0002728969,3994,0,0.019758742,-0.0451376,-9.717923,3994
350025486,-0.0014226346,0.00015273572,-0.00068911933,4017,0,0.034189753,-0.03572307,-9.730659,4017
350029519,-0.0017468614,0.0014263801,0.0005981771,4033,0,0.047654845,-0.03758644,-9.715754,4033
350033469,-0.0017294117,0.0003730824,0.0014321234,3950,0,0.053164914,-0.031674724,-9.698743,3950
350037475,-0.0018401241,0.0011032027,-5.7298188e-05,4006,0,0.04179968,-0.040362448,-9.710704,4006
350041469,-0.0018310643,-0.00059526664,-0.0016478937,3994,0,0.03568674,-0.038656283,-9.738717,3994
350045469,-0.0009958914,-0.0010169455,0.00015644697,4000,0,0.034659866,-0.029085727,-9.731189,4000
350049500,-0.0019539753,-0.0006994265,-0.0001586934,4031,0,0.04172046,-0.025984997,-9.700229,4031
350053469,-0.0040892423,-0.0014410322,0.0014397696,3969,0,0.045891546,-0.041122343,-9.659415,3969
350057475,-0.0029016023,-0.0012410586,-0.0008931894,4006,0,0.047437124,-0.045599725,-9.685924,4006
350061469,-0.0024781097,-0.00016930157,-0.0006979039,3994,0,0.053292267,-0.04322888,-9.707318,3994
350065469,-0.0011024631,-6.144806e-05,-0.00026275477,4000,0,0.042374402,-0.030910315,-9.724934,4000
350069503,-0.0010987011,-0.00015864254,0.00080101157,4034,0,0.036601946,-0.021298435,-9.712676,4034
350073469,-0.0027094155,-0.00090644776,0.0020810615,3966,0,0.035041768,-0.0423731,-9.707948,3966
350077475,-0.0025872046,-0.0022955805,-4.6721703e-05,4006,0,0.036535226,-0.044225916,-9.714499,4006
350081469,-0.0036509004,-0.0033660391,-0.00078738923,3994,0,0.04276093,-0.035626825,-9.716411,3994
350085469,-0.0039784727,-0.0013571127,-0.0015466852,4000,0,0.04958956,-0.032234546,-9.719266,4000
350089496,-0.0035408495,-0.00016802536,-0.0008117549,4027,0,0.05180608,-0.046061438,-9.704455,4027
350093468,-0.0034331905,0.0011144946,-6.148248e-05,3972,0,0.044032935,-0.046912786,-9.677861,3972
350097489,-0.002050103,-0.00016408828,-0.00015055512,4021,0,0.03825906,-0.0435659,-9.673714,4021
350101469,-0.0017344477,-0.0007063106,-0.0005815223,3980,0,0.038241625,-0.0272535,-9.669064,3980
350105482,-0.0012100082,-0.00058663037,0.00090619037,4013,0,0.03256892,-0.022004275,-9.679026,4013
350109485,-0.0017378742,-0.0008016343,0.00048354772,4003,0,0.017364657,-0.042360265,-9.720298,4003
350113468,-0.0024922246,5.6737605e-05,0.0014314193,3983,0,0.026402572,-0.04220032,-9.699318,3983
350117475,-0.0033392496,-0.0013299763,0.001436322,4007,0,0.018658666,-0.034000997,-9.680443,4007
350121469,-0.002378346,-0.0018593107,0.00091626035,3994,0,0.006766322,-0.036096856,-9.711864,3994
350125469,-0.0023700702,-0.0013415928,0.00026711717,4000,0,0.02600911,-0.028512614,-9.726448,4000
350129493,-0.0023755971,-0.0016514179,0.00016457346,4024,0,0.01785659,-0.04432284,-9.728341,4024
350133490,-0.001727594,0.00058331294,5.4604665e-05,3997,0,0.035266124,-0.044271164,-9.72824,3997
350137475,-0.0017434985,-6.365517e-05,-0.0005873137,3985,0,0.038332522,-0.03839763,-9.692146,3985
350141469,-0.0023775187,4.725479e-05,0.00026097198,3994,0,0.037771057,-0.036838125,-9.673291,3994
350145469,-0.0035396144,6.0258422e-05,0.0011031753,4000,0,0.018804248,-0.0318112,-9.70837,4000
350149494,-0.001843955,-0.00026523977,0.00091446494,4025,0,0.030299377,-0.034624904,-9.703656,4025
350153475,-0.0014300602,0.0010118522,0.0015346796,3981,0,0.040772147,-0.033133682,-9.694157,3981
350157475,-0.0030187534,-0.0005877079,0.0010072351,4000,0,0.051914826,-0.025567206,-9.71454,4000
350161469,-0.0024872182,-0.0019711766,0.0012315513,3994,0,0.06299688,-0.03185435,-9.725346,3994
350165469,-0.0028996975,-0.0033482276,0.00038867103,4000,0,0.056333963,-0.041384257,-9.718216,4000
350169469,-0.0033317138,-0.0009210275,-0.00015999055,4000,0,0.053368144,-0.033776976,-9.72349,4000
350173468,-0.003330196,-0.0013325869,-0.00048189636,3999,0,0.03463791,-0.016991058,-9.712301,3999
350177475,-0.0027963924,-0.00145001,-0.0010077028,4007,0,0.034117833,-0.009784293,-9.711376,4007
350181469,-0.0043929564,-0.0030475014,-0.0007937463,3994,0,0.03256672,-0.019735001,-9.689493,3994
350185469,-0.001635807,-0.0012340609,0.00027920498,4000,0,0.03875624,-0.040731188,-9.697121,4000
350189468,-0.00088888657,-0.0021779218,-0.0005701648,3999,0,0.044707227,-0.033306792,-9.716446,3999
350193469,-0.00078809407,-0.0020714628,0.0013449736,4001,0,0.029397214,-0.02081663,-9.72177,4001
350197475,-0.00024972006,-0.0035696388,0.0006109209,4006,0,0.039891887,-0.027483115,-9.71315,4006
350201469,-0.0012024607,-0.0034624496,0.00018033298,3994,0,0.03840828,-0.035119146,-9.705053,3994
350205469,-0.00087247405,-0.0028170745,-0.00068207324,4000,0,0.03373945,-0.027105141,-9.731675,4000
350209481,-0.0033394285,-0.0027151841,0.0013337041,4012,0,0.025520317,-0.020806365,-9.717515,4012
350213469,-0.0031220312,-0.0017602722,0.00058874855,3988,0,0.029705778,-0.032115757,-9.692355,3988
350217485,-0.0019558498,-0.0012241466,0.0014407889,4016,0,0.028279835,-0.03216199,-9.692304,4016
350221468,-0.0032389143,-0.00080358837,0.0014350424,3983,0,0.023462046,-0.031674158,-9.688531,3983
350225521,-0.0022770008,0.00015329146,0.0018564244,4053,0,0.01828208,-0.03948726,-9.705671,4053
350229469,-0.0024881195,-0.001024406,0.000896575,3948,0,0.006657227,-0.046088196,-9.705705,3948
350233469,-0.0031181446,-0.0007128671,-0.00036971882,4000,0,0.01582603,-0.03042793,-9.704282,4000
350237497,-0.0017380908,-0.0021873054,-0.0010942518,4028,0,0.020676509,-0.041327327,-9.719401,4028
350241469,-0.0013008887,-0.0017619376,0.00017522452,3972,0,0.01699025,-0.033299405,-9.729836,3972
350245475,0.0002823532,0.000803341,0.0015481277,4006,0,0.029892223,-0.029432734,-9.722707,4006
350249469,-0.0028025296,-0.002516336,-4.691488e-05,3994,0,0.018345095,-0.022727234,-9.724699,3994
350253469,-0.0023822547,0.00014774465,0.00025585142,4000,0,0.026542213,-0.029020403,-9.732116,4000
350257495,-0.0009964319,0.0006797037,-0.0011065111,4026,0,0.026090752,-0.029072877,-9.738708,4026
350261468,-0.0032331105,-0.00037599704,0.0009118434,3973,0,0.04285416,-0.023665635,-9.716433,3973
350265475,-0.0020488629,-0.0007042766,-0.0018558345,4007,0,0.04266562,-0.018762048,-9.690899,4007
350269471,-0.0019384506,-0.0008185322,-0.0024987704,3996,0,0.050305378,-0.028262127,-9.682249,3996
350273469,-0.003013078,0.0005803238,0.00014904275,3998,0,0.05036582,-0.04507273,-9.693554,3998
350277471,-0.0023905346,-0.0012304748,0.0021905974,4002,0,0.048523616,-0.029477274,-9.716323,4002
350281469,-0.0019557422,-0.0006912368,0.0014406465,3998,0,0.04376085,-0.02322038,-9.720278,3998
350284689,-0.0026696473,-0.0006969341,0.00031683696,3220,0,0.04545796,-0.029245282,-9.727859,3220
350287917,-0.0020127294,-0.0012447332,0.0010123444,3228,0,0.037104398,-0.020352077,-9.743815,3228
350292669,-0.0016585145,-0.0011262796,0.0034365996,4752,0,0.035591785,-0.028890114,-9.740573,4752
350296675,-0.0012037894,-0.0008044591,-4.609102e-05,4006,0,0.022624284,-0.043281764,-9.715529,4006
350303893,-0.0026695225,-0.0020202573,0.0009900351,3224,0,0.0272275,-0.058845527,-9.674414,3224
350308668,-0.0013839129,-0.00069960416,-0.00029731545,4775,0,0.03133151,-0.04417324,-9.6950245,4775
350312669,-0.0015285716,0.00036421782,-0.0002700941,4001,0,0.055551734,-0.029745763,-9.682242,4001
350316668,-0.0021649331,0.00015995298,0.0015398692,3999,0,0.056527734,-0.030621817,-9.675612,3999
350320669,-0.0024837977,-0.00080180157,0.0005859742,4001,0,0.06754762,-0.034037814,-9.680216,4001
350324710,-0.002267114,-0.00037971063,-0.00048919016,4041,0,0.054670423,-0.030213978,-9.690849,4041
350328669,-0.0022645693,-0.0029551636,-0.00077758695,3959,0,0.039878413,-0.03283285,-9.719873,3959
350332669,-0.0019454077,-0.0031505441,-0.0007826478,4000,0,0.038453404,-0.037535857,-9.714052,4000
350336669,-0.0020554182,-0.0013465894,0.00048440372,4000,0,0.020667067,-0.036095902,-9.707988,4000
350340668,-0.0027959628,-0.0018563537,0.00028208035,3999,0,0.014048958,-0.039473135,-9.723539,3999
350344689,-0.001518806,-0.0018696013,-0.00014552278,4021,0,0.016465122,-0.028046915,-9.728912,4021
350348668,-0.0012032912,-0.0017636415,-0.00015147818,3979,0,0.017378185,-0.030409547,-9.725569,3979
350351927,-0.0028053252,0.00024794418,-0.00046876344,3259,0,0.01906559,-0.040503442,-9.712898,3259
350356668,-0.0020034043,0.0005510072,0.0023635498,4741,0,0.035441108,-0.05433779,-9.704054,4741
350360669,-0.003016849,0.00036812737,0.00047429622,4001,0,0.023063399,-0.04896135,-9.703728,4001
350364675,-0.0015272858,-0.00037478894,0.0011195942,4006,0,0.028249664,-0.052689377,-9.686036,4006
350368690,-0.0008923151,-0.0019640527,0.00048237405,4015,0,0.03833353,-0.04222512,-9.695494,4015
350371903,-0.001592142,0.00023154872,-0.0007500565,3213,0,0.03818605,-0.036440555,-9.71969,3213
350376669,-0.00182743,-0.00034883656,-0.0004775299,4766,0,0.021425951,-0.03197894,-9.720339,4766
350380669,-0.0031121925,-5.105811e-05,-0.0010107474,4000,0,0.027303083,-0.02890395,-9.696178,4000
350384675,-0.0025797584,-0.0015585724,-0.0015403603,4006,0,0.014452086,-0.029398259,-9.713746,4006
350388711,-0.0015188939,3.7576785e-05,-0.0006882446,4036,0,0.0115730055,-0.03607551,-9.709441,4036
350392669,-0.0029194793,-0.0011228318,5.9110575e-05,3958,0,0.016412636,-0.036997493,-9.708464,3958
350396669,-0.0023764926,0.00035851364,-0.00037299047,4000,0,0.022589069,-0.056977935,-9.701206,4000
350400669,-0.0012087515,0.00037723433,0.00100517,4000,0,0.021117598,-0.03749815,-9.701374,4000
350404681,-0.0019531369,-0.0014376307,0.0010178047,4012,0,0.030727386,-0.031279508,-9.706531,4012
350408669,-0.0004671667,0.00026215293,0.0011211454,3988,0,0.039396025,-0.033227514,-9.711666,3988
350411905,-0.0014711645,-0.00083111227,0.0008599287,3236,0,0.035800382,-0.04236044,-9.71356,3236
350416669,-0.0016454163,-0.0006955404,0.00058937893,4764,0,0.04491042,-0.040680785,-9.703705,4764
350420669,-0.00024712065,-0.0016506137,0.00081526226,4000,0,0.0461007,-0.01936792,-9.711219,4000
350424676,-0.0019411435,-0.0017743981,-0.0016348922,4007,0,0.043821428,-0.024184773,-9.726918,4007
350428669,-0.0011938846,-0.0007033142,-0.0009022046,3993,0,0.029080095,-0.04814402,-9.750526,3993
350432712,-0.0014246557,0.0007967252,-0.0002653463,4043,0,0.04816277,-0.047682706,-9.734742,4043
350436669,-0.00077223725,0.0006845823,-5.1099923e-05,3957,0,0.03554021,-0.048530947,-9.721973,3957
350440669,-0.001412989,0.0017482394,-0.00017027374,4000,0,0.023092136,-0.045240343,-9.718812,4000
350444675,-0.0009899262,0.00089702534,-0.00016033533,4006,0,0.018855667,-0.036185987,-9.730752,4006
350448669,-0.0026957178,-0.0007995333,0.0010050391,3994,0,0.025404476,-0.04283259,-9.718857,3994
350452700,6.3017724e-05,-0.0010066063,0.0009158804,4031,0,0.04846306,-0.025556764,-9.709792,4031
350456668,-0.00067101134,-0.00059258175,0.00038169345,3968,0,0.04712449,-0.025584826,-9.712181,3968
350460669,-0.0014147777,-0.0010070583,0.00027608706,4001,0,0.0392915,-0.034571517,-9.693203,4001
350464675,-0.0017308949,-0.0018740706,-0.0011075245,4006,0,0.036865845,-0.04264153,-9.682256,4006
350468669,-0.0021514746,-0.0023045365,-0.0015360608,3994,0,0.041183263,-0.03499803,-9.68844,3994
350472685,-0.003123202,-0.00090419216,0.00206564,4016,0,0.057577435,-0.027455222,-9.697407,4016
350476669,-0.0022728723,0.00036368245,-0.000376489,3984,0,0.055114474,-0.034075078,-9.689351,3984
350480669,-0.003443426,0.0001541545,0.00025573134,4000,0,0.042224113,-0.033165976,-9.697926,4000
350484675,-0.0005661232,-0.00037735444,0.0002737572,4006,0,0.04044475,-0.02804202,-9.7278595,4006
350488669,-0.0011043806,0.0002602337,0.0013322495,3994,0,0.031751573,-0.024640033,-9.717919,3994
350492696,-0.00089691964,0.0014374856,0.00078332267,4027,0,0.0087531265,-0.04222318,-9.712266,4027
350504675,-0.0043947287,-6.280696e-05,0.0002574988,4006,0,0.020664778,-0.056611806,-9.703467,4006
350508669,-0.0032287403,0.00015415458,-0.0002705296,3994,0,0.021066181,-0.038466536,-9.70405,3994
350512669,-0.0015240788,-0.0006922008,0.0005925946,4000,0,0.043788254,-0.034735832,-9.729718,4000
350516669,-0.0013191096,-0.002083991,-0.00035967617,4000,0,0.031866636,-0.038408108,-9.702361,4000
350520672,-0.0015247286,-0.001228904,0.00027368902,4003,0,0.022469379,-0.0431145,-9.682333,4003
350524675,-0.0031289954,-0.0006849613,0.00057168625,4003,0,0.040697087,-0.049401324,-9.692517,4003
350528669,-0.0033287904,-0.0024987985,0.0009143007,3994,0,0.0447083,-0.039473694,-9.708781,3994
350532669,-0.0030256568,-0.002403711,0.0015391981,4000,0,0.042666998,-0.044166543,-9.705959,4000
350536686,-0.00088670175,-0.002609737,0.0006071616,4017,0,0.053202875,-0.040762957,-9.689812,4017
350540693,-0.0019644855,0.0014500832,0.0015369703,4007,0,0.04500813,-0.025487464,-9.69374,4007
350544669,-0.0023682409,0.0014233552,-0.00081599335,3976,0,0.03021234,-0.031721655,-9.700835,3976
350548669,-0.003343749,-0.0013334645,0.00016324225,4000,0,0.030742042,-0.033104833,-9.701281,4000
350552675,-0.000889532,-0.0022922219,6.993132e-05,4006,0,0.04413072,-0.04840939,-9.696905,4006
350556717,-0.002170592,-0.0022847585,0.0011229465,4042,0,0.029213905,-0.03598984,-9.698057,4042
350560712,-0.002572176,-0.0015587583,0.0005894983,3995,0,0.01642826,-0.037188295,-9.707414,3995
350564669,-0.0021776946,0.00018388923,0.0013295718,3957,0,0.021109942,-0.043201726,-9.702296,3957
350568669,-0.0046081934,-0.0010170605,-6.147838e-05,4000,0,0.037457455,-0.04037803,-9.706926,4000
350572675,-0.0014160977,-0.0012344208,-0.0006835089,4006,0,0.034049768,-0.030268589,-9.6960945,4006
350576669,-0.0013067311,-0.0012215149,0.0005937146,3994,0,0.021594806,-0.03450633,-9.688624,3994
350580701,-0.0017273981,-0.002203221,-0.0018483918,4032,0,0.031105831,-0.018731253,-9.696662,4032
350584669,-0.002261911,0.00037770954,-0.0013400193,3968,0,0.020173864,-0.020823902,-9.701469,3968
350588669,-0.0034341975,0.0015359892,-6.483512e-05,4000,0,0.020694565,-0.022709498,-9.72182,4000
350592675,-0.00364998,-0.0005953008,-0.0002715197,4006,0,0.027377797,-0.03224322,-9.706541,4006
350596678,-0.0029023546,0.00046552392,0.0002626197,4003,0,0.020545136,-0.036470816,-9.687187,4003
350600716,-0.0021626214,0.0006662926,-0.0013537394,4038,0,0.01861525,-0.039295703,-9.683824,4038
350604669,-0.0037448064,-0.0016753648,-0.0027041475,3953,0,0.03015276,-0.042098757,-9.67659,3953
350608669,-0.004401961,-0.0017569741,0.0011140121,4000,0,0.02639164,-0.043158647,-9.688018,4000
350612675,-0.0018464023,-0.0018629978,0.0010195669,4006,0,0.01772437,-0.03216478,-9.694267,4006
350616669,-0.0012078156,-0.0011207524,0.00080682663,3994,0,0.025453378,-0.030784627,-9.703251,3994
350620721,-0.0024962828,-0.0015343404,0.0009049008,4052,0,0.026507588,-0.039527792,-9.722172,4052
350624668,-0.0018362858,-0.00068932446,0.0007986247,3947,0,0.03755398,-0.04517137,-9.714431,3947
350628669,-0.0035509453,0.0007983817,0.0013167312,4001,0,0.031237764,-0.03895239,-9.710289,4001
350632675,-0.0027060492,0.0013368892,0.0027022862,4006,0,0.041798785,-0.04230718,-9.709754,4006
350636669,-0.003226917,0.00014768886,4.886453e-05,3994,0,0.05912819,-0.05058049,-9.730085,3994
350640737,-0.0042839344,0.0016538649,0.0011057134,4068,0,0.04610526,-0.03131695,-9.718783,4068
350644669,0.001048365,0.0024812247,-0.00027596066,3932,0,0.045200553,-0.021269685,-9.720697,3932
350648669,-0.0012977712,0.0003537174,-0.0022872388,4000,0,0.035081834,-0.023639565,-9.709882,4000
350652675,-0.0017323955,-6.451752e-05,-0.0009021615,4006,0,0.03171481,-0.024597354,-9.708937,4006
350656669,-0.0057844035,-0.0013235811,0.0017484712,3994,0,0.036953136,-0.03790128,-9.7007475,3994
350660669,-0.0037740655,-0.001224872,0.0011142071,4000,0,0.039208166,-0.038765844,-9.670086,4000
350664669,-0.0037522304,-0.00070436683,-0.001115598,4000,0,0.038295344,-0.033050712,-9.677519,4000
350668669,-0.0010933354,-0.000277612,-0.0009001337,4000,0,0.03355155,-0.021636838,-9.691871,4000
350672675,-0.0018415179,-0.0038947351,-0.00035287804,4006,0,0.023499096,-0.03983568,-9.695143,4006
350676668,-0.0022670322,-0.0032620262,-0.000255622,3993,0,0.022000581,-0.035491757,-9.692258,3993
350680669,-0.004614461,-0.00079876604,0.0011085547,4001,0,0.037491813,-0.04183371,-9.713086,4001
350684669,-0.0035530177,-0.00049640797,-0.0009046225,4000,0,0.033118058,-0.04940178,-9.701714,4000
350688669,-0.0019425091,-6.9314556e-05,-0.0016501994,4000,0,0.04183308,-0.0432888,-9.717779,4000
350695914,-0.0019993607,0.00049658807,-0.000753979,3239,0,0.036924437,-0.020088742,-9.694669,3239
350700673,-0.0012839026,-1.8761616e-06,-0.00074512314,4759,0,0.03547256,-0.037303295,-9.724128,4759
350704686,6.0193594e-05,0.00080528075,0.0024972,4013,0,0.03516508,-0.031386267,-9.73165,4013
350707905,-0.00080870505,-0.00017394229,-0.00088789075,3219,0,0.019067671,-0.028746244,-9.731518,3219
350712675,-0.00057608885,0.00026700075,-0.0016260877,4770,0,0.03432296,-0.036043376,-9.73219,4770
350716669,-0.00045743058,0.00026455487,0.0009110758,3994,0,0.042393938,-0.035727404,-9.719747,3994
350720669,-0.0029100538,-0.0013335063,0.00069435174,4000,0,0.021164788,-0.022218093,-9.71137,4000
350724711,-0.0038559579,-0.00082878093,-0.0015488548,4042,0,0.030671326,-0.021706397,-9.712618,4042
350728715,-0.0034060387,-0.0012175686,-0.00079994835,4004,0,0.0353688,-0.023081599,-9.703864,4004
350732675,-0.0035504403,-0.0018634155,0.00028801686,3960,0,0.024150688,-0.011694732,-9.723336,3960
350736669,-0.0019529315,0.00058297935,0.001110198,3994,0,0.033628132,-0.010747449,-9.709927,3994
350740669,-0.0011034184,-0.0015419777,0.0012364873,4000,0,0.03554613,-0.025037093,-9.7046585,4000
350744669,-0.0019493968,0.00068146654,0.0002596401,4000,0,0.042570096,-0.031606466,-9.676154,4000
350748670,-0.00355402,-0.00026331708,0.0018552962,4001,0,0.04209407,-0.025355713,-9.67142,4001
350752669,-0.0053413194,-0.0014392943,-5.4120464e-05,3999,0,0.046895854,-0.022014393,-9.679852,3999
350756668,-0.0016325011,-0.0010092253,0.0017544503,3999,0,0.05315386,-0.034470733,-9.682318,3999
350760675,-0.001960544,-0.0014316973,0.0020806587,4007,0,0.041734282,-0.037434533,-9.694567,4007
350764669,-0.00089404266,-0.0028121078,0.0008318986,3994,0,0.03167214,-0.036989726,-9.691291,3994
350768675,-0.0019500523,-0.002081838,-4.0841413e-05,4006,0,0.028868359,-0.027511109,-9.716976,4006
350772669,-0.0020532461,-0.0009138728,-0.0005845055,3994,0,0.03749428,-0.031296518,-9.714576,3994
350776669,-0.00077752076,-0.0010237903,0.0010152942,4000,0,0.022236584,-0.040965077,-9.729734,4000
350780675,-0.0004601673,-0.000910279,0.0001702336,4006,0,0.027937299,-0.028000204,-9.72126,4006
350784669,-0.0028037082,-0.0009114096,0.0003718663,3994,0,0.037489366,-0.022699852,-9.711753,3994
350788686,-0.0025864034,-0.0004823923,5.223266e-05,4017,0,0.037419245,-0.030308668,-9.699891,4017
350792669,-0.0027954918,-0.0008040351,-0.000265973,3983,0,0.02981763,-0.034169726,-9.710818,3983
350796668,-0.0027971636,-0.001979214,-0.00036557697,3999,0,0.033147715,-0.028387208,-9.706546,3999
350800675,-0.001524453,-0.00080388255,5.785914e-05,4007,0,0.035488993,-0.04796252,-9.696467,4007
350804669,-0.0022708098,-0.0011187084,0.00037546098,3994,0,0.03594007,-0.04220849,-9.690811,3994
350808692,-0.003426175,-0.0006955817,0.00057277136,4023,0,0.046929084,-0.03408722,-9.6946535,4023
350812669,-0.0034452975,-0.0021912195,-0.0008993227,3977,0,0.039788444,-0.027386434,-9.689471,3977
350816690,-0.0038545416,-0.0027263842,-0.0015389727,4021,0,0.044654455,-0.0380071,-9.70595,4021
350820675,0.000187301,-0.0026089149,0.0007216268,3985,0,0.037894394,-0.051393926,-9.707895,3985
350824669,-0.0022778274,-5.4780357e-05,0.0012127052,3994,0,0.029760271,-0.043344434,-9.717898,3994
350828680,-0.0013133663,0.00036756706,0.00037460745,4011,0,0.03126576,-0.03416999,-9.712671,4011
350832669,-0.002159661,0.0012196914,0.00036861576,3989,0,0.037496876,-0.024666714,-9.719332,3989
350836679,-0.0013119525,-0.0006966451,0.0003786407,4010,0,0.032303657,-0.01563913,-9.735073,4010
350840675,-0.0010022975,-0.00026052224,0.0024043755,3996,0,0.02514831,-0.021417657,-9.739307,3996
350844669,-0.0008839578,-0.0006877963,0.0020813842,3994,0,0.020703642,-0.028888889,-9.707056,3994
350848668,-0.0030181843,-0.002183185,0.0010160477,3999,0,0.019679043,-0.039385878,-9.701804,3999
350852668,-0.00046754602,-0.0030244414,0.0007309108,4000,0,0.023475466,-0.03928169,-9.69415,4000
350856696,-0.0044014594,5.688246e-05,0.00036424762,4028,0,0.032244153,-0.0403525,-9.7103405,4028
350860675,-0.0032150836,-0.0006028638,-0.0026288992,3979,0,0.049553156,-0.032720868,-9.718222,3979
350864669,-0.0017395903,-0.000598644,-0.0004791479,3994,0,0.037139945,-0.039097436,-9.731667,3994
350868668,-0.0033354678,-0.0018586661,0.0016499732,3999,0,0.029424306,-0.0314425,-9.734041,3999
350872686,-0.0020784026,-0.0020960555,0.0014460457,4018,0,0.032729924,-0.041881315,-9.726554,4018
350876692,-0.0012077986,5.3261418e-05,0.00080313295,4006,0,0.03795596,-0.04611607,-9.716361,4006
350880675,-0.0006758359,-0.0013366191,0.0016567293,3983,0,0.025504995,-0.035616793,-9.721814,3983
350884669,-0.0015150346,-0.00081598107,-0.0020727934,3994,0,0.028529579,-0.019522382,-9.745993,3994
350888669,-0.0017327009,0.00089425425,-0.0006966669,4000,0,0.038068768,-0.016114114,-9.733609,4000
350892691,-0.0025739823,-0.0005923812,-0.0014303847,4022,0,0.03132253,-0.02838107,-9.719474,4022
350896712,-0.002776878,-0.0014493483,-0.0013287925,4021,0,0.041955817,-0.020245759,-9.724564,4021
350900675,-0.0021588972,0.00025233446,-0.0020858438,3963,0,0.053271785,-0.020760749,-9.7010975,3963
350904669,-0.00077361305,0.00068095926,-0.0006910842,3994,0,0.057626095,-0.025545647,-9.7069235,3994
350908669,-0.0015278027,0.000689598,0.0003670829,4000,0,0.0518665,-0.031714294,-9.705446,4000
350912669,-0.0031221646,-0.00079648977,0.0013273733,4000,0,0.03900202,-0.037580326,-9.723515,4000
350916691,-0.0033325672,0.00048776393,0.0019539827,4022,0,0.048523147,-0.03229203,-9.716832,4022
350920675,-0.0016301326,0.0001446391,-0.00027053812,3984,0,0.044649757,-0.03700216,-9.701207,3984
350924669,-0.0028001503,0.0005806273,-0.0008051158,3994,0,0.039859872,-0.029338632,-9.703644,3994
350928669,-4.3134503e-05,-0.0018531481,0.00080384366,4000,0,0.045567032,-0.030386526,-9.723987,4000
350932669,-0.0014275629,-0.0013290603,0.00091603806,4000,0,0.050434355,-0.029472686,-9.715978,4000
350936669,-0.0034418665,-0.00048241275,0.0006862108,4000,0,0.04273489,-0.024574984,-9.705091,4000
350940675,-0.0031237847,-0.0015418985,0.0005888001,4006,0,0.036844,-0.0287408,-9.679532,4006
350944669,-0.0024828347,0.0003588505,0.002278227,3994,0,0.034526058,-0.037382104,-9.684526,3994
350948669,-0.0020570287,-0.00080154696,-4.7762987e-05,4000,0,0.0090674395,-0.035981923,-9.690507,4000
350952669,-0.0018442268,-0.0010330366,-0.0009964614,4000,0,0.01373035,-0.042234764,-9.689649,4000
350956686,-0.00024064047,-0.00016998821,-0.0015308452,4017,0,0.02587731,-0.046510022,-9.69367,4017
350960681,-0.0008953509,-0.0008056258,0.00027315362,3995,0,0.02981083,-0.040354744,-9.706971,3995
350964669,-0.0005549866,-0.0012300352,-0.00068256096,3988,0,0.023527008,-0.031286746,-9.708922,3988
350968669,-0.0015184716,4.7622252e-05,0.0010110097,4000,0,0.025421947,-0.03459588,-9.699924,4000
350972669,-0.0016221992,-0.00027301515,-0.00037718247,4000,0,0.023987874,-0.031772427,-9.6984825,4000
350976699,-0.0032247347,-0.00091715925,-0.0006973191,4030,0,0.03693369,-0.033132542,-9.698394,4030
350980669,-0.0029034596,-0.001545806,0.0004894829,3970,0,0.034987636,-0.037953436,-9.699394,3970
350984713,-0.0018362827,0.0014189072,0.0001448279,4044,0,0.025515724,-0.038423818,-9.707929,4044
350988675,-0.0010002461,-0.001462204,-0.0017402535,3962,0,0.04086489,-0.02881467,-9.707454,3962
350992669,-0.0015140263,-0.0030380466,-0.0006784223,3994,0,0.030376881,-0.030832527,-9.714619,3994
350996669,-0.0009949445,-0.001976074,0.0004912263,4000,0,0.024535201,-0.04469524,-9.715042,4000
351003882,-0.0025290423,0.0008953138,-0.00088479585,3213,0,0.04349985,-0.016498923,-9.691135,3213
351008675,-0.0020975375,-0.00042645424,0.0011155277,4793,0,0.04369288,-0.021868886,-9.69185,4793
351012669,-0.0017254368,-6.372828e-05,-0.00068317587,3994,0,0.016162235,-0.032934334,-9.674679,3994
351016669,-0.0015200067,0.00036201903,-0.0006926284,4000,0,0.03704929,-0.0480949,-9.721117,4000
351020669,-0.0026881597,-0.00026778155,-6.722444e-05,4000,0,0.04143165,-0.042848818,-9.723993,4000
351023886,-0.0020145143,-0.0004190874,0.0023148935,3217,0,0.044194717,-0.037499376,-9.707015,3217
351027117,-0.004390069,0.0013023079,0.0014906111,3231,0,0.03936727,-0.037437636,-9.704419,3231
351031091,-0.003969322,0.00089811714,0.001424271,3974,0,0.03641278,-0.043199725,-9.689897,3974
351035069,-0.0017394947,-0.00016273055,0.00079938624,3978,0,0.041319016,-0.037953682,-9.705494,3978
351039069,-3.3052016e-05,-0.0014426614,0.00038696523,4000,0,0.032773152,-0.03903988,-9.728289,4000
351043069,-0.0014191516,-0.00037680974,0.0004868867,4000,0,0.022223713,-0.040053666,-9.734507,4000
351047069,-0.0037554614,-0.0012335572,-0.00037467302,4000,0,0.025057996,-0.03805099,-9.723609,4000
351051069,-0.0023694015,-0.0014485529,-0.0011145106,4000,0,0.02792844,-0.036617484,-9.720754,4000
351055070,-0.0039694062,0.00015144504,-0.00027745042,4001,0,0.042885613,-0.026655646,-9.737325,4001
351058311,-0.0014577842,-0.00017528524,-8.001777e-05,3241,0,0.04424727,-0.034027733,-9.712834,3241
351062269,0.0011462872,-0.001657734,-0.00045668095,3958,0,0.038340256,-0.0466508,-9.711255,3958
351065511,0.00039041258,-0.0012364166,-0.0013996483,3242,0,0.028127033,-0.048954006,-9.734975,3242
351069469,-0.0025991858,0.00025413703,-3.809559e-05,3958,0,0.048665244,-0.039000325,-9.717581,3958
351073469,-0.0036671066,-0.0017563452,0.002184252,4000,0,0.059105683,-0.04089754,-9.7144,4000
351080708,-0.0011980659,-0.0021691483,-0.0012586662,3236,0,0.053796794,-0.027988506,-9.714105,3236
351087888,-0.0014737924,-0.00030825398,-0.00020844053,3219,0,0.028644947,-0.028058533,-9.715528,3219
351092668,-0.0030711908,-0.00023479569,0.0016486114,4780,0,0.040545024,-0.02869486,-9.696124,4780
351096669,-0.0020670323,-0.00037250528,0.0018627482,4001,0,0.04509485,-0.015454535,-9.698487,4001
351100668,-0.0019287914,-0.0015464807,-0.0011005031,3999,0,0.026417894,-0.033461682,-9.690449,3999
351104669,-0.0026951174,-0.0012298586,0.00016094877,4001,0,0.026824716,-0.038848724,-9.69039,4001
351108669,-0.0012055003,-0.0019741831,0.0005981088,4000,0,0.033542402,-0.023574345,-9.694254,4000
351115887,-0.0032022626,-0.00016395815,0.0011146954,3217,0,0.034497563,-0.039799586,-9.6922455,3217
351120671,-0.0017401562,-0.001136521,0.0013020952,4784,0,0.035407428,-0.025122546,-9.709312,4784
351124686,-0.0021541482,0.00024644425,-0.0012313831,4015,0,0.01844855,-0.04871423,-9.742585,4015
351128669,-0.00215051,-0.001766985,-0.00079899287,3983,0,0.026032457,-0.051515825,-9.731189,3983
351132708,-0.0038648597,-0.001650737,0.0022907783,4039,0,0.02741337,-0.05466812,-9.703119,4039
351136669,-0.0013191104,-0.002062073,0.0027265223,3961,0,0.042864762,-0.04332887,-9.727388,3961
351143886,0.00024995682,0.0013028168,0.0015169482,3215,0,0.036415152,-0.042330135,-9.715968,3215
351147875,6.6225955e-05,-0.0015407632,0.00038761937,3989,0,0.023957547,-0.036993127,-9.694273,3989
351151868,-0.0019449252,-0.0040022763,-0.0009918589,3993,0,0.02103973,-0.044082534,-9.683758,3993
351155868,-0.00088091026,-0.00018485205,0.0007953296,4000,0,0.020198751,-0.055100642,-9.695584,4000
351159869,-0.0023776544,0.0003597749,4.7907026e-05,4001,0,0.023094356,-0.05331557,-9.711175,4001
351163868,-0.0015277641,0.00048470966,0.0013286857,3999,0,0.019842023,-0.033833954,-9.7345495,3999
351167875,0.0007125299,-0.0012346584,-0.0005662399,4007,0,0.037474234,-0.04088242,-9.715477,4007
351171900,7.694898e-05,-0.0020843167,-0.0011014938,4025,0,0.033133723,-0.054784544,-9.707809,4025
351175868,-0.0016334075,-0.00059083325,0.00017169348,3968,0,0.027402082,-0.051335122,-9.714511,3968
351179104,-0.0014842647,0.0018518174,0.002973079,3236,0,0.04417051,-0.026044931,-9.6964035,3236
351183868,-0.0005077443,-0.00078857393,0.0014767428,4764,0,0.042506535,-0.020251185,-9.689921,4764
351187876,-0.0005775121,0.0005868282,5.947295e-05,4008,0,0.032102633,-0.033090908,-9.686147,4008
351191875,0.001026108,-0.00143943,0.0008187634,3999,0,0.023972562,-0.024528507,-9.69618,3999
351195869,-0.0013145098,-0.0006966447,0.00037870958,3994,0,0.024985187,-0.042299718,-9.707932,3994
351199868,-0.0024782054,0.0013186121,-0.0005932048,3999,0,0.034059696,-0.035083577,-9.699393,3999
351203868,-0.0048233033,0.00047342348,0.00024901988,4000,0,0.039334,-0.033620823,-9.696997,4000
351207868,-0.0015315319,0.0014523994,-0.00016743169,4000,0,0.052841697,-0.038860366,-9.705762,4000
351211872,7.447236e-05,4.1571308e-05,-0.00025754908,4004,0,0.04479948,-0.05526867,-9.726212,4004
351215869,0.0001783152,-0.0018471027,0.001033858,3997,0,0.057691645,-0.0652582,-9.722311,3997
351219917,-0.0007946549,-0.0009065877,0.0021971713,4048,0,0.051724207,-0.038296707,-9.6963825,4048
351223869,-0.0019567572,-0.0010030874,0.0011022427,3952,0,0.049966216,-0.0254894,-9.691259,3952
351227904,-0.00079472037,-0.0004678053,0.0032517684,4035,0,0.04613863,-0.03515892,-9.715435,4035
351231872,-0.0023848196,-0.00025947386,0.0014303484,3968,0,0.030761076,-0.03130784,-9.706575,3968
351235869,-0.0033209985,0.00025454024,-0.00070978334,3997,0,0.020284517,-0.023155404,-9.708018,3997
351239912,-0.0023683303,0.000462735,-0.000488124,4043,0,0.028385315,-0.020274652,-9.708974,4043
351243868,-0.0028085539,-0.0011201783,0.001024466,3956,0,0.04224411,-0.032736287,-9.693052,3956
351247875,-0.0031213446,-0.00090991706,0.00037025326,4007,0,0.04169853,-0.046020135,-9.690291,4007
351251869,-0.0039653704,-0.00123626,-0.0012282982,3994,0,0.03351676,-0.0493375,-9.685571,3994
351255893,-0.0031295144,-0.0021809456,0.0010137942,4024,0,0.036863707,-0.04698387,-9.6893835,4024
351259891,-0.0037678727,-0.00080085493,0.0011097679,3998,0,0.032051455,-0.041774634,-9.6942425,3998
351263868,-0.0023787096,-0.0019637165,0.0013511642,3977,0,0.028350139,-0.049089238,-9.713117,3977
351267875,-0.0015250237,-0.0026106806,0.0006004463,4007,0,0.0341064,-0.04562786,-9.7069235,4007
351271869,-0.002594108,-0.002289336,0.001126915,3994,0,0.047051087,-0.044656824,-9.7030735,3994
351275875,-0.0040861405,-0.0008001336,0.0008995875,4006,0,0.06286103,-0.0422235,-9.694491,4006
351279869,-0.000782489,-0.00069412024,0.0010197832,3994,0,0.04266309,-0.03359404,-9.692247,3994
351283900,-0.00014062684,-0.00016149745,0.00018025469,4031,0,0.021294938,-0.020409321,-9.724111,4031
351287869,-0.0020760882,-0.00026877027,0.0022938433,3969,0,0.047222286,-0.032834854,-9.710638,3969
351291869,-0.0031299212,-0.0013257546,0.0021820243,4000,0,0.02737674,-0.04036108,-9.705555,4000
351295911,-0.0005753109,-0.0021838301,0.0013491508,4042,0,0.029288178,-0.038911175,-9.70461,4042
351299869,-0.0016365408,-0.00047576166,-0.00047597045,3958,0,0.036023557,-0.03502312,-9.709331,3958
351303869,-0.002686099,-0.00059217185,-0.0014338802,4000,0,0.020194184,-0.033133544,-9.699954,4000
351307869,-0.0025831216,0.0001489309,-0.0005909121,4000,0,0.031178964,-0.04366474,-9.698392,4000
351311887,-0.00067890703,-0.00015895512,0.0011215503,4018,0,0.042675648,-0.041277613,-9.695478,4018
351315875,-0.0013132874,-0.002083923,-0.00036680064,3988,0,0.033133913,-0.032232646,-9.711344,3988
351319869,-0.00089376775,-0.001147651,-0.0004689665,3994,0,0.046650156,-0.029472236,-9.731931,3994
351323869,-0.00013290757,-0.00038653423,-0.0014270236,4000,0,0.056781504,-0.033807788,-9.732955,4000
351327902,-0.0012160123,-5.028125e-05,0.0018723732,4033,0,0.055176266,-0.04558702,-9.697767,4033
351331869,-0.0028002826,0.0020792957,0.0005525828,3967,0,0.06089213,-0.02725435,-9.67985,3967
351335885,-0.0016278862,-0.00081581995,-0.0004741564,4016,0,0.050845586,-0.026914893,-9.694533,4016
351339887,-0.0017464696,-0.00026882798,0.0012342172,4002,0,0.04315058,-0.037965547,-9.7049675,4002
351343869,-0.0019518968,5.7200137e-05,0.0014352496,3982,0,0.032982558,-0.03302972,-9.672855,3982
351347890,-0.0032295168,0.00015516552,0.000365077,4021,0,0.035880815,-0.03403146,-9.680424,4021
351351869,-0.00045365863,-0.0024040919,0.00028654875,3979,0,0.048890933,-0.024952177,-9.687046,3979
351355875,-0.0016198619,-6.601444e-05,-0.00090773334,4006,0,0.038003422,-0.027902087,-9.713599,4006
351359875,-0.003332575,-0.0002769928,-0.00048500893,4000,0,0.037552204,-0.04524615,-9.724456,4000
351363875,-0.0014075235,0.00025061585,-0.0017509741,4000,0,0.045240868,-0.03239024,-9.732546,4000
351367913,-0.00025381145,0.0007976504,0.0019926757,4038,0,0.038817942,-0.031267453,-9.711051,4038
351371869,0.0003867414,0.00090846315,0.0020692956,3956,0,0.036079284,-0.035570927,-9.69798,3956
351375875,-0.0009940112,0.001017241,0.0023932364,4006,0,0.043689195,-0.025998052,-9.707432,4006
351379911,-0.0016237495,0.0005821305,0.0012196389,4036,0,0.04080683,-0.03375325,-9.719294,4036
351383869,-0.0018463323,0.00036529798,-6.375854e-05,3958,0,0.029797163,-0.032229263,-9.711214,3958
351387876,-0.0023693831,-0.0005942432,-0.0007975284,4007,0,0.019204648,-0.032688957,-9.701839,4007
351391869,-0.0028099434,-0.0009017064,0.0018620237,3993,0,0.01957431,-0.037357457,-9.679516,3993
351395880,-0.002479436,-0.0018662224,0.00016793275,4011,0,0.030223813,-0.036977272,-9.69841,4011
351399869,-0.0025966677,-0.0011289291,0.0007931082,3989,0,0.034522694,-0.03840938,-9.702789,3989
351403868,-0.0015448004,-0.0012207408,0.00079364795,3999,0,0.024037534,-0.0418768,-9.72113,3999
351407885,-0.002161362,0.0002584168,-0.00016341716,4017,0,0.034649808,-0.044267062,-9.720673,4017
351411869,-0.0013153992,-0.001229076,0.0012161259,3984,0,0.02896637,-0.04531156,-9.728272,3984
351415875,-0.0024833665,-0.00036163474,0.0025209002,4006,0,0.0192223,-0.04183086,-9.715147,4006
351419869,-0.0018463504,-0.0014469185,-0.0005824869,3994,0,0.028794635,-0.03796291,-9.702735,3994
351423894,-0.003327684,-5.6707904e-05,-0.0010137619,4025,0,0.03071262,-0.014463069,-9.7008915,4025
351427869,-0.0008770083,-0.001868896,0.00017729843,3975,0,0.034563538,-0.026923252,-9.695102,3975
351431869,-2.3998517e-05,-0.0015519485,0.0008082186,4000,0,0.046386894,-0.025921492,-9.698895,4000
351435875,-0.0020584362,0.0010078152,0.0005769698,4006,0,0.057524692,-0.035971005,-9.687882,4006
351439869,-0.0037558367,0.0011138465,0.00024691882,3994,0,0.0388467,-0.03791535,-9.689866,3994
351443890,-0.0044026976,-0.00015683901,0.0005695929,4021,0,0.018256698,-0.04658911,-9.706526,4021
351447869,-0.0019625279,-0.0012137591,0.0027190691,3979,0,0.013059084,-0.03997904,-9.7265415,3979
351451887,-0.0026871972,-0.0006894511,0.001754887,4018,0,0.024561627,-0.03756829,-9.7303,4018
351455875,-0.0021600358,-0.00069167174,0.001330274,3988,0,0.041369654,-0.048502818,-9.7134285,3988
351459869,-0.0013231394,6.0264534e-05,0.0027146584,3994,0,0.039409354,-0.035126146,-9.711687,3994
351463881,-0.00014911227,-0.0006851667,0.0019781569,4012,0,0.045188487,-0.033727534,-9.715962,4012
351467869,-0.0006834559,-0.0017492326,0.0026195494,3988,0,0.038405556,-0.026006965,-9.705549,3988
351471869,-0.00088233774,-0.0024920737,0.0017745933,4000,0,0.025433745,-0.035440747,-9.686156,4000
351475918,-0.0025918894,0.0002689467,0.0003824955,4049,0,0.040449843,-0.036528535,-9.707628,4049
351479887,-0.0025900842,-0.0011296335,0.000898087,3969,0,0.044118404,-0.03169804,-9.708137,3969
351483894,-0.002808959,-0.0012210844,0.002075956,4007,0,0.03740155,-0.033607952,-9.694624,4007
351487869,-0.0005669989,-0.00079514954,0.0015437064,3975,0,0.027350938,-0.030294454,-9.696124,3975
351491869,0.0002943687,-0.0016583191,-0.00066290644,4000,0,0.04129484,-0.044654325,-9.712041,4000
351495907,-0.00013704484,-0.0011366288,-0.002169748,4038,0,0.03838601,-0.029320613,-9.706922,4038
351499869,-0.0027953843,-0.0010175365,-0.00079705886,3962,0,0.034124874,-0.02029696,-9.706594,3962
351503870,-0.0021601685,-0.0018694579,-4.42659e-05,4001,0,0.03224334,-0.037087243,-9.719761,4001
351507887,-0.003015898,0.0006847857,0.0002571396,4017,0,0.038360424,-0.039823193,-9.69691,4017
351511869,-0.0023765736,-0.0017601978,0.00081289763,3982,0,0.04369005,-0.036480438,-9.700712,3982
351515913,-0.0039639343,-5.791517e-05,-0.0014481145,4044,0,0.023958867,-0.035565425,-9.698431,4044
351519869,-0.0031180256,0.00035709701,0.00016306243,3956,0,0.02578455,-0.04736416,-9.666527,3956
351523908,-0.0027029146,-0.00069922965,0.0015461561,4039,0,0.02246086,-0.048326638,-9.68091,4039
351527886,-0.0034283476,-0.0022794434,0.00024876816,3978,0,0.02195569,-0.047920484,-9.684693,3978
351531869,-0.0011033905,-0.00015541364,0.0019770814,3983,0,0.018631851,-0.045971826,-9.682804,3983
351535913,-0.0013148412,0.0001613144,-0.0002697339,4044,0,0.022000423,-0.052669946,-9.687458,4044
351539868,-0.003972033,-0.00051401893,-0.0025193535,3955,0,0.024961323,-0.04413647,-9.696713,3955
351543875,-0.0031216638,-0.0017586208,0.00080281205,4007,0,0.036999386,-0.026044546,-9.710799,4007
351547925,-0.0022876165,0.00028105584,0.002378919,4050,0,0.03792525,-0.031150244,-9.698814,4050
351551869,-0.0019519645,-0.00038199525,0.00079461583,3944,0,0.04946771,-0.027876712,-9.696052,3944
351555905,-0.0022674592,0.0013234128,-0.00016489722,4036,0,0.03120969,-0.030827664,-9.709379,4036
351559869,-0.002071697,0.00015761403,0.0020723082,3964,0,0.03759971,-0.035688225,-9.722681,3964
351563889,-0.003650135,-0.00048443457,-5.9466816e-05,4020,0,0.05677487,-0.034271598,-9.729145,4020
351567869,-0.00088623556,0.0014402214,0.0012236024,3980,0,0.055169623,-0.03940433,-9.703542,3980
351571868,0.00048611965,-0.00069036265,0.001133932,3999,0,0.047526266,-0.050374795,-9.701657,3999
351575868,-0.0007836153,-0.0026072331,0.0013485001,4000,0,0.031181278,-0.056573592,-9.695959,4000
351579869,-0.0016192154,-0.0026226577,-0.0016350929,4001,0,0.029222673,-0.055089906,-9.690767,4001
351583882,-0.003434441,-0.000604214,-0.0012351013,4013,0,0.032048844,-0.06224242,-9.679317,4013
351587869,-0.0028998894,-0.0013450859,-0.0007977213,3987,0,0.012434364,-0.04886853,-9.692373,3987
351591888,-0.0031193774,-0.0017614127,0.00026768816,4019,0,0.010096143,-0.044185445,-9.707003,4019
351595869,-0.00023663811,-0.0012326854,-0.0005755614,3981,0,0.0283528,-0.047522336,-9.699833,3981
351599869,-0.0008784493,-0.0007065866,-0.0015293149,4000,0,0.036487922,-0.044715494,-9.710607,4000
351603875,-0.0021548257,-0.0024116444,-0.0018521805,4006,0,0.038440265,-0.03368263,-9.711217,4006
351607869,-0.0028001564,-0.0028272653,-4.2087566e-05,3994,0,0.041739266,-0.019741941,-9.695616,3994
351611890,-0.005141517,-0.0013467018,-0.00091675523,4021,0,0.052239526,-0.02390886,-9.67894,4021
351615869,-0.0017308962,0.00036812306,0.00047926154,3979,0,0.03400847,-0.04464756,-9.695577,3979
351619887,-0.0011026603,0.0008966263,0.00080587954,4018,0,0.04417015,-0.04942731,-9.698423,4018
351623908,0.00041104262,0.0018495368,-0.00026150778,4021,0,0.033099953,-0.030180883,-9.698561,4021
351627869,-0.0017390867,-0.0002752493,0.0003718052,3961,0,0.047036935,-0.03220601,-9.692668,3961
351631900,-0.0014227637,-0.0012260173,0.001235144,4031,0,0.055153556,-0.043131597,-9.687887,4031
351635869,-0.0025922123,-0.001010405,0.00046843145,3969,0,0.048436277,-0.035600424,-9.70831,3969
351639869,-0.0020531,-0.0016519611,0.0010077526,4000,0,0.036965843,-0.04073652,-9.695052,4000
351643918,-0.0032264816,-0.00048280222,-0.00018064474,4049,0,0.0368589,-0.04020194,-9.686937,4049
351647887,-0.004388415,-0.002646972,-0.00036409535,3969,0,0.036380555,-0.030088654,-9.669496,3969
351651869,-0.0031234885,-0.0029347874,-0.0006759896,3982,0,0.051749453,-0.024011526,-9.687967,3982
351655869,-0.002490664,-0.0010094432,0.0014374892,4000,0,0.05184944,-0.027916113,-9.703611,4000
351659869,-0.0024709597,-0.00036782073,0.0007013753,4000,0,0.048048057,-0.03218402,-9.707267,4000
351663913,-0.0044057416,-0.0009083801,0.0006885125,4044,0,0.040867068,-0.039498597,-9.722571,4044
351667868,-0.0024629964,-0.0017718015,0.00047191503,3955,0,0.032732163,-0.013638934,-9.737063,3955
351671893,-0.0027921016,0.0017469672,-0.0011322004,4025,0,0.04709618,-0.020352697,-9.724537,4025
351675887,-0.0016140265,-0.0013578921,-0.0011133072,3994,0,0.045714,-0.042989578,-9.7400675,3994
351679869,-0.0019331244,-0.0012384782,-0.0003615518,3982,0,0.036574595,-0.04185389,-9.716946,3982
351683896,-0.002054123,-0.00016956856,-0.00026322313,4027,0,0.030697057,-0.046073362,-9.69555,4027
351687869,-0.0034317616,-0.00017726736,-0.0019764206,3973,0,0.026339127,-0.038831085,-9.689453,3973
351691904,-0.0018335984,0.00026513808,-5.1630203e-05,4035,0,0.03595068,-0.022096984,-9.687576,4035
351695890,0.00018598602,4.3845794e-05,-0.0013356705,3986,0,0.037761904,-0.022054115,-9.683193,3986
351699869,-0.0023737508,0.0014251628,-0.0009065877,3979,0,0.036024906,-0.022701692,-9.708531,3979
351703893,-0.003761868,-5.6937275e-05,0.0013229429,4024,0,0.02499679,-0.023641499,-9.712786,4024
351707868,-0.0025879887,4.372172e-05,0.0001585956,3975,0,0.016880449,-0.012669021,-9.711932,3975
351711112,-0.0011954606,0.00035192748,-0.0018106338,3244,0,0.029881377,-0.022050543,-9.722598,3244
351715910,-0.0026409095,-0.0007079565,-0.0018018248,4798,0,0.03429932,-0.039337195,-9.722795,4798
351719868,-0.0029930274,-0.00091753923,-0.0007933227,3958,0,0.026965527,-0.051508997,-9.733911,3958
351723869,-0.003230022,-0.003248683,0.00080798287,4001,0,0.034703124,-0.054849237,-9.732473,4001
351727869,-0.0014124657,-0.00081589405,0.0009304647,4000,0,0.044252034,-0.057686415,-9.726037,4000
351731895,-0.00077199424,-0.00017077748,-0.0009972712,4026,0,0.05238675,-0.05606538,-9.695109,4026
351735869,-0.0029046424,-0.00016753285,-0.0007983619,3974,0,0.025857352,-0.060891837,-9.702217,3974
351739869,-0.0020476277,-0.0013357255,0.0002715384,4000,0,0.030226715,-0.04754763,-9.707894,4000
351743869,-0.0033405677,-0.002073223,0.0015463696,4000,0,0.045072,-0.040295593,-9.692198,4000
351747869,-0.00078552496,-0.0013353975,0.0011330141,4000,0,0.036515817,-0.030774215,-9.693639,4000
351751907,-3.0454206e-05,-0.0006874524,0.0012393824,4038,0,0.043697167,-0.024129426,-9.700358,4038
351755868,-0.0007925642,-0.00069503457,0.0006907984,3961,0,0.041638117,-0.032631066,-9.690725,3961
351759914,-0.0024857458,-0.00048105326,5.1121966e-05,4046,0,0.036941938,-0.036049195,-9.699381,4046
351763869,-0.0009972372,-0.00068454596,0.00068871444,3955,0,0.054423664,-0.02369347,-9.714464,3955
351767869,-0.00077690126,-0.00016806326,0.00026414276,4000,0,0.046217054,-0.020866677,-9.72786,4000
351771918,-0.0024792333,-0.0016533016,-4.131165e-05,4049,0,0.027999174,-0.017599054,-9.736968,4049
351775869,-0.0013043644,-4.64247e-05,-0.0001666012,3951,0,0.037506755,-0.026061988,-9.702482,3951
351779894,-0.001734545,0.0018544329,-0.0006983681,4025,0,0.03311928,-0.03365656,-9.706519,4025
351783869,-0.0034457091,0.00046689925,-0.00048432793,3975,0,0.038812794,-0.04267884,-9.687876,3975
351787887,-0.0021729046,-0.0020665952,0.0011261519,4018,0,0.046882667,-0.04260698,-9.674592,4018
351791898,-0.004188639,-0.001335287,0.0004683322,4011,0,0.026301669,-0.042133763,-9.685672,4011
351795868,-0.0019522604,-0.0016433451,0.00081040355,3970,0,0.029202128,-0.03551454,-9.690417,3970
351799877,-0.001942237,-0.0004915407,-0.0007905782,4009,0,0.024047628,-0.044681706,-9.7098,4009
351803868,-0.0038690558,0.0011157568,0.0008902472,3991,0,0.021595767,-0.03698386,-9.701326,3991
351807868,-0.0029065434,0.00047217254,-0.000697882,4000,0,0.034627955,-0.032636795,-9.699901,4000
351811881,-0.002802664,-0.00059099105,0.00026460222,4013,0,0.03365738,-0.022224821,-9.714644,4013
351815887,-0.0022730348,-0.00047838507,0.0010159251,4006,0,0.040868647,-0.03137012,-9.718801,4006
351819871,-0.0022679525,0.00036532455,-6.059358e-05,3984,0,0.03375676,-0.030930739,-9.733479,3984
351823869,-0.0012098197,-0.0005873221,0.0006956206,3998,0,0.031102056,-0.02395371,-9.679532,3998
351827869,-0.0016121014,-0.0017630312,-3.6141024e-05,4000,0,0.03872971,-0.03221554,-9.688322,4000
351831887,-0.0029103612,-0.00027467898,4.6576482e-05,4018,0,0.033988032,-0.038841568,-9.685117,4018
351835869,-0.0007828243,-0.00048135835,0.00048543038,3982,0,0.034938198,-0.027314968,-9.676691,3982
351839111,-0.0028081418,-0.00057318097,0.00018933209,3242,0,0.033910234,-0.032071617,-9.696538,3242
351843069,-0.0020452207,-0.0002621313,-0.00016683637,3958,0,0.041886613,-0.029392203,-9.715506,3958
351847105,-0.0011967187,0.0006819122,-0.0015441625,4036,0,0.030934768,-0.037239034,-9.74586,4036
351851875,-0.0019134787,-6.4261665e-05,-0.00012154556,4770,0,0.01750857,-0.03894754,-9.755554,4770
351855869,-0.0007914607,-0.0018729011,-0.00066375406,3994,0,0.022292124,-0.041614078,-9.75361,3994
351859111,-0.0008075273,-0.001882847,0.00088215194,3242,0,0.0328169,-0.03748047,-9.709389,3242
351863068,-0.0024990146,-0.001972921,0.002083609,3957,0,0.04992798,-0.042256467,-9.701686,3957
351867088,-0.0016363129,-0.0018668921,0.00081207376,4020,0,0.0437029,-0.04129608,-9.704533,4020
351871075,-0.0008907273,-0.0010104378,0.0016588259,3987,0,0.037424274,-0.033225697,-9.701736,3987
351875069,-0.000677383,-0.00026847154,-0.00013491344,3994,0,0.040181372,-0.040254086,-9.689398,3994
351879081,-0.00056634814,0.0010057569,0.00037181418,4012,0,0.055185724,-0.032169342,-9.695515,4012
351883068,-0.0021494464,-6.261967e-05,-0.00048280976,3987,0,0.059953045,-0.03022109,-9.688919,3987
351887086,-0.001323528,-0.001535744,0.0022868612,4018,0,0.047057997,-0.042774957,-9.711101,4018
351891075,-0.00045776129,-0.0014342838,-0.00014753026,3989,0,0.029446496,-0.037190154,-9.746392,3989
351895069,0.0002716886,-0.0012246553,-0.0004630626,3994,0,0.036643162,-0.043432217,-9.754983,3994
351899090,0.00070446165,0.00080150267,0.00048800482,4021,0,0.039176878,-0.04592181,-9.765738,4021
351903068,-0.002913739,0.0019749238,0.0016337439,3978,0,0.036645886,-0.048155222,-9.738278,3978
351906303,-0.0038492833,0.0014251886,-0.0009073667,3235,0,0.028575223,-0.03807219,-9.713037,3235
351910269,-0.003344834,0.001433478,0.00068673835,3966,0,0.02266081,-0.028017687,-9.723268,3966
351915069,-0.0024545281,0.0010786107,0.0006678959,4800,0,0.020744123,-0.04040186,-9.738122,4800
351919069,0.00081355945,-0.0011223088,0.0004966508,4000,0,0.036019307,-0.03128608,-9.706527,4000
351923079,-0.0015052712,-0.00068212854,0.0007959194,4010,0,0.041831467,-0.03466024,-9.706028,4010
351927090,-0.0037594188,-0.0006944206,0.0007944452,4011,0,0.033486422,-0.04123526,-9.689303,4011
351931093,-0.0024843798,-0.00069389964,0.0009008552,4003,0,0.02585049,-0.03702172,-9.695789,4003
351935069,-0.0012012508,-0.0009177964,-0.0005839002,3976,0,0.026887866,-0.03841124,-9.70121,3976
351939068,-0.00067069475,-0.0014448346,-0.0002534637,3999,0,0.03170058,-0.040843938,-9.706481,3999
351943070,-0.0035332115,-0.00028337043,0.0007818892,4002,0,0.028840022,-0.053601604,-9.70165,4002
351947069,-0.0038707207,-0.0014365254,0.001327756,3999,0,0.0323057,-0.035240136,-9.732589,3999
351951120,-0.001739569,-0.00026447262,0.0029283739,4051,0,0.0444021,-0.023932323,-9.76066,4051
351955069,-0.0019572289,-0.0007122283,-0.00028814355,3949,0,0.052881222,-0.022543078,-9.780926,3949
351959069,-0.0017409483,5.0506034e-05,0.00079683046,4000,0,0.046806015,-0.031513516,-9.752478,4000
351963069,-0.002783565,-0.000163762,-0.00068228616,4000,0,0.05861909,-0.028107608,-9.724177,4000
351967108,-0.003549225,-0.00016786325,0.0002586873,4039,0,0.0529006,-0.02898109,-9.717338,4039
351971075,-0.00074862665,4.6529432e-05,-0.0013333773,3967,0,0.05520435,-0.02887775,-9.715434,3967
351975069,-0.00034526293,-0.00016402574,0.0017601161,3994,0,0.046094026,-0.023125758,-9.7022,3994
351979068,-0.0017384865,0.0013260017,0.00047223346,3999,0,0.032632977,-0.033158734,-9.700348,3999
351983070,-0.0039560827,-0.000381354,-0.00070028374,4002,0,0.030164823,-0.036470193,-9.690512,4002
351987103,-0.0023810642,-0.0019808698,-0.00047164693,4033,0,0.027369872,-0.027500747,-9.700823,4033
351991093,-0.00014467578,-0.0015363627,0.0010377398,3990,0,0.036199592,-0.03722051,-9.717962,3990
351995101,-0.002606023,-0.0010033429,0.0014414524,4008,0,0.042750638,-0.04235761,-9.713019,4008
351999069,-0.0022742366,-0.0003748674,0.0003615925,3968,0,0.041346032,-0.036122575,-9.712997,3968
352003069,-0.0038680749,-0.0017578477,0.0007955375,4000,0,0.038968794,-0.04569375,-9.7201605,4000
352007070,-0.0007821252,-0.0019714257,0.0008128905,4001,0,0.038498238,-0.027059767,-9.723117,4001
