timestamp,roll_body,pitch_body,yaw_body,yaw_sp_move_rate,q_d[0],q_d[1],q_d[2],q_d[3],thrust_body[0],thrust_body[1],thrust_body[2],q_d_valid,roll_reset_integral,pitch_reset_integral,yaw_reset_integral,fw_control_yaw,apply_flaps
350294745,0.0,-0.0,2.3839223,0.0,0.3698385,0.0,0.0,0.92909604,0.0,0.0,-0.0,1,0,0,0,0,0
350393584,0.0,-0.0,2.3834949,0.0,0.37003705,0.0,0.0,0.929017,0.0,0.0,-0.0,1,0,0,0,0,0
350493920,0.0,-0.0,2.3831282,0.0,0.37020743,0.0,0.0,0.9289491,0.0,0.0,-0.0,1,0,0,0,0,0
350593787,0.0,-0.0,2.382787,0.0,0.37036583,0.0,0.0,0.928886,0.0,0.0,-0.0,1,0,0,0,0,0
350694685,0.0,-0.0,2.382465,0.0,0.37051544,0.0,0.0,0.92882633,0.0,0.0,-0.0,1,0,0,0,0,0
350793845,0.0,-0.0,2.3821952,0.0,0.3706407,0.0,0.0,0.9287763,0.0,0.0,-0.0,1,0,0,0,0,0
350894771,0.0,-0.0,2.3819196,0.0,0.37076864,0.0,0.0,0.92872524,0.0,0.0,-0.0,1,0,0,0,0,0
351014132,0.0,-0.0,2.3815436,0.0,0.37094325,0.0,0.0,0.92865556,0.0,0.0,-0.0,1,0,0,0,0,0
351114361,0.0,-0.0,2.3812416,0.0,0.37108347,0.0,0.0,0.92859954,0.0,0.0,-0.0,1,0,0,0,0,0
351214363,0.0,-0.0,2.3809571,0.0,0.37121558,0.0,0.0,0.9285467,0.0,0.0,-0.0,1,0,0,0,0,0
351314495,0.0,-0.0,2.3807216,0.0,0.37132493,0.0,0.0,0.928503,0.0,0.0,-0.0,1,0,0,0,0,0
351414563,0.0,-0.0,2.3804703,0.0,0.37144157,0.0,0.0,0.92845637,0.0,0.0,-0.0,1,0,0,0,0,0
351514579,0.0,-0.0,2.3802357,0.0,0.37155044,0.0,0.0,0.9284128,0.0,0.0,-0.0,1,0,0,0,0,0
351614658,0.0,-0.0,2.379912,0.0,0.3717008,0.0,0.0,0.9283526,0.0,0.0,-0.0,1,0,0,0,0,0
351714797,0.0,-0.0,2.3795877,0.0,0.3718513,0.0,0.0,0.92829233,0.0,0.0,-0.0,1,0,0,0,0,0
351814943,0.0,-0.0,2.379298,0.0,0.37198573,0.0,0.0,0.92823845,0.0,0.0,-0.0,1,0,0,0,0,0
351915346,0.0,-0.0,2.3790054,0.0,0.37212154,0.0,0.0,0.928184,0.0,0.0,-0.0,1,0,0,0,0,0
352015508,0.0,-0.0,2.3786893,0.0,0.37226823,0.0,0.0,0.9281252,0.0,0.0,-0.0,1,0,0,0,0,0
352115434,0.0,-0.0,2.3783498,0.0,0.37242582,0.0,0.0,0.92806196,0.0,0.0,-0.0,1,0,0,0,0,0
352215451,0.0,-0.0,2.3780122,0.0,0.37258244,0.0,0.0,0.9279991,0.0,0.0,-0.0,1,0,0,0,0,0
352315549,0.0,-0.0,2.3776937,0.0,0.3727302,0.0,0.0,0.9279398,0.0,0.0,-0.0,1,0,0,0,0,0
352435541,0.0,-0.0,2.3774786,0.0,0.37283003,0.0,0.0,0.92789966,0.0,0.0,-0.0,1,0,0,0,0,0
352535597,0.0,-0.0,2.3772478,0.0,0.37293708,0.0,0.0,0.9278567,0.0,0.0,-0.0,1,0,0,0,0,0
352636290,0.0,-0.0,2.3768926,0.0,0.3731018,0.0,0.0,0.9277904,0.0,0.0,-0.0,1,0,0,0,0,0
352736093,0.0,-0.0,2.3766396,0.0,0.3732192,0.0,0.0,0.92774326,0.0,0.0,-0.0,1,0,0,0,0,0
352836046,0.0,-0.0,2.376265,0.0,0.37339297,0.0,0.0,0.9276733,0.0,0.0,-0.0,1,0,0,0,0,0
352936107,0.0,-0.0,2.3759167,0.0,0.3735545,0.0,0.0,0.92760825,0.0,0.0,-0.0,1,0,0,0,0,0
353036219,0.0,-0.0,2.3755713,0.0,0.37371477,0.0,0.0,0.92754364,0.0,0.0,-0.0,1,0,0,0,0,0
353136196,0.0,-0.0,2.3753667,0.0,0.3738096,0.0,0.0,0.9275055,0.0,0.0,-0.0,1,0,0,0,0,0
353236316,0.0,-0.0,2.3751566,0.0,0.373907,0.0,0.0,0.9274662,0.0,0.0,-0.0,1,0,0,0,0,0
353336394,0.0,-0.0,2.374901,0.0,0.3740255,0.0,0.0,0.9274184,0.0,0.0,-0.0,1,0,0,0,0,0
353436586,0.0,-0.0,2.37469,0.0,0.37412333,0.0,0.0,0.92737895,0.0,0.0,-0.0,1,0,0,0,0,0
353536697,0.0,-0.0,2.3745058,0.0,0.3742088,0.0,0.0,0.92734444,0.0,0.0,-0.0,1,0,0,0,0,0
353636766,0.0,-0.0,2.3743393,0.0,0.374286,0.0,0.0,0.9273133,0.0,0.0,-0.0,1,0,0,0,0,0
353736847,0.0,-0.0,2.3741515,0.0,0.37437308,0.0,0.0,0.92727816,0.0,0.0,-0.0,1,0,0,0,0,0
353836927,0.0,-0.0,2.373938,0.0,0.37447202,0.0,0.0,0.9272382,0.0,0.0,-0.0,1,0,0,0,0,0
353957012,0.0,-0.0,2.3736372,0.0,0.37461147,0.0,0.0,0.9271819,0.0,0.0,-0.0,1,0,0,0,0,0
354057102,0.0,-0.0,2.3733206,0.0,0.3747583,0.0,0.0,0.92712253,0.0,0.0,-0.0,1,0,0,0,0,0
354157234,0.0,-0.0,2.3730783,0.0,0.37487054,0.0,0.0,0.9270772,0.0,0.0,-0.0,1,0,0,0,0,0
354257790,0.0,-0.0,2.372858,0.0,0.37497267,0.0,0.0,0.92703587,0.0,0.0,-0.0,1,0,0,0,0,0
354357540,0.0,-0.0,2.3726172,0.0,0.3750843,0.0,0.0,0.92699075,0.0,0.0,-0.0,1,0,0,0,0,0
354457896,0.0,-0.0,2.372345,0.0,0.3752105,0.0,0.0,0.9269396,0.0,0.0,-0.0,1,0,0,0,0,0
354557722,0.0,-0.0,2.3722298,0.0,0.37526384,0.0,0.0,0.9269181,0.0,0.0,-0.0,1,0,0,0,0,0
354658052,0.0,-0.0,2.3720717,0.0,0.37533715,0.0,0.0,0.92688835,0.0,0.0,-0.0,1,0,0,0,0,0
354757820,0.0,-0.0,2.3719323,0.0,0.37540177,0.0,0.0,0.9268622,0.0,0.0,-0.0,1,0,0,0,0,0
354858727,0.0,-0.0,2.3718016,0.0,0.3754623,0.0,0.0,0.9268377,0.0,0.0,-0.0,1,0,0,0,0,0
354958011,0.0,-0.0,2.3716185,0.0,0.37554714,0.0,0.0,0.9268033,0.0,0.0,-0.0,1,0,0,0,0,0
355058202,0.0,-0.0,2.3714557,0.0,0.37562266,0.0,0.0,0.9267727,0.0,0.0,-0.0,1,0,0,0,0,0
355158347,0.0,-0.0,2.3712916,0.0,0.37569866,0.0,0.0,0.9267419,0.0,0.0,-0.0,1,0,0,0,0,0
355278470,0.0,-0.0,2.370964,0.0,0.37585044,0.0,0.0,0.9266804,0.0,0.0,-0.0,1,0,0,0,0,0
355378553,0.0,-0.0,2.3707004,0.0,0.37597257,0.0,0.0,0.9266308,0.0,0.0,-0.0,1,0,0,0,0,0
355478614,0.0,-0.0,2.3704188,0.0,0.376103,0.0,0.0,0.92657787,0.0,0.0,-0.0,1,0,0,0,0,0
355578632,0.0,-0.0,2.3700883,0.0,0.37625617,0.0,0.0,0.9265157,0.0,0.0,-0.0,1,0,0,0,0,0
355678737,0.0,-0.0,2.369729,0.0,0.37642258,0.0,0.0,0.9264481,0.0,0.0,-0.0,1,0,0,0,0,0
355778811,0.0,-0.0,2.3694117,0.0,0.3765696,0.0,0.0,0.9263883,0.0,0.0,-0.0,1,0,0,0,0,0
355878979,0.0,-0.0,2.369183,0.0,0.37667546,0.0,0.0,0.9263453,0.0,0.0,-0.0,1,0,0,0,0,0
355979434,0.0,-0.0,2.3688765,0.0,0.3768175,0.0,0.0,0.92628753,0.0,0.0,-0.0,1,0,0,0,0,0
356079478,0.0,-0.0,2.3686543,0.0,0.37692043,0.0,0.0,0.9262456,0.0,0.0,-0.0,1,0,0,0,0,0
356179590,0.0,-0.0,2.3684182,0.0,0.37702972,0.0,0.0,0.92620116,0.0,0.0,-0.0,1,0,0,0,0,0
356299578,0.0,-0.0,2.3681583,0.0,0.3771501,0.0,0.0,0.92615217,0.0,0.0,-0.0,1,0,0,0,0,0
356399592,1e-44,-3.9287405e-37,2.3680656,0.0,0.37719297,1.8192713e-37,-7.4094654e-38,0.9261347,0.0,0.0,-0.12,1,0,0,0,0,0
356499642,3e-45,-2.1074129e-38,2.3680656,0.0,0.37719297,9.75874e-39,-3.974506e-39,0.9261347,0.0,0.0,-0.12,1,0,0,0,0,0
356599750,3e-45,8.22529e-40,2.3680656,0.0,0.37719297,-3.80886e-40,1.55128e-40,0.9261347,0.0,0.0,-0.12,1,0,0,0,0,0
356699902,1e-45,1.8106e-41,2.3680656,0.0,0.37719297,-8.384e-42,3.415e-42,0.9261347,0.0,0.0,-0.13080874,1,0,0,0,0,0
356800125,-1e-45,-2.4e-44,2.3680656,0.0,0.37719297,1.1e-44,-6e-45,0.9261347,0.0,0.0,-0.16369173,1,0,0,0,0,0
356900129,-1e-45,-1e-44,2.3680656,0.0,0.377193,4e-45,-3e-45,0.92613465,0.0,0.0,-0.19701916,1,0,0,0,0,0
357000145,-0.0,-0.0,2.3680656,0.0,0.377193,0.0,-0.0,0.92613465,0.0,0.0,-0.23122817,1,0,0,0,0,0
357100221,-0.0,-0.0,2.3680656,0.0,0.37719297,0.0,-0.0,0.9261347,0.0,0.0,-0.26690882,1,0,0,0,0,0
357200326,-2.1344852e-10,-0.00888688,2.3680656,0.0,0.37718925,0.0041152094,-0.0016760285,0.9261256,0.0,0.0,-0.30263284,1,0,0,0,0,0
357300386,-7.7734885e-10,-0.01374455,2.3680656,0.0,0.37718403,0.006364602,-0.0025921538,0.92611283,0.0,0.0,-0.33703518,1,0,0,0,0,0
357400569,-3.9308548e-10,-0.017671056,2.3680656,0.0,0.37717822,0.008182782,-0.0033326554,0.9260985,0.0,0.0,-0.37242365,1,0,0,0,0,0
357500693,-1.4287767e-10,-0.02249769,2.3680656,0.0,0.37716913,0.010417724,-0.0042428956,0.9260761,0.0,0.0,-0.40601173,1,0,0,0,0,0
357600758,-3.8777434e-10,-0.011859046,2.3680656,0.0,0.37718636,0.0054915044,-0.0022365612,0.92611843,0.0,0.0,-0.44517872,1,0,0,0,0,0
357700842,1.7142407e-11,0.0002984708,2.3680656,0.0,0.377193,-0.00013821208,5.629055e-05,0.92613465,0.0,0.0,-0.47478828,1,0,0,0,0,0
357820904,-2.745465e-13,4.1421868e-06,2.3680656,0.0,0.37719297,-1.9181114e-06,7.812017e-07,0.9261347,0.0,0.0,-0.47305128,1,0,0,0,0,0
357920979,7.8900526e-16,-1.1542067e-07,2.3680656,0.0,0.37719297,5.3447536e-08,-2.176793e-08,0.9261347,0.0,0.0,-0.4713039,1,0,0,0,0,0
358021121,-1.272169e-11,-0.0004491923,2.3680656,0.0,0.377193,0.0002080063,-8.47161e-05,0.92613465,0.0,0.0,-0.4657553,1,0,0,0,0,0
358121219,5.4097643e-10,-0.010529813,2.3680656,0.0,0.3771878,0.00487599,-0.0019858764,0.92612183,0.0,0.0,-0.4588978,1,0,0,0,0,0
358221532,-8.630328e-10,-0.029484816,2.3680656,0.0,0.377152,0.013652959,-0.0055605303,0.9260341,0.0,0.0,-0.46775988,1,0,0,0,0,0
358322472,2.2062879e-10,-0.008941665,2.3680656,0.0,0.37718922,0.004140579,-0.0016863609,0.92612547,0.0,0.0,-0.46789488,1,0,0,0,0,0
358421631,4.439548e-12,0.00011904288,2.3680656,0.0,0.37719297,-5.5124863e-05,2.245107e-05,0.9261347,0.0,0.0,-0.468821,1,0,0,0,0,0
358522780,2.6512424e-13,-1.7139077e-05,2.3680656,0.0,0.37719297,7.936545e-06,-3.2323694e-06,0.9261347,0.0,0.0,-0.46063334,1,0,0,0,0,0
358621769,3.2664642e-16,-2.6138116e-07,2.3680656,0.0,0.377193,1.2103708e-07,-4.929557e-08,0.92613465,0.0,0.0,-0.45994774,1,0,0,0,0,0
358722159,3.46216e-16,6.516769e-09,2.3680656,0.0,0.37719297,-3.0177025e-09,1.2290398e-09,0.9261347,0.0,0.0,-0.457198,1,0,0,0,0,0
358821860,-5.770502e-18,1.7768004e-10,2.3680656,0.0,0.37719297,-8.227781e-11,3.3509823e-11,0.9261347,0.0,0.0,-0.45381638,1,0,0,0,0,0
358922025,-1.2344716e-19,3.1579019e-12,2.3680656,0.0,0.377193,-1.4623214e-12,5.955691e-13,0.92613465,0.0,0.0,-0.4569161,1,0,0,0,0,0
359022209,-2.8520028e-11,-0.0010521727,2.3680656,0.0,0.37719294,0.00048722673,-0.00019843604,0.9261346,0.0,0.0,-0.46143436,1,0,0,0,0,0
359122336,7.4312045e-10,-0.016633404,2.3680656,0.0,0.37717992,0.0077022966,-0.003136965,0.9261027,0.0,0.0,-0.46098286,1,0,0,0,0,0
359242469,4.685223e-10,-0.022393314,2.3680656,0.0,0.37716937,0.010369395,-0.0042232117,0.9260767,0.0,0.0,-0.4574494,1,0,0,0,0,0
359342534,8.746078e-10,-0.028546298,2.3680656,0.0,0.37715456,0.013218409,-0.005383549,0.92604035,0.0,0.0,-0.45964333,1,0,0,0,0,0
359442550,-1.054195e-09,-0.09392826,2.3680656,0.0,0.37677708,0.043479122,-0.01770803,0.9251135,0.0,0.0,-0.4569732,1,0,0,0,0,0
359542630,1.980832e-09,-0.037266262,2.3680656,0.0,0.37712753,0.017255789,-0.007027878,0.92597395,0.0,0.0,-0.45612186,1,0,0,0,0,0
359642689,1.3109536e-12,0.0018951357,2.3680656,0.0,0.37719283,-0.00087757525,0.00035741588,0.9261343,0.0,0.0,-0.46846136,1,0,0,0,0,0
359742805,-4.5120136e-12,-9.555875e-05,2.3680656,0.0,0.37719297,4.4250133e-05,-1.8022045e-05,0.9261347,0.0,0.0,-0.48383313,1,0,0,0,0,0
359843303,-9.0008005e-14,-1.903447e-06,2.3680656,0.0,0.377193,8.814241e-07,-3.5898344e-07,0.92613465,0.0,0.0,-0.45256615,1,0,0,0,0,0
359943371,2.1789536e-16,1.3278922e-08,2.3680656,0.0,0.37719297,-6.1490346e-09,2.5043578e-09,0.9261347,0.0,0.0,-0.46559143,1,0,0,0,0,0
360043539,3.2059155e-17,8.586814e-10,2.3680656,0.0,0.377193,-3.9762732e-10,1.619443e-10,0.92613465,0.0,0.0,-0.45514917,1,0,0,0,0,0
360143489,1.7768545e-18,2.8861573e-11,2.3680656,0.0,0.37719297,-1.336485e-11,5.4431915e-12,0.9261347,0.0,0.0,-0.4565454,1,0,0,0,0,0
360243517,-5.8181094e-22,5.644745e-14,2.3680656,0.0,0.377193,-2.6138971e-14,1.06457904e-14,0.92613465,0.0,0.0,-0.45533693,1,0,0,0,0,0
360343518,-3.085061e-21,-3.0803908e-14,2.374731,-0.095652565,0.37410432,1.4283566e-14,-5.7619395e-15,0.9273866,0.0,0.0,-0.45270187,1,0,0,0,0,0
360463948,-2.7093735e-24,-2.0635689e-16,2.368616,-0.41950247,0.37693805,9.5567836e-17,-3.8891875e-17,0.92623854,0.0,0.0,-0.4471972,1,0,0,0,0,0
360563621,-9.419988e-26,-2.8247813e-18,2.3586884,-0.46306196,0.38153115,1.3055518e-18,-5.38871e-19,0.924356,0.0,0.0,-0.44468287,1,0,0,0,0,0
360664116,-1.0474152e-28,3.8787675e-20,2.346694,-0.49067625,0.38706774,-1.7882113e-20,7.5067295e-21,0.92205125,0.0,0.0,-0.44633695,1,0,0,0,0,0
360763937,-1.8122991e-28,5.3049314e-21,2.3362665,-0.50125116,0.3918698,-2.4403232e-21,1.039421e-21,0.9200207,0.0,0.0,-0.44352645,1,0,0,0,0,0
360864334,9.514259e-30,-1.186774e-22,2.3191583,-0.5138119,0.39972532,5.439192e-23,-2.3719172e-23,0.916635,0.0,0.0,-0.44457582,1,0,0,0,0,0
360964128,2.4876579e-09,-0.053790655,2.2989194,-0.44164085,0.40883264,0.024540186,-0.010998338,0.9122131,0.0,0.0,-0.44881102,1,0,0,0,0,0
361064162,-2.8265046e-09,-0.030132793,2.2809036,-0.18151283,0.4171366,0.013692153,-0.006285221,0.90871894,0.0,0.0,-0.44269642,1,0,0,0,0,0
361164214,-7.613914e-10,-0.033346407,2.2753258,-0.18940644,0.4196586,0.015132815,-0.006997701,0.90752894,0.0,0.0,-0.45068976,1,0,0,0,0,0
361264293,9.007053e-10,-0.027690992,2.2707682,-0.1860857,0.4217438,0.012553256,-0.005839624,0.90660936,0.0,0.0,-0.44600347,1,0,0,0,0,0
361364421,-5.4800144e-12,5.8985406e-05,2.2649212,-0.20149349,0.4244331,-2.670444e-05,1.2517675e-05,0.9054593,0.0,0.0,-0.49759027,1,0,0,0,0,0
361464583,-1.4863794e-13,-2.4489354e-05,2.2570422,-0.1746668,0.42799693,1.1066496e-05,-5.2406835e-06,0.9037802,0.0,0.0,-0.525968,1,0,0,0,0,0
361564727,-1.6673986e-14,-3.332241e-07,2.243734,-0.18299747,0.43400127,1.5010286e-07,-7.230985e-08,0.9009122,0.0,0.0,-0.50529915,1,0,0,0,0,0
361664832,-9.0415685e-17,1.1391827e-08,2.225516,-0.18109354,0.44218946,-5.108788e-09,2.5186728e-09,0.8969217,0.0,0.0,-0.48369172,1,0,0,0,0,0
361764922,-1.1161486e-17,2.657879e-10,2.2043414,-0.13675809,0.4516605,-1.1856661e-10,6.0022924e-11,0.8921899,0.0,0.0,-0.47406858,1,0,0,0,0,0
361884948,-1.9249794e-19,4.2506723e-12,2.1802826,-0.08995729,0.4623601,-1.884519e-12,9.826704e-13,0.8866923,0.0,0.0,-0.46762756,1,0,0,0,0,0
361985066,2.7583014e-21,-9.086649e-14,2.163379,-0.15781116,0.46983764,4.0106322e-14,-2.1346245e-14,0.88275284,0.0,0.0,-0.47267804,1,0,0,0,0,0
362085192,9.46319e-23,-2.697061e-15,2.140125,-0.43303588,0.4800694,1.1829721e-15,-6.473882e-16,0.8772305,0.0,0.0,-0.50261533,1,0,0,0,0,0
362185239,1.39449e-24,-3.3217032e-17,2.1015725,-0.6126924,0.49688885,1.4413104e-17,-8.2525866e-18,0.8678142,0.0,0.0,-0.5114035,1,0,0,0,0,0
362286717,-2.2166557e-26,5.5409986e-19,2.0471563,-0.60909736,0.5203136,-2.3659377e-19,1.4415286e-19,0.85397536,0.0,0.0,-0.5020047,1,0,0,0,0,0
362385681,1.1294732e-28,6.744555e-20,1.9903737,-0.5965238,0.54434615,-2.8288708e-20,1.8356862e-20,0.83886063,0.0,0.0,-0.49781746,1,0,0,0,0,0
362486499,3.4196556e-29,6.5813184e-22,1.9309441,-0.5469445,0.5690288,-2.7059668e-22,1.8724798e-22,0.8223176,0.0,0.0,-0.5010966,1,0,0,0,0,0
362585743,-1.8166842e-31,-4.4789607e-23,1.8730153,-0.5215316,0.5926047,1.8038867e-23,-1.3271267e-23,0.8054935,0.0,0.0,-0.50678253,1,0,0,0,0,0
362686176,6.2465946e-33,-8.0879325e-25,1.8171111,-0.5124286,0.6148855,3.189138e-25,-2.486576e-25,0.7886164,0.0,0.0,-0.52079564,1,0,0,0,0,0
362785830,3.243717e-34,1.0532886e-26,1.7634975,-0.46522853,0.6358023,-4.064914e-27,3.348417e-27,0.771852,0.0,0.0,-0.53318304,1,0,0,0,0,0
362885955,-3.3888933e-10,-0.031954825,1.7136092,-0.44727644,0.65477216,0.012074478,-0.0104624545,0.7556575,0.0,0.0,-0.51918536,1,0,0,0,0,0
362986020,-2.2196812e-10,-0.050238993,1.6659198,-0.42203096,0.6724764,0.018584603,-0.016895823,0.7396923,0.0,0.0,-0.50891566,1,0,0,0,0,0
363106325,6.607942e-11,-0.053702056,1.6114146,-0.41022214,0.6923516,0.019365875,-0.01859482,0.7210607,0.0,0.0,-0.5130461,1,0,0,0,0,0
363206366,-1.3131967e-11,-0.05176238,1.5661918,-0.37599036,0.7084955,0.018256543,-0.018340802,0.70524067,0.0,0.0,-0.52444506,1,0,0,0,0,0
363306454,-2.5585625e-10,-0.065656975,1.5222193,-0.35010356,0.723681,0.022638572,-0.02376589,0.6893538,0.0,0.0,-0.52107996,1,0,0,0,0,0
363406568,-7.246765e-10,-0.06805358,1.4813244,-0.26140413,0.73759466,0.022956055,-0.025107669,0.6743862,0.0,0.0,-0.5050001,1,0,0,0,0,0
363506580,8.8147634e-10,-0.065289654,1.4432439,-0.2129093,0.7503353,0.02156145,-0.024503272,0.66025126,0.0,0.0,-0.5163184,1,0,0,0,0,0
363606650,-6.024234e-11,-0.04882923,1.4176545,0.0,0.7588995,0.015890969,-0.018531924,0.65075004,0.0,0.0,-0.4939313,1,0,0,0,0,0
363706750,-4.8393817e-10,-0.044983853,1.4176545,-0.0,0.7589338,0.014639749,-0.017072763,0.65077937,0.0,0.0,-0.4921155,1,0,0,0,0,0
363806940,-5.443383e-10,-0.046093762,1.4176545,-0.0,0.7589242,0.0150009,-0.017493933,0.6507711,0.0,0.0,-0.50201344,1,0,0,0,0,0
363907355,-6.551445e-11,-0.016178468,1.4176545,-0.0,0.759101,0.0052655805,-0.0061406787,0.65092266,0.0,0.0,-0.5099181,1,0,0,0,0,0
364007433,-4.962757e-11,-0.019334301,1.4176545,0.0,0.7590903,0.0062926756,-0.0073384694,0.6509136,0.0,0.0,-0.5623676,1,0,0,0,0,0
364107419,8.667917e-11,-0.011809562,1.4176545,0.0,0.75911254,0.00384366,-0.004482446,0.65093267,0.0,0.0,-0.53655475,1,0,0,0,0,0
364207492,-6.202658e-11,-0.0075372206,1.4176545,-0.0,0.7591204,0.0024531481,-0.0028608423,0.65093935,0.0,0.0,-0.5103306,1,0,0,0,0,0
364307565,-1.3538837e-10,-0.0068025305,1.4176545,-0.0,0.75912136,0.002214029,-0.0025819833,0.6509403,0.0,0.0,-0.49297607,1,0,0,0,0,0
364407547,-1.0680431e-10,-0.0049676904,1.4176545,-0.0,0.75912344,0.0016168421,-0.0018855489,0.6509419,0.0,0.0,-0.50461465,1,0,0,0,0,0
364527617,7.493781e-13,0.000157268,1.4176545,0.0,0.75912577,-5.118633e-05,5.9693095e-05,0.65094393,0.0,0.0,-0.5215083,1,0,0,0,0,0
364627770,-4.0408096e-15,2.6839923e-06,1.4176545,0.0,0.75912577,-8.7356426e-07,1.0187439e-06,0.65094393,0.0,0.0,-0.52993804,1,0,0,0,0,0
364727899,-1.884439e-11,-0.0012041908,1.4176545,0.0,0.75912565,0.00039193034,-0.00045706614,0.6509439,0.0,0.0,-0.5214207,1,0,0,0,0,0
364827992,5.080111e-12,-0.0024121548,1.4176545,0.0,0.7591253,0.0007850885,-0.0009155642,0.65094346,0.0,0.0,-0.5238808,1,0,0,0,0,0
364928334,-6.3728207e-12,-0.0005469259,1.4176545,-0.0,0.75912577,0.00017800904,-0.00020759276,0.65094393,0.0,0.0,-0.5164998,1,0,0,0,0,0
365028130,-1.8195623e-14,-1.1645371e-05,1.4176545,-0.0,0.75912577,3.7902419e-06,-4.4201506e-06,0.65094393,0.0,0.0,-0.50782233,1,0,0,0,0,0
365128354,-9.6830054e-17,3.718574e-08,1.4176545,0.0,0.75912577,-1.2102916e-08,1.4114327e-08,0.65094393,0.0,0.0,-0.50856066,1,0,0,0,0,0
365228306,5.9148762e-12,-0.006031545,1.4176545,0.0,0.7591223,0.001963096,-0.0022893471,0.6509411,0.0,0.0,-0.50381553,1,0,0,0,0,0
365328378,6.703009e-11,-0.008670432,1.4176545,0.0,0.7591187,0.0028219733,-0.0032909636,0.65093786,0.0,0.0,-0.5119343,1,0,0,0,0,0
365428512,1.0931804e-10,-0.009725608,1.4176545,-0.0,0.75911677,0.0031654001,-0.0036914651,0.6509363,0.0,0.0,-0.5151772,1,0,0,0,0,0
365528710,3.6775097e-11,-0.014591263,1.4176545,-0.0,0.7591056,0.0047490047,-0.0055382526,0.6509267,0.0,0.0,-0.5325627,1,0,0,0,0,0
365628746,-2.6382446e-10,-0.022227038,1.4176545,-0.0,0.7590789,0.0072341277,-0.008436385,0.65090376,0.0,0.0,-0.543789,1,0,0,0,0,0
365728851,3.8404577e-10,-0.029752184,1.4176545,0.0,0.7590418,0.009683145,-0.011292409,0.650872,0.0,0.0,-0.52774584,1,0,0,0,0,0
365828931,3.772855e-10,-0.03756268,1.4176545,0.0,0.75899196,0.012224881,-0.01425656,0.6508292,0.0,0.0,-0.5169205,1,0,0,0,0,0
365949002,4.5585558e-10,-0.044244036,1.4176545,0.0,0.75894004,0.014399019,-0.016792025,0.6507847,0.0,0.0,-0.5526481,1,0,0,0,0,0
366049157,-2.4862315e-10,-0.046594415,1.4176545,-0.0,0.7589198,0.015163804,-0.017683912,0.6507674,0.0,0.0,-0.49358845,1,0,0,0,0,0
366149288,2.4081276e-10,-0.04460378,1.4176545,-0.0,0.758937,0.014516076,-0.016928535,0.6507821,0.0,0.0,-0.4533587,1,0,0,0,0,0
366250190,-9.870464e-10,-0.04281977,1.4176545,-0.0,0.7589518,0.01393557,-0.016251555,0.65079486,0.0,0.0,-0.4786473,1,0,0,0,0,0
366349579,-1.0407708e-09,-0.041086838,1.4176545,0.0,0.7589656,0.0133716725,-0.015593942,0.65080667,0.0,0.0,-0.5085535,1,0,0,0,0,0
366450764,-1.1250076e-09,-0.042052347,1.4176545,0.0,0.758958,0.01368585,-0.015960334,0.6508001,0.0,0.0,-0.5255956,1,0,0,0,0,0
366549718,1.5031222e-10,-0.04676388,1.4176545,0.0,0.7589183,0.015218944,-0.017748214,0.65076596,0.0,0.0,-0.53069884,1,0,0,0,0,0
366650380,2.480914e-10,-0.05454712,1.4176545,0.0,0.7588435,0.017751357,-0.020701496,0.65070194,0.0,0.0,-0.5562994,1,0,0,0,0,0
366749815,8.371117e-10,-0.062359553,1.4176545,0.0,0.7587568,0.020292997,-0.023665538,0.6506276,0.0,0.0,-0.55935967,1,0,0,0,0,0
366850390,-1.6511634e-09,-0.063304074,1.4176545,0.0,0.75874555,0.02060026,-0.024023864,0.65061796,0.0,0.0,-0.53291374,1,0,0,0,0,0
366949997,-5.335902e-10,-0.05904879,1.4176545,0.0,0.75879496,0.019215934,-0.022409474,0.6506603,0.0,0.0,-0.5281071,1,0,0,0,0,0
367050352,4.442543e-11,-0.06097743,1.4176545,0.0,0.75877297,0.01984337,-0.023141183,0.65064144,0.0,0.0,-0.52969,1,0,0,0,0,0
367170430,1.6234923e-10,-0.056099035,1.4176545,0.0,0.75882715,0.018256271,-0.02129032,0.65068793,0.0,0.0,-0.52146626,1,0,0,0,0,0
367270517,-6.8487094e-10,-0.05553929,1.4176545,0.0,0.7588331,0.018074159,-0.021077944,0.650693,0.0,0.0,-0.51716423,1,0,0,0,0,0
367370553,-1.8865279e-10,-0.05545572,1.4176545,0.0,0.758834,0.018046968,-0.021046234,0.6506937,0.0,0.0,-0.51937795,1,0,0,0,0,0
367470568,-2.609427e-10,-0.052431308,1.4176545,0.0,0.75886494,0.017062964,-0.019898698,0.65072036,0.0,0.0,-0.5302283,1,0,0,0,0,0
367570599,6.746454e-10,-0.041201703,1.4176545,0.0,0.75896466,0.013409052,-0.015637532,0.65080583,0.0,0.0,-0.5248907,1,0,0,0,0,0
367670681,-2.0943418e-10,-0.039867047,1.4176545,0.0,0.75897497,0.012974747,-0.015131049,0.65081465,0.0,0.0,-0.522937,1,0,0,0,0,0
367770796,-3.133404e-10,-0.040059436,1.4176545,0.0,0.75897354,0.013037353,-0.015204059,0.65081346,0.0,0.0,-0.5187381,1,0,0,0,0,0
367870975,-1.0496216e-10,-0.024770068,1.4176545,0.0,0.75906754,0.008061756,-0.009401558,0.6508941,0.0,0.0,-0.52012724,1,0,0,0,0,0
367971350,2.9978606e-10,-0.033738095,1.4176545,0.0,0.75901777,0.010980284,-0.012805122,0.6508513,0.0,0.0,-0.5232776,1,0,0,0,0,0
368071412,-1.5104747e-10,-0.025219293,1.4176545,0.0,0.75906545,0.008207955,-0.009572053,0.6508922,0.0,0.0,-0.5387615,1,0,0,0,0,0
368171572,-4.0775436e-10,-0.022012664,1.4176545,0.0,0.7590798,0.0071643605,-0.0083550215,0.65090454,0.0,0.0,-0.5524218,1,0,0,0,0,0
368271562,-2.3351895e-10,-0.022697702,1.4176545,0.0,0.7590769,0.007387308,-0.008615021,0.6509021,0.0,0.0,-0.5436752,1,0,0,0,0,0
368391488,-3.342258e-11,-0.0097877905,1.4176545,0.0,0.7591167,0.0031856385,-0.0037150672,0.6509361,0.0,0.0,-0.5305157,1,0,0,0,0,0
368491529,-3.3734383e-11,-0.0056957644,1.4176545,0.0,0.7591227,0.0018538092,-0.002161898,0.6509413,0.0,0.0,-0.5367301,1,0,0,0,0,0
368591742,-1.9025049e-11,-0.0025696058,1.4176545,0.0,0.7591252,0.0008363345,-0.00097532675,0.6509434,0.0,0.0,-0.52528346,1,0,0,0,0,0
368691802,2.0055823e-11,-0.0014681928,1.4176545,0.0,0.7591256,0.00047785556,-0.0005572714,0.65094376,0.0,0.0,-0.5167072,1,0,0,0,0,0
368792014,-1.378196e-12,-6.913026e-05,1.4176545,0.0,0.75912577,2.2499964e-05,-2.6239282e-05,0.65094393,0.0,0.0,-0.5235193,1,0,0,0,0,0
368892059,-8.645939e-10,-0.032189187,1.4176545,0.0,0.7590275,0.010476225,-0.0122172935,0.6508596,0.0,0.0,-0.5229761,1,0,0,0,0,0
368992146,1.1511376e-09,-0.0429959,1.4176545,0.0,0.7589504,0.013992883,-0.01631839,0.65079355,0.0,0.0,-0.51663214,1,0,0,0,0,0
369092188,-1.7129391e-10,-0.042588174,1.4176545,0.0,0.7589537,0.013860209,-0.01616367,0.6507964,0.0,0.0,-0.52641726,1,0,0,0,0,0
369192282,4.1675724e-10,-0.050409716,1.4176545,0.0,0.75888467,0.016405214,-0.019131633,0.6507372,0.0,0.0,-0.52918094,1,0,0,0,0,0
369292353,1.2490929e-10,-0.041849554,1.4176545,0.0,0.7589596,0.013619863,-0.015883379,0.6508015,0.0,0.0,-0.5287932,1,0,0,0,0,0
369392419,-2.6605226e-10,-0.041141707,1.4176545,0.0,0.75896513,0.013389528,-0.015614765,0.65080625,0.0,0.0,-0.5237332,1,0,0,0,0,0
369492674,2.0703546e-10,-0.034406606,1.4176545,0.0,0.7590135,0.011197833,-0.013058827,0.6508476,0.0,0.0,-0.52762264,1,0,0,0,0,0
369612786,3.207454e-10,-0.029940575,1.4176545,0.0,0.7590407,0.009744455,-0.011363908,0.6508711,0.0,0.0,-0.5431309,1,0,0,0,0,0
369712922,-6.195495e-11,-0.040410757,1.4176545,0.0,0.7589708,0.0131516745,-0.0153373815,0.6508112,0.0,0.0,-0.52428365,1,0,0,0,0,0
369812979,-1.8579312e-10,-0.03793115,1.4176545,0.0,0.7589893,0.012344788,-0.0143963955,0.65082693,0.0,0.0,-0.5339317,1,0,0,0,0,0
369912997,2.2394905e-12,-0.031938855,1.4176545,0.0,0.75902903,0.01039476,-0.012122287,0.65086097,0.0,0.0,-0.5447404,1,0,0,0,0,0
370013165,-4.2701442e-10,-0.035296112,1.4176545,0.0,0.7590076,0.011487298,-0.013396399,0.65084255,0.0,0.0,-0.53902334,1,0,0,0,0,0
370113210,-3.1148362e-10,-0.030388223,1.4176545,0.0,0.7590382,0.0098901335,-0.011533797,0.65086883,0.0,0.0,-0.53115726,1,0,0,0,0,0
370213338,-1.5829851e-10,-0.029869514,1.4176545,0.0,0.7590411,0.009721329,-0.011336938,0.6508714,0.0,0.0,-0.5265851,1,0,0,0,0,0
370313646,2.4018867e-11,-0.01817495,1.4176545,0.0,0.7590945,0.0059153554,-0.006898442,0.6509171,0.0,0.0,-0.5245207,1,0,0,0,0,0
370414353,2.6127251e-11,-0.019197866,1.4176545,0.0,0.7590908,0.006248272,-0.007286686,0.650914,0.0,0.0,-0.52406865,1,0,0,0,0,0
370513688,-2.68022e-10,-0.012654063,1.4176545,0.0,0.75911057,0.004118515,-0.004802981,0.650931,0.0,0.0,-0.5291505,1,0,0,0,0,0
370614678,-2.2041544e-10,-0.026607126,1.4176545,0.0,0.7590586,0.008659619,-0.0100987805,0.6508864,0.0,0.0,-0.5268068,1,0,0,0,0,0
370713769,8.228621e-12,-0.0014441987,1.4176545,0.0,0.7591256,0.0004700462,-0.0005481642,0.6509438,0.0,0.0,-0.53412175,1,0,0,0,0,0
370813862,-2.398954e-13,-5.4281638e-05,1.4176545,0.0,0.75912577,1.7667153e-05,-2.0603295e-05,0.65094393,0.0,0.0,-0.5025435,1,0,0,0,0,0
370934004,-5.1682033e-17,-1.6803192e-07,1.4176545,0.0,0.75912577,5.4689682e-08,-6.377868e-08,0.65094393,0.0,0.0,-0.5085019,1,0,0,0,0,0
371034148,4.099492e-17,1.086683e-08,1.4176545,0.0,0.75912577,-3.5368488e-09,4.1246455e-09,0.65094393,0.0,0.0,-0.5228948,1,0,0,0,0,0
371134404,-2.3154117e-18,7.5791745e-10,1.4176545,0.0,0.75912577,-2.466809e-10,2.8767733e-10,0.65094393,0.0,0.0,-0.5287356,1,0,0,0,0,0
371234442,1.9512636e-11,-0.0007398636,1.4176545,0.0,0.75912577,0.00024080485,-0.00028082475,0.65094393,0.0,0.0,-0.53253686,1,0,0,0,0,0
371334509,4.8295645e-11,-0.02263148,1.4176545,-0.0,0.7590772,0.0073657557,-0.008589887,0.65090233,0.0,0.0,-0.5332534,1,0,0,0,0,0
371434524,1.61005e-13,-7.422609e-05,1.4176545,0.0,0.75912577,2.4158511e-05,-2.8173468e-05,0.65094393,0.0,0.0,-0.5402349,1,0,0,0,0,0
371534586,3.9928266e-14,5.8863166e-06,1.4176545,0.0,0.75912577,-1.915831e-06,2.2342274e-06,0.65094393,0.0,0.0,-0.53684086,1,0,0,0,0,0
371634666,7.2180336e-16,3.9092623e-07,1.4176545,-0.0,0.75912577,-1.2723554e-07,1.4838109e-07,0.65094393,0.0,0.0,-0.5242071,1,0,0,0,0,0
371734769,-1.240781e-17,2.8456675e-09,1.4176545,-0.0,0.75912577,-9.26185e-10,1.0801098e-09,0.65094393,0.0,0.0,-0.51882136,1,0,0,0,0,0
371834967,6.447304e-19,-3.096849e-10,1.4176545,-0.0,0.75912577,1.00793755e-10,-1.1754489e-10,0.65094393,0.0,0.0,-0.5330764,1,0,0,0,0,0
371935298,-1.7213112e-22,-4.9745533e-12,1.4176545,-0.0,0.75912577,1.6190777e-12,-1.8881559e-12,0.65094393,0.0,0.0,-0.5392339,1,0,0,0,0,0
372035513,2.3102815e-22,1.0474473e-13,1.4176545,0.0,0.75912577,-3.4091474e-14,3.9757213e-14,0.65094393,0.0,0.0,-0.5294362,1,0,0,0,0,0
372135504,2.5101806e-24,3.1360387e-15,1.4176545,0.0,0.75912577,-1.0206927e-15,1.190324e-15,0.65094393,0.0,0.0,-0.51683193,1,0,0,0,0,0
372255538,-4.695389e-26,1.3917848e-17,1.4176545,0.0,0.75912577,-4.5298697e-18,5.282699e-18,0.65094393,0.0,0.0,-0.5299582,1,0,0,0,0,0
372355516,-7.2418926e-27,4.0438477e-19,1.4176545,0.0,0.75912577,-1.3161591e-19,1.5348945e-19,0.65094393,0.0,0.0,-0.5786776,1,0,0,0,0,0
372456421,-1.5598025e-29,4.637193e-21,1.4176545,0.0,0.75912577,-1.5092765e-21,1.7601065e-21,0.65094393,0.0,0.0,-0.5456024,1,0,0,0,0,0
372555590,1.2923304e-11,0.0014835206,1.4176545,0.0,0.7591256,-0.00048284433,0.0005630893,0.6509439,0.0,0.0,-0.51819205,1,0,0,0,0,0
372656016,-1.2101706e-10,0.017228277,1.4176545,-0.0,0.75909764,-0.005607251,0.0065391334,0.65091985,0.0,0.0,-0.51409507,1,0,0,0,0,0
372755944,-3.5944074e-11,0.013913494,1.4176545,-0.0,0.7591075,-0.0045284154,0.0052810027,0.65092826,0.0,0.0,-0.4940247,1,0,0,0,0,0
372856013,2.0973166e-10,0.009917689,1.4176545,0.0,0.7591165,-0.0032279163,0.003764371,0.65093607,0.0,0.0,-0.49258852,1,0,0,0,0,0
372956090,8.530716e-11,0.023241559,1.4176545,0.0,0.75907457,-0.007564306,0.008821434,0.6509,0.0,0.0,-0.49349204,1,0,0,0,0,0
373056156,1.4642403e-10,0.044851914,1.4176545,0.0,0.7589349,-0.014596817,0.017022695,0.65078026,0.0,0.0,-0.5373467,1,0,0,0,0,0
373156267,4.7058e-11,0.06019828,1.4176545,-0.0,0.75878197,-0.019589894,0.022845583,0.6506491,0.0,0.0,-0.55718863,1,0,0,0,0,0
373256320,4.3742887e-10,0.07375785,1.4176545,-0.0,0.75860965,-0.024000667,0.027989393,0.6505013,0.0,0.0,-0.5708349,1,0,0,0,0,0
373356427,1.260065e-09,0.089019716,1.4176545,0.0,0.758374,-0.028963856,0.033777423,0.65029925,0.0,0.0,-0.5467282,1,0,0,0,0,0
373456564,-6.388478e-10,0.08695425,1.4176545,0.0,0.7584085,-0.028292255,0.032994203,0.65032876,0.0,0.0,-0.5316833,1,0,0,0,0,0
373556705,-6.7155276e-10,0.07698139,1.4176545,0.0,0.7585635,-0.0250491,0.029212063,0.65046185,0.0,0.0,-0.523746,1,0,0,0,0,0
373676799,-4.5559087e-10,0.07446976,1.4176545,0.0,0.7585996,-0.024232218,0.028259426,0.6504928,0.0,0.0,-0.52151877,1,0,0,0,0,0
373776884,-1.5086259e-10,0.03655644,1.4176545,-0.0,0.758999,-0.011897434,0.013874695,0.6508353,0.0,0.0,-0.51578045,1,0,0,0,0,0
373876916,9.2326554e-12,-0.0011796895,1.4176545,-0.0,0.75912565,0.0003839559,-0.00044776636,0.6509439,0.0,0.0,-0.5194804,1,0,0,0,0,0
373977155,-2.8988998e-14,9.883422e-06,1.4176545,0.0,0.75912577,-3.2167768e-06,3.75138e-06,0.65094393,0.0,0.0,-0.5282761,1,0,0,0,0,0
374077181,0.00073423004,5.5322954e-07,1.4176545,0.0,0.75912577,0.0002785064,0.00023918127,0.6509439,0.0,0.0,-0.52960664,1,0,0,0,0,0
374177213,0.029527334,1.2665301e-08,1.4176545,0.0,0.75904304,0.011207068,0.009609975,0.65087306,0.0,0.0,-0.5138141,1,0,0,0,0,0
374278155,0.07476898,-4.701635e-10,1.4176545,0.0,0.75859535,0.02837292,0.02432954,0.6504892,0.0,0.0,-0.5155526,1,0,0,0,0,0
374377624,0.07798794,9.105433e-10,1.4176545,-0.0,0.7585487,0.029593825,0.025376456,0.65044916,0.0,0.0,-0.5293208,1,0,0,0,0,0
374477991,0.08296539,4.4164328e-10,1.4176545,-0.0,0.7584727,0.03148155,0.026995167,0.6503839,0.0,0.0,-0.5448395,1,0,0,0,0,0
374577713,0.0850523,-2.0130801e-10,1.4176545,0.0,0.7584395,0.032272965,0.027673794,0.65035546,0.0,0.0,-0.53979194,1,0,0,0,0,0
374677737,0.07394274,4.9163902e-11,1.4176545,0.0,0.75860703,0.02805953,0.02406081,0.65049917,0.0,0.0,-0.52761894,1,0,0,0,0,0
374777813,0.020057743,0.016520381,1.4176545,0.0,0.75911564,0.0022361977,0.012798038,0.65082616,0.0,0.0,-0.5724551,1,0,0,0,0,0
374877892,0.01771509,0.011105287,1.4176545,0.0,0.7591163,0.0031095007,0.00998057,0.6508711,0.0,0.0,-0.54275656,1,0,0,0,0,0
374978014,0.0077398308,0.015188075,1.4176545,0.0,0.75911736,-0.0020055478,0.00828375,0.65089804,0.0,0.0,-0.5117512,1,0,0,0,0,0
375078332,-0.00036833287,0.02896813,1.4176545,0.0,0.7590444,-0.009567774,0.010874974,0.6508777,0.0,0.0,-0.49660245,1,0,0,0,0,0
375198455,-6.1222695e-06,0.071784005,1.4176545,0.0,0.75863683,-0.02336099,0.027238702,0.65052474,0.0,0.0,-0.5087567,1,0,0,0,0,0
375298487,-6.6274694e-08,0.07189474,1.4176545,0.0,0.75863534,-0.023394708,0.027282678,0.6505234,0.0,0.0,-0.5365283,1,0,0,0,0,0
375398581,3.2746653e-10,0.082939334,1.4176545,0.0,0.75847316,-0.026986688,0.03147167,0.65038425,0.0,0.0,-0.5559167,1,0,0,0,0,0
375498582,1.5804965e-09,0.09566962,1.4176545,0.0,0.75825745,-0.031125907,0.036298793,0.65019935,0.0,0.0,-0.56125134,1,0,0,0,0,0
375598620,1.2465635e-09,0.103934474,1.4176545,0.0,0.758101,-0.033812538,0.039431915,0.6500652,0.0,0.0,-0.5592789,1,0,0,0,0,0
375698731,-2.7361002e-10,0.090620905,1.4176545,0.0,0.7583466,-0.029484477,0.034384567,0.6502759,0.0,0.0,-0.5290862,1,0,0,0,0,0
375798941,0.0011007376,0.033206858,1.4176545,0.0,0.75902694,-0.010389662,0.01296172,0.65084726,0.0,0.0,-0.5086423,1,0,0,0,0,0
375898970,0.041658994,-0.00016896613,1.4176545,0.0,0.75895995,0.015866049,0.013493738,0.6508041,0.0,0.0,-0.5070808,1,0,0,0,0,0
375999434,0.07765453,-2.1238733e-05,1.4176545,0.0,0.7585534,0.029474284,0.025259972,0.6504537,0.0,0.0,-0.52515286,1,0,0,0,0,0
376099514,0.07729128,-2.0906126e-07,1.4176545,0.0,0.758559,0.02932967,0.02514981,0.6504579,0.0,0.0,-0.50649256,1,0,0,0,0,0
376199576,0.070071794,1.3835566e-08,1.4176545,0.0,0.7586599,0.026591206,0.022801744,0.65054446,0.0,0.0,-0.5121603,1,0,0,0,0,0
376299551,0.040867638,1.0265372e-10,1.4176545,0.0,0.75896734,0.015510757,0.013300344,0.65080804,0.0,0.0,-0.5390808,1,0,0,0,0,0
376399826,-0.0023117152,-1.8998764e-11,1.4176545,0.0,0.7591253,-0.0008774411,-0.0007523982,0.6509435,0.0,0.0,-0.53723973,1,0,0,0,0,0
376520416,-1.4172142e-05,1.4473542e-13,1.4176545,0.0,0.75912577,-5.379219e-06,-4.612635e-06,0.65094393,0.0,0.0,-0.541888,1,0,0,0,0,0
376619650,-2.9487109e-07,-8.954585e-16,1.4176545,0.0,0.75912577,-1.1192212e-07,-9.5972275e-08,0.65094393,0.0,0.0,-0.53794885,1,0,0,0,0,0
376719935,1.3195396e-09,-2.0893848e-17,1.4176545,0.0,0.75912577,5.0084825e-10,4.2947315e-10,0.65094393,0.0,0.0,-0.5258556,1,0,0,0,0,0
376820005,1.2362975e-10,-1.6756128e-18,1.4176545,0.0,0.75912577,4.6925266e-11,4.023802e-11,0.65094393,0.0,0.0,-0.52124393,1,0,0,0,0,0
376920134,3.1228078e-12,-2.3292766e-20,1.4176545,0.0,0.75912577,1.185302e-12,1.0163864e-12,0.65094393,0.0,0.0,-0.5270518,1,0,0,0,0,0
377020179,1.693973e-14,7.751101e-22,1.4176545,0.0,0.75912577,6.429693e-15,5.5134073e-15,0.65094393,0.0,0.0,-0.53362757,1,0,0,0,0,0
377120206,-9.156199e-16,1.5830861e-25,1.4176545,0.0,0.75912577,-3.4753532e-16,-2.9800858e-16,0.65094393,0.0,0.0,-0.5344276,1,0,0,0,0,0
377220329,-6.711079e-17,-2.8039775e-25,1.5802405,0.0,0.7037599,-2.361494e-17,-2.3839024e-17,0.7104379,0.0,0.0,-0.5345061,1,0,0,0,0,0
377320392,-5.22897e-19,-5.6097536e-27,1.5802405,0.0,0.7037599,-1.8399696e-19,-1.8574292e-19,0.7104379,0.0,0.0,-0.54129344,1,0,0,0,0,0
377420433,5.1387374e-20,2.2065479e-29,1.5802405,0.0,0.7037599,1.8082184e-20,1.8253766e-20,0.7104379,0.0,0.0,-0.5548991,1,0,0,0,0,0
377520639,8.4381813e-22,3.6379293e-30,1.5802405,0.0,0.7037599,2.9692265e-22,2.9974013e-22,0.7104379,0.0,0.0,-0.5395357,1,0,0,0,0,0
377620786,9.112915e-24,5.7961393e-32,1.5802405,0.0,0.7037599,3.206652e-24,3.2370799e-24,0.7104379,0.0,0.0,-0.5283273,1,0,0,0,0,0
377720853,-5.1494286e-25,-4.0543719e-35,1.5802405,0.0,0.7037599,-1.8119806e-25,-1.8291744e-25,0.7104379,0.0,0.0,-0.5301601,1,0,0,0,0,0
377840956,-9.8588785e-27,-1.3694783e-35,1.5802405,0.0,0.7037599,-3.4691414e-27,-3.50206e-27,0.7104379,0.0,0.0,-0.5291831,1,0,0,0,0,0
377941149,-1.3107281e-28,-5.7659423e-37,1.5802405,0.0,0.7037599,-4.612189e-29,-4.6559543e-29,0.7104379,0.0,0.0,-0.52140844,1,0,0,0,0,0
378041130,4.745063e-30,-1.1345561e-38,1.5802405,0.0,0.7037599,1.6696925e-30,1.685536e-30,0.7104379,0.0,0.0,-0.5269632,1,0,0,0,0,0
378141244,1.0791029e-31,2.06086e-40,1.5802405,0.0,0.7037599,3.7971465e-32,3.8331778e-32,0.7104379,0.0,0.0,-0.5289949,1,0,0,0,0,0
378241359,3.2754777e-35,1.661e-41,1.5802405,0.0,0.7037599,1.15257415e-35,1.1635121e-35,0.7104379,0.0,0.0,-0.5260939,1,0,0,0,0,0
378342457,-3.86768e-35,1.42e-43,1.5802405,0.0,0.7037599,-1.360959e-35,-1.3738732e-35,0.7104379,0.0,0.0,-0.5288767,1,0,0,0,0,0
378441646,-2.0370711e-36,-8e-45,1.5802405,0.0,0.7037599,-7.1680443e-37,-7.236062e-37,0.7104379,0.0,0.0,-0.52092147,1,0,0,0,0,0
378541922,-1.1928783e-38,-0.0,1.5802405,0.0,0.7037599,-4.1975e-39,-4.23733e-39,0.7104379,0.0,0.0,-0.5240586,1,0,0,0,0,0
378641732,1.763586e-39,0.0,1.5802405,0.0,0.7037599,6.2057e-40,6.26459e-40,0.7104379,0.0,0.0,-0.5313876,1,0,0,0,0,0
378741795,2.678e-41,1e-45,1.5802405,0.0,0.7037599,9.424e-42,9.513e-42,0.7104379,0.0,0.0,-0.5404568,1,0,0,0,0,0
378841870,-6.77e-43,0.0,1.5802405,0.0,0.7037599,-2.38e-43,-2.41e-43,0.7104379,0.0,0.0,-0.54834336,1,0,0,0,0,0
378941975,-1.7e-44,-0.0,1.5802405,0.0,0.7037599,-6e-45,-6e-45,0.7104379,0.0,0.0,-0.5630941,1,0,0,0,0,0
379042189,-0.0,-0.0,1.5802405,0.0,0.7037599,0.0,-0.0,0.7104379,0.0,0.0,-0.5474177,1,0,0,0,0,0
379142398,-0.0,-0.0,1.5802405,0.0,0.7037599,0.0,-0.0,0.7104379,0.0,0.0,-0.53616536,1,0,0,0,0,0
379262433,-0.0,-0.0,1.5802405,0.0,0.7037599,0.0,-0.0,0.7104379,0.0,0.0,-0.52925503,1,0,0,0,0,0
379362546,-0.0,-0.0,1.5802405,0.0,0.7037599,0.0,-0.0,0.7104379,0.0,0.0,-0.52558607,1,0,0,0,0,0
379462564,-0.0,-0.0,1.5802405,0.0,0.7037599,0.0,-0.0,0.7104379,0.0,0.0,-0.52168894,1,0,0,0,0,0
379562576,-0.0,-0.0,1.5802405,0.0,0.7037599,0.0,-0.0,0.7104379,0.0,0.0,-0.52620625,1,0,0,0,0,0
379662700,-0.0,-0.0,1.5802405,0.0,0.7037599,0.0,-0.0,0.7104379,0.0,0.0,-0.5399219,1,0,0,0,0,0
379762819,-0.0,-0.0,1.5802405,0.0,0.7037599,0.0,-0.0,0.7104379,0.0,0.0,-0.54033285,1,0,0,0,0,0
379863012,-0.0,-0.0,1.5802405,0.0,0.7037599,0.0,-0.0,0.7104379,0.0,0.0,-0.5296751,1,0,0,0,0,0
379963396,-0.0,-0.0,1.5802405,0.0,0.7037599,0.0,-0.0,0.7104379,0.0,0.0,-0.52369684,1,0,0,0,0,0
380063414,-0.0,-0.0,1.5802405,0.0,0.7037599,0.0,-0.0,0.7104379,0.0,0.0,-0.52775586,1,0,0,0,0,0
380163574,-0.0,-0.0,1.5802405,0.0,0.7037599,0.0,-0.0,0.7104379,0.0,0.0,-0.53218657,1,0,0,0,0,0
380264400,-0.0,-0.0,1.5802405,0.0,0.7037599,0.0,-0.0,0.7104379,0.0,0.0,-0.53252935,1,0,0,0,0,0
380363471,-0.0,-0.0,1.5802405,0.0,0.7037599,0.0,-0.0,0.7104379,0.0,0.0,-0.5344584,1,0,0,0,0,0
380464306,-0.0,-0.0,1.5802405,0.0,0.7037599,0.0,-0.0,0.7104379,0.0,0.0,-0.54437315,1,0,0,0,0,0
380584060,-0.0,-0.0,1.5802405,0.0,0.7037599,0.0,-0.0,0.7104379,0.0,0.0,-0.53941983,1,0,0,0,0,0
380683795,-0.0,-0.0,1.5802405,0.0,0.7037599,0.0,-0.0,0.7104379,0.0,0.0,-0.5322464,1,0,0,0,0,0
380784372,-0.0,-0.0,1.5802405,0.0,0.7037599,0.0,-0.0,0.7104379,0.0,0.0,-0.5366659,1,0,0,0,0,0
380884055,-0.0,-0.0,1.5802405,0.0,0.7037599,0.0,-0.0,0.7104379,0.0,0.0,-0.5422387,1,0,0,0,0,0
380984781,-0.0,-0.0,1.5802405,0.0,0.7037599,0.0,-0.0,0.7104379,0.0,0.0,-0.5474616,1,0,0,0,0,0
381084177,-0.0,-0.0,1.5802405,0.0,0.7037599,0.0,-0.0,0.7104379,0.0,0.0,-0.53826463,1,0,0,0,0,0
381184235,-0.0,-0.0,1.5802405,0.0,0.7037599,0.0,-0.0,0.7104379,0.0,0.0,-0.5425901,1,0,0,0,0,0
381284352,-0.0,-0.0,1.5802405,0.0,0.7037599,0.0,-0.0,0.7104379,0.0,0.0,-0.54389715,1,0,0,0,0,0
381384406,-0.0,-0.0,1.5802405,0.0,0.7037599,0.0,-0.0,0.7104379,0.0,0.0,-0.5447757,1,0,0,0,0,0
381484605,-0.0,-0.0,1.5802405,0.0,0.7037599,0.0,-0.0,0.7104379,0.0,0.0,-0.5311573,1,0,0,0,0,0
381584716,-0.0,-0.0,1.5802405,0.0,0.7037599,0.0,-0.0,0.7104379,0.0,0.0,-0.52696306,1,0,0,0,0,0
381684803,-0.0,-0.0,1.5802405,0.0,0.7037599,0.0,-0.0,0.7104379,0.0,0.0,-0.5267976,1,0,0,0,0,0
381785117,-0.0,-0.0,1.5802405,0.0,0.7037599,0.0,-0.0,0.7104379,0.0,0.0,-0.5356762,1,0,0,0,0,0
381904985,-0.0,-0.0,1.5802405,0.0,0.7037599,0.0,-0.0,0.7104379,0.0,0.0,-0.5410269,1,0,0,0,0,0
382005113,-0.0,-0.0,1.5802405,0.0,0.7037599,0.0,-0.0,0.7104379,0.0,0.0,-0.52867216,1,0,0,0,0,0
382105161,-0.0,-0.0,1.5802405,0.0,0.7037599,0.0,-0.0,0.7104379,0.0,0.0,-0.5177878,1,0,0,0,0,0
382205244,-0.0,-0.0,1.5802405,0.0,0.7037599,0.0,-0.0,0.7104379,0.0,0.0,-0.5280397,1,0,0,0,0,0
382305562,-0.0,-0.0,1.5802405,0.0,0.7037599,0.0,-0.0,0.7104379,0.0,0.0,-0.52892077,1,0,0,0,0,0
382405843,-0.0,-0.0,1.5802405,0.0,0.7037599,0.0,-0.0,0.7104379,0.0,0.0,-0.5321825,1,0,0,0,0,0
382505674,-0.0,-0.0,1.5802405,0.0,0.7037599,0.0,-0.0,0.7104379,0.0,0.0,-0.5356896,1,0,0,0,0,0
382605895,-0.0,-0.0,1.5802405,0.0,0.7037599,0.0,-0.0,0.7104379,0.0,0.0,-0.5384582,1,0,0,0,0,0
382705801,-0.0,-0.0,1.5802405,0.0,0.7037599,0.0,-0.0,0.7104379,0.0,0.0,-0.53037316,1,0,0,0,0,0
382805860,-0.0,-0.0,1.5802405,0.0,0.7037599,0.0,-0.0,0.7104379,0.0,0.0,-0.5269674,1,0,0,0,0,0
382905930,-0.0,-0.0,1.5802405,0.0,0.7037599,0.0,-0.0,0.7104379,0.0,0.0,-0.50184786,1,0,0,0,0,0
383006133,-0.0,-0.0,1.5802405,0.0,0.7037599,0.0,-0.0,0.7104379,0.0,0.0,-0.4754234,1,0,0,0,0,0
383126299,-0.0,-0.0,1.5802405,0.0,0.7037599,0.0,-0.0,0.7104379,0.0,0.0,-0.48285756,1,0,0,0,0,0
383226391,-0.0,-0.0,1.5802405,0.0,0.7037599,0.0,-0.0,0.7104379,0.0,0.0,-0.5183156,1,0,0,0,0,0
383326507,-0.0,-0.0,1.5802405,0.0,0.7037599,0.0,-0.0,0.7104379,0.0,0.0,-0.53704625,1,0,0,0,0,0
383426538,-0.0,-0.0,1.5802405,0.0,0.7037599,0.0,-0.0,0.7104379,0.0,0.0,-0.5325261,1,0,0,0,0,0
383526583,-0.0,-0.0,1.5802405,0.0,0.7037599,0.0,-0.0,0.7104379,0.0,0.0,-0.52232337,1,0,0,0,0,0
383626667,-0.0,-0.0,1.5802405,0.0,0.7037599,0.0,-0.0,0.7104379,0.0,0.0,-0.52182,1,0,0,0,0,0
383726735,-0.0,-0.0,1.5802405,0.0,0.7037599,0.0,-0.0,0.7104379,0.0,0.0,-0.5236222,1,0,0,0,0,0
383826966,-0.0,-0.0,1.5802405,0.0,0.7037599,0.0,-0.0,0.7104379,0.0,0.0,-0.53788084,1,0,0,0,0,0
383927316,-0.0,-0.0,1.5802405,0.0,0.7037599,0.0,-0.0,0.7104379,0.0,0.0,-0.55477005,1,0,0,0,0,0
384027400,-0.0,-0.0,1.5802405,0.0,0.7037599,0.0,-0.0,0.7104379,0.0,0.0,-0.54028404,1,0,0,0,0,0
384127490,-0.0,-0.0,1.5802405,0.0,0.7037599,0.0,-0.0,0.7104379,0.0,0.0,-0.52090675,1,0,0,0,0,0
384227370,-0.0,-0.0,1.5802405,0.0,0.7037599,0.0,-0.0,0.7104379,0.0,0.0,-0.51042044,1,0,0,0,0,0
384328302,-0.0,-0.0,1.5802405,0.0,0.7037599,0.0,-0.0,0.7104379,0.0,0.0,-0.5206964,1,0,0,0,0,0
384447556,-0.0,-0.0,1.5802405,0.0,0.7037599,0.0,-0.0,0.7104379,0.0,0.0,-0.53797936,1,0,0,0,0,0
384547560,-0.0,-0.0,1.5802405,0.0,0.7037599,0.0,-0.0,0.7104379,0.0,0.0,-0.53284043,1,0,0,0,0,0
384647752,-0.0,-0.0,1.5802405,0.0,0.7037599,0.0,-0.0,0.7104379,0.0,0.0,-0.5293825,1,0,0,0,0,0
384747953,-0.0,-0.0,1.5802405,0.0,0.7037599,0.0,-0.0,0.7104379,0.0,0.0,-0.53110474,1,0,0,0,0,0
384848008,-0.0,-0.0,1.5802405,0.0,0.7037599,0.0,-0.0,0.7104379,0.0,0.0,-0.52378684,1,0,0,0,0,0
384948093,-0.0,-0.0,1.5802405,0.0,0.7037599,0.0,-0.0,0.7104379,0.0,0.0,-0.51106036,1,0,0,0,0,0
385048180,-0.0,-0.0,1.5802405,0.0,0.7037599,0.0,-0.0,0.7104379,0.0,0.0,-0.50590205,1,0,0,0,0,0
385148208,-0.0,-0.0,1.5802405,0.0,0.7037599,0.0,-0.0,0.7104379,0.0,0.0,-0.51224494,1,0,0,0,0,0
385248262,-0.0,-0.0,1.5802405,0.0,0.7037599,0.0,-0.0,0.7104379,0.0,0.0,-0.524014,1,0,0,0,0,0
385348410,-0.0,-0.0,1.5802405,0.0,0.7037599,0.0,-0.0,0.7104379,0.0,0.0,-0.5287689,1,0,0,0,0,0
385448542,-0.0,-0.0,1.5802405,0.0,0.7037599,0.0,-0.0,0.7104379,0.0,0.0,-0.523133,1,0,0,0,0,0
385548685,-0.0,-0.0,1.5802405,0.0,0.7037599,0.0,-0.0,0.7104379,0.0,0.0,-0.52114135,1,0,0,0,0,0
385648791,-0.0,-0.0,1.5802405,0.0,0.7037599,0.0,-0.0,0.7104379,0.0,0.0,-0.5181464,1,0,0,0,0,0
385749130,-0.0,-0.0,1.5802405,-0.0,0.7037599,0.0,-0.0,0.7104379,0.0,0.0,-0.53331786,1,0,0,0,0,0
385849127,-0.0,-0.0,1.5802405,-0.0,0.7037599,0.0,-0.0,0.7104379,0.0,0.0,-0.5428934,1,0,0,0,0,0
385969166,-0.0,-0.0,1.5802405,-0.0,0.7037599,0.0,-0.0,0.7104379,0.0,0.0,-0.5386894,1,0,0,0,0,0
386069145,-0.0,-0.0,1.5802405,-0.0,0.7037599,0.0,-0.0,0.7104379,0.0,0.0,-0.52614486,1,0,0,0,0,0
386169261,-0.0,-0.0,1.5802405,-0.0,0.7037599,0.0,-0.0,0.7104379,0.0,0.0,-0.52138793,1,0,0,0,0,0
386269932,-0.0,-0.0,1.5802405,-0.0,0.7037599,0.0,-0.0,0.7104379,0.0,0.0,-0.5311436,1,0,0,0,0,0
386369636,-0.0,-0.0,1.5802405,-0.0,0.7037599,0.0,-0.0,0.7104379,0.0,0.0,-0.5437521,1,0,0,0,0,0
386470831,-0.0,-0.0,1.5802405,-0.0,0.7037599,0.0,-0.0,0.7104379,0.0,0.0,-0.5320512,1,0,0,0,0,0
386569774,-0.0,-0.0,1.5802405,-0.0,0.7037599,0.0,-0.0,0.7104379,0.0,0.0,-0.52099377,1,0,0,0,0,0
386669940,-0.0,-0.0,1.5802405,-0.0,0.7037599,0.0,-0.0,0.7104379,0.0,0.0,-0.5124619,1,0,0,0,0,0
386789811,-0.0,-0.0,1.5802405,-0.0,0.7037599,0.0,-0.0,0.7104379,0.0,0.0,-0.52572346,1,0,0,0,0,0
386889909,-0.0,-0.0,1.5802405,-0.0,0.7037599,0.0,-0.0,0.7104379,0.0,0.0,-0.5344249,1,0,0,0,0,0
386990016,-0.0,-0.0,1.5802405,-0.0,0.7037599,0.0,-0.0,0.7104379,0.0,0.0,-0.52582854,1,0,0,0,0,0
387090179,-0.0,-0.0,1.5802405,-0.0,0.7037599,0.0,-0.0,0.7104379,0.0,0.0,-0.526083,1,0,0,0,0,0
387190393,-0.0,-0.0,1.5802405,-0.0,0.7037599,0.0,-0.0,0.7104379,0.0,0.0,-0.52541435,1,0,0,0,0,0
387290410,-0.0,-0.0,1.5802405,-0.0,0.7037599,0.0,-0.0,0.7104379,0.0,0.0,-0.51798177,1,0,0,0,0,0
387390763,-0.0,-0.0,1.5802405,-0.0,0.7037599,0.0,-0.0,0.7104379,0.0,0.0,-0.5092199,1,0,0,0,0,0
387490567,-0.0,-0.0,1.5802405,-0.0,0.7037599,0.0,-0.0,0.7104379,0.0,0.0,-0.51375496,1,0,0,0,0,0
387590611,-0.0,-0.0,1.5802405,-0.0,0.7037599,0.0,-0.0,0.7104379,0.0,0.0,-0.52075094,1,0,0,0,0,0
387690693,-0.0,-0.0,1.5802405,-0.0,0.7037599,0.0,-0.0,0.7104379,0.0,0.0,-0.52612805,1,0,0,0,0,0
387790791,-0.0,-0.0,1.5802405,-0.0,0.7037599,0.0,-0.0,0.7104379,0.0,0.0,-0.5229723,1,0,0,0,0,0
387890954,-0.0,-0.0,1.5802405,-0.0,0.7037599,0.0,-0.0,0.7104379,0.0,0.0,-0.5175263,1,0,0,0,0,0
387991361,-0.0,-0.0,1.5802405,-0.0,0.7037599,0.0,-0.0,0.7104379,0.0,0.0,-0.51467603,1,0,0,0,0,0
388111557,-0.0,-0.0,1.5802405,-0.0,0.7037599,0.0,-0.0,0.7104379,0.0,0.0,-0.5285142,1,0,0,0,0,0
388211324,-0.0,-0.0,1.5802405,-0.0,0.7037599,0.0,-0.0,0.7104379,0.0,0.0,-0.5294277,1,0,0,0,0,0
388311514,-0.0,-0.0,1.5802405,-0.0,0.7037599,0.0,-0.0,0.7104379,0.0,0.0,-0.5207824,1,0,0,0,0,0
388411456,-0.0,-0.0,1.5802405,-0.0,0.7037599,0.0,-0.0,0.7104379,0.0,0.0,-0.5161306,1,0,0,0,0,0
388512075,-0.0,-0.0,1.5802405,-0.0,0.7037599,0.0,-0.0,0.7104379,0.0,0.0,-0.52324677,1,0,0,0,0,0
388611623,-0.0,-0.0,1.5802405,-0.0,0.7037599,0.0,-0.0,0.7104379,0.0,0.0,-0.53584987,1,0,0,0,0,0
388711820,-0.0,-0.0,1.5802405,-0.0,0.7037599,0.0,-0.0,0.7104379,0.0,0.0,-0.5415654,1,0,0,0,0,0
388812030,-0.0,-0.0,1.5802405,-0.0,0.7037599,0.0,-0.0,0.7104379,0.0,0.0,-0.5476284,1,0,0,0,0,0
388912073,-0.0,-0.0,1.5802405,-0.0,0.7037599,0.0,-0.0,0.7104379,0.0,0.0,-0.5364708,1,0,0,0,0,0
389012181,-0.0,-0.0,1.5802405,-0.0,0.7037599,0.0,-0.0,0.7104379,0.0,0.0,-0.52355784,1,0,0,0,0,0
389112187,-0.0,-0.0,1.5802405,-0.0,0.7037599,0.0,-0.0,0.7104379,0.0,0.0,-0.51894695,1,0,0,0,0,0
389212273,-0.0,-0.0,1.5802405,-0.0,0.7037599,0.0,-0.0,0.7104379,0.0,0.0,-0.5149639,1,0,0,0,0,0
389312368,-0.0,-0.0,1.5802405,-0.0,0.7037599,0.0,-0.0,0.7104379,0.0,0.0,-0.51993924,1,0,0,0,0,0
389412437,-0.0,-0.0,1.5802405,-0.0,0.7037599,0.0,-0.0,0.7104379,0.0,0.0,-0.52615255,1,0,0,0,0,0
389512693,-0.0,-0.0,1.5802405,-0.0,0.7037599,0.0,-0.0,0.7104379,0.0,0.0,-0.53363013,1,0,0,0,0,0
389632803,-0.0,-0.0,1.5802405,-0.0,0.7037599,0.0,-0.0,0.7104379,0.0,0.0,-0.52800953,1,0,0,0,0,0
389733184,-0.0,-0.0,1.5802405,-0.0,0.7037599,0.0,-0.0,0.7104379,0.0,0.0,-0.52405715,1,0,0,0,0,0
389833182,-0.0,-0.0,1.5802405,-0.0,0.7037599,0.0,-0.0,0.7104379,0.0,0.0,-0.51505613,1,0,0,0,0,0
389933155,-0.0,-0.0,1.5802405,-0.0,0.7037599,0.0,-0.0,0.7104379,0.0,0.0,-0.5236353,1,0,0,0,0,0
390033158,-0.0,-0.0,1.5802405,-0.0,0.7037599,0.0,-0.0,0.7104379,0.0,0.0,-0.535653,1,0,0,0,0,0
390133237,-0.0,-0.0,1.5802405,-0.0,0.7037599,0.0,-0.0,0.7104379,0.0,0.0,-0.5475094,1,0,0,0,0,0
390233243,-0.0,-0.0,1.5802405,-0.0,0.7037599,0.0,-0.0,0.7104379,0.0,0.0,-0.5397092,1,0,0,0,0,0
390334725,-0.0,-0.0,1.5802405,-0.0,0.7037599,0.0,-0.0,0.7104379,0.0,0.0,-0.53487927,1,0,0,0,0,0
390433713,-0.0,-0.0,1.5802405,-0.0,0.7037599,0.0,-0.0,0.7104379,0.0,0.0,-0.5153522,1,0,0,0,0,0
390533701,-0.0,-0.0,1.5802405,-0.0,0.7037599,0.0,-0.0,0.7104379,0.0,0.0,-0.5075727,1,0,0,0,0,0
390633727,-0.0,-0.0,1.5802405,-0.0,0.7037599,0.0,-0.0,0.7104379,0.0,0.0,-0.5219967,1,0,0,0,0,0
390754029,-0.0,-0.0,1.5802405,-0.0,0.7037599,0.0,-0.0,0.7104379,0.0,0.0,-0.53387314,1,0,0,0,0,0
390853874,-0.0,-0.0,1.5802405,-0.0,0.7037599,0.0,-0.0,0.7104379,0.0,0.0,-0.54136354,1,0,0,0,0,0
390953976,-0.0,-0.0,1.5802405,-0.0,0.7037599,0.0,-0.0,0.7104379,0.0,0.0,-0.53526294,1,0,0,0,0,0
391054185,-0.0,-0.0,1.5802405,-0.0,0.7037599,0.0,-0.0,0.7104379,0.0,0.0,-0.5275988,1,0,0,0,0,0
391154440,-0.0,-0.0,1.5802405,-0.0,0.7037599,0.0,-0.0,0.7104379,0.0,0.0,-0.5301277,1,0,0,0,0,0
391254426,-0.0,-0.0,1.5802405,-0.0,0.7037599,0.0,-0.0,0.7104379,0.0,0.0,-0.5338973,1,0,0,0,0,0
391354747,-0.0,-0.0,1.5802405,-0.0,0.7037599,0.0,-0.0,0.7104379,0.0,0.0,-0.5280893,1,0,0,0,0,0
391454545,-0.0,-0.0,1.5802405,-0.0,0.7037599,0.0,-0.0,0.7104379,0.0,0.0,-0.52528864,1,0,0,0,0,0
391554600,-0.0,-0.0,1.5802405,-0.0,0.7037599,0.0,-0.0,0.7104379,0.0,0.0,-0.55648875,1,0,0,0,0,0
391654718,-0.0,-0.0,1.5802405,0.0,0.7037599,0.0,-0.0,0.7104379,0.0,0.0,-0.64547384,1,0,0,0,0,0
391754762,-0.0,-0.0,1.5802405,0.0,0.7037599,0.0,-0.0,0.7104379,0.0,0.0,-0.5834365,1,0,0,0,0,0
391854945,-0.0,-0.0,1.5802405,-0.0,0.7037599,0.0,-0.0,0.7104379,0.0,0.0,-0.5210645,1,0,0,0,0,0
391955355,-0.0,-0.0,1.5802405,-0.0,0.7037599,0.0,-0.0,0.7104379,0.0,0.0,-0.5088867,1,0,0,0,0,0
392055416,-0.0,-0.0,1.5802405,-0.0,0.7037599,0.0,-0.0,0.7104379,0.0,0.0,-0.52069014,1,0,0,0,0,0
392175779,-0.0,-0.0,1.5802405,-0.0,0.7037599,0.0,-0.0,0.7104379,0.0,0.0,-0.55546796,1,0,0,0,0,0
392275340,-0.0,-0.0,1.5802405,-0.0,0.7037599,0.0,-0.0,0.7104379,0.0,0.0,-0.55469245,1,0,0,0,0,0
392376157,-0.0,-0.0,1.5802405,0.0,0.7037599,0.0,-0.0,0.7104379,0.0,0.0,-0.5304055,1,0,0,0,0,0
392475505,-0.0,-0.0,1.5802405,-0.0,0.7037599,0.0,-0.0,0.7104379,0.0,0.0,-0.5215911,1,0,0,0,0,0
392576017,-0.0,-0.0,1.5802405,-0.0,0.7037599,0.0,-0.0,0.7104379,0.0,0.0,-0.5299133,1,0,0,0,0,0
392675912,2.2640114e-11,-0.03424499,1.5802405,-0.0,0.70365673,0.012163875,-0.012049536,0.7103338,0.0,0.0,-0.53703356,1,0,0,0,0,0
392775933,-1.9561321e-11,-0.0783478,1.5802405,-0.0,0.70321995,0.027823508,-0.02756197,0.7098929,0.0,0.0,-0.53955644,1,0,0,0,0,0
392876315,-2.0922036e-12,-0.10013193,1.5802405,0.0,0.70287806,0.035553895,-0.0352197,0.7095477,0.0,0.0,-0.5491722,1,0,0,0,0,0
392976145,4.80273e-11,-0.1262006,1.5802405,0.0,0.7023593,0.0447991,-0.044377998,0.709024,0.0,0.0,-0.55762506,1,0,0,0,0,0
393076166,2.4756573e-12,-0.124687135,1.5802405,-0.0,0.70239264,0.044262547,-0.043846488,0.70905775,0.0,0.0,-0.54360765,1,0,0,0,0,0
393176223,9.6371064e-11,-0.12150597,1.5802405,-0.0,0.70246154,0.04313467,-0.042729218,0.70912725,0.0,0.0,-0.5251185,1,0,0,0,0,0
393276303,-2.2919482e-11,-0.12113244,1.5802405,-0.0,0.7024695,0.04300223,-0.04259802,0.70913523,0.0,0.0,-0.52466595,1,0,0,0,0,0
393376380,-2.6792693e-11,-0.11300567,1.5802405,0.0,0.7026368,0.0401204,-0.03974328,0.7093042,0.0,0.0,-0.54110616,1,0,0,0,0,0
393496610,-2.6067534e-12,-0.0744875,1.5802405,0.0,0.70327187,0.026453251,-0.026204599,0.7099452,0.0,0.0,-0.53253204,1,0,0,0,0,0
393596718,-3.038651e-12,-0.008937042,1.5802405,0.0,0.7037529,0.0031745962,-0.0031447555,0.71043086,0.0,0.0,-0.522664,1,0,0,0,0,0
393696808,3.574769e-14,-0.00018486842,1.5802405,-0.0,0.7037599,6.566876e-05,-6.5051485e-05,0.7104379,0.0,0.0,-0.52547187,1,0,0,0,0,0
393797125,9.277234e-16,8.881568e-07,1.5802405,-0.0,0.7037599,-3.154901e-07,3.1252455e-07,0.7104379,0.0,0.0,-0.53869385,1,0,0,0,0,0
393896986,-6.7084626e-17,7.828446e-08,1.5802405,-0.0,0.7037599,-2.7808122e-08,2.754673e-08,0.7104379,0.0,0.0,-0.5400994,1,0,0,0,0,0
393997115,1.9238075e-18,3.0080105e-09,1.5802405,0.0,0.7037599,-1.0685023e-09,1.0584585e-09,0.7104379,0.0,0.0,-0.54968375,1,0,0,0,0,0
394097163,-8.0521587e-20,-1.5005432e-10,1.5802405,0.0,0.7037599,5.3302134e-11,-5.28011e-11,0.7104379,0.0,0.0,-0.5442363,1,0,0,0,0,0
394197221,2.057369e-21,-3.0005826e-12,1.5802405,-0.0,0.7037599,1.0658638e-12,-1.0558448e-12,0.7104379,0.0,0.0,-0.54179525,1,0,0,0,0,0
394297552,2.3386141e-23,-4.1812812e-14,1.5802405,0.0,0.7037599,1.4852702e-14,-1.471309e-14,0.7104379,0.0,0.0,-0.5342705,1,0,0,0,0,0
394397835,1.3259253e-24,1.3449327e-15,1.5802405,0.0,0.7037599,-4.7774553e-16,4.7325483e-16,0.7104379,0.0,0.0,-0.5326711,1,0,0,0,0,0
394517935,-8.877182e-12,-0.024387022,1.5802405,0.0,0.7037076,0.008662516,-0.008581092,0.71038514,0.0,0.0,-0.53303367,1,0,0,0,0,0
394617770,9.446992e-12,-0.023085171,1.5802405,0.0,0.703713,0.008200107,-0.008123029,0.7103906,0.0,0.0,-0.5334717,1,0,0,0,0,0
394717835,-1.5451612e-11,-0.028589172,1.5802405,0.0,0.70368797,0.010155069,-0.010059614,0.71036536,0.0,0.0,-0.5448891,1,0,0,0,0,0
394817819,4.5199837e-11,-0.038010377,1.5802405,0.0,0.70363283,0.013501192,-0.013374284,0.7103095,0.0,0.0,-0.55369747,1,0,0,0,0,0
394917985,-1.6966867e-11,-0.03007031,1.5802405,0.0,0.70368034,0.01068114,-0.010580741,0.71035767,0.0,0.0,-0.54542357,1,0,0,0,0,0
395018009,-1.2716538e-11,-0.010947944,1.5802405,0.0,0.70374936,0.0038888976,-0.0038523425,0.7104273,0.0,0.0,-0.52432364,1,0,0,0,0,0
395118212,7.2954555e-14,0.00015893612,1.5802405,0.0,0.7037599,-5.645712e-05,5.592643e-05,0.7104379,0.0,0.0,-0.52225775,1,0,0,0,0,0
395218404,-1.0736342e-15,2.3388984e-06,1.5802405,0.0,0.7037599,-8.3082097e-07,8.2301136e-07,0.7104379,0.0,0.0,-0.5292001,1,0,0,0,0,0
395318525,1.726535e-17,-6.482344e-08,1.5802405,0.0,0.7037599,2.3026512e-08,-2.2810067e-08,0.7104379,0.0,0.0,-0.53927404,1,0,0,0,0,0
395418540,2.0622192e-18,-2.6854274e-09,1.5802405,0.0,0.7037599,9.539147e-10,-9.44948e-10,0.7104379,0.0,0.0,-0.5522912,1,0,0,0,0,0
395518556,-4.4214355e-21,-1.0712708e-11,1.5802405,0.0,0.7037599,3.8053566e-12,-3.769587e-12,0.7104379,0.0,0.0,-0.5428039,1,0,0,0,0,0
395618675,3.7838957e-21,2.583954e-12,1.5802405,0.0,0.7037599,-9.178694e-13,9.0924154e-13,0.7104379,0.0,0.0,-0.5319746,1,0,0,0,0,0
395718716,9.804243e-24,3.6785865e-14,1.5802405,0.0,0.7037599,-1.3067035e-14,1.29442076e-14,0.7104379,0.0,0.0,-0.5304807,1,0,0,0,0,0
395838966,-1.2657288e-25,2.9831005e-16,1.5802405,0.0,0.7037599,-1.0596537e-16,1.0496931e-16,0.7104379,0.0,0.0,-0.5315306,1,0,0,0,0,0
395939388,-2.2764411e-27,-2.1387785e-18,1.5802405,0.0,0.7037599,7.5973463e-19,-7.5259317e-19,0.7104379,0.0,0.0,-0.53490824,1,0,0,0,0,0
396039601,1.2054675e-28,-1.4647894e-19,1.5802405,0.0,0.7037599,5.203209e-20,-5.1542997e-20,0.7104379,0.0,0.0,-0.5309944,1,0,0,0,0,0
396140061,4.188374e-30,-5.0710792e-21,1.5802405,0.0,0.7037599,1.8013433e-21,-1.784411e-21,0.7104379,0.0,0.0,-0.53746337,1,0,0,0,0,0
396239448,-2.2557501e-33,-1.15100336e-23,1.5802405,0.0,0.7037599,4.0885817e-24,-4.05015e-24,0.7104379,0.0,0.0,-0.55636245,1,0,0,0,0,0
396339572,9.330788e-34,5.3300815e-24,1.5802405,0.0,0.7037599,-1.8933458e-24,1.8755488e-24,0.7104379,0.0,0.0,-0.5769276,1,0,0,0,0,0
396439531,4.952879e-35,7.2044725e-26,1.5802405,0.0,0.7037599,-2.5591651e-26,2.5351093e-26,0.7104379,0.0,0.0,-0.61572814,1,0,0,0,0,0
396539671,3.0701467e-37,-2.5042834e-27,1.5802405,0.0,0.7037599,8.895688e-28,-8.812071e-28,0.7104379,0.0,0.0,-0.5949425,1,0,0,0,0,0
396639636,3.298855e-38,-5.7990774e-29,1.5802405,0.0,0.7037599,2.059942e-29,-2.0405789e-29,0.7104379,0.0,0.0,-0.55487305,1,0,0,0,0,0
396740351,4.3025e-41,-7.100108e-32,1.5802405,0.0,0.7037599,2.5220928e-32,-2.4983854e-32,0.7104379,0.0,0.0,-0.5198725,1,0,0,0,0,0
396839951,4.889e-42,2.0104828e-32,1.5802405,0.0,0.7037599,-7.141615e-33,7.074486e-33,0.7104379,0.0,0.0,-0.52077746,1,0,0,0,0,0
396940098,3.17e-43,1.1219656e-33,1.5802405,0.0,0.7037599,-3.985434e-34,3.9479717e-34,0.7104379,0.0,0.0,-0.533284,1,0,0,0,0,0
397060181,6e-45,1.0929407e-35,1.5802405,0.0,0.7037599,-3.882332e-36,3.845839e-36,0.7104379,0.0,0.0,-0.5410218,1,0,0,0,0,0
397160190,1e-45,-1.2457692e-37,1.5802405,0.0,0.7037599,4.425208e-38,-4.383612e-38,0.7104379,0.0,0.0,-0.5375449,1,0,0,0,0,0
397260313,-1e-45,-5.545922e-39,1.5802405,0.0,0.7037599,1.970015e-39,-1.951499e-39,0.7104379,0.0,0.0,-0.53467584,1,0,0,0,0,0
397360406,-0.0,-1.21263e-40,1.5802405,0.0,0.7037599,4.3075e-41,-4.267e-41,0.7104379,0.0,0.0,-0.5506995,1,0,0,0,0,0
397460538,-1e-45,2.13e-43,1.5802405,0.0,0.7037599,-7.6e-44,7.4e-44,0.7104379,0.0,0.0,-0.571782,1,0,0,0,0,0
397560687,0.0,4.5e-44,1.5802405,0.0,0.7037599,-1.5e-44,1.5e-44,0.7104379,0.0,0.0,-0.5601065,1,0,0,0,0,0
397660792,0.0,3e-45,1.5802405,0.0,0.7037599,-1e-45,1e-45,0.7104379,0.0,0.0,-0.54670954,1,0,0,0,0,0
397761064,-0.0,-0.0,1.5802405,0.0,0.7037599,0.0,-0.0,0.7104379,0.0,0.0,-0.5508679,1,0,0,0,0,0
397861116,-0.0,-0.0,1.5802405,0.0,0.7037599,0.0,-0.0,0.7104379,0.0,0.0,-0.5468353,1,0,0,0,0,0
398482687,-0.0,-0.0,1.5802405,0.0,0.7037599,0.0,-0.0,0.7104379,0.0,0.0,-0.5417435,1,0,0,0,0,0
398581711,-0.0,-0.0,1.5802405,0.0,0.7037599,0.0,-0.0,0.7104379,0.0,0.0,-0.5356315,1,0,0,0,0,0
398681728,-0.0,-0.0,1.5802405,0.0,0.7037599,0.0,-0.0,0.7104379,0.0,0.0,-0.5392146,1,0,0,0,0,0
398781784,-0.0,-0.0,1.5802405,0.0,0.7037599,0.0,-0.0,0.7104379,0.0,0.0,-0.54011005,1,0,0,0,0,0
398881915,-0.0,-0.0,1.5802405,0.0,0.7037599,0.0,-0.0,0.7104379,0.0,0.0,-0.53359264,1,0,0,0,0,0
398982010,-0.0,-0.0,1.5802405,0.0,0.7037599,0.0,-0.0,0.7104379,0.0,0.0,-0.52967674,1,0,0,0,0,0
399082155,-0.0,-0.0,1.5802405,0.0,0.7037599,0.0,-0.0,0.7104379,0.0,0.0,-0.5001135,1,0,0,0,0,0
399182334,-0.0,-0.0,1.5802405,0.0,0.7037599,0.0,-0.0,0.7104379,0.0,0.0,-0.46347582,1,0,0,0,0,0
399282626,-0.0,-0.0,1.5802405,0.0,0.7037599,0.0,-0.0,0.7104379,0.0,0.0,-0.5175523,1,0,0,0,0,0
399382493,-0.0,-0.0,1.5802405,0.0,0.7037599,0.0,-0.0,0.7104379,0.0,0.0,-0.55802834,1,0,0,0,0,0
399502534,-0.0,-0.0,1.5802405,0.0,0.7037599,0.0,-0.0,0.7104379,0.0,0.0,-0.5516284,1,0,0,0,0,0
399602606,-0.0,-0.0,1.5802405,0.0,0.7037599,0.0,-0.0,0.7104379,0.0,0.0,-0.5352785,1,0,0,0,0,0
399702698,-0.0,-0.0,1.5802405,0.0,0.7037599,0.0,-0.0,0.7104379,0.0,0.0,-0.51666546,1,0,0,0,0,0
399802824,-0.0,-0.0,1.5802405,0.0,0.7037599,0.0,-0.0,0.7104379,0.0,0.0,-0.4632872,1,0,0,0,0,0
399902983,-0.0,-0.0,1.5802405,0.0,0.7037599,0.0,-0.0,0.7104379,0.0,0.0,-0.40565088,1,0,0,0,0,0
400003435,-0.0,-0.0,1.5802405,0.0,0.7037599,0.0,-0.0,0.7104379,0.0,0.0,-0.4482854,1,0,0,0,0,0
400103322,-0.0,-0.0,1.5802405,0.0,0.7037599,0.0,-0.0,0.7104379,0.0,0.0,-0.5218165,1,0,0,0,0,0
400204301,-0.0,-0.0,1.5802405,0.0,0.7037599,0.0,-0.0,0.7104379,0.0,0.0,-0.5527518,1,0,0,0,0,0
400303353,-0.0,-0.0,1.5802405,0.0,0.7037599,0.0,-0.0,0.7104379,0.0,0.0,-0.5621778,1,0,0,0,0,0
400404379,-0.0,-0.0,1.5802405,0.0,0.7037599,0.0,-0.0,0.7104379,0.0,0.0,-0.55395824,1,0,0,0,0,0
400503509,-0.0,-0.0,1.5802405,0.0,0.7037599,0.0,-0.0,0.7104379,0.0,0.0,-0.5312858,1,0,0,0,0,0
400604039,-0.0,-0.0,1.5802405,0.0,0.7037599,0.0,-0.0,0.7104379,0.0,0.0,-0.5123707,1,0,0,0,0,0
400703825,-0.0,-0.0,1.5802405,0.0,0.7037599,0.0,-0.0,0.7104379,0.0,0.0,-0.5101969,1,0,0,0,0,0
400803944,-0.0,-0.0,1.5802405,0.0,0.7037599,0.0,-0.0,0.7104379,0.0,0.0,-0.5194637,1,0,0,0,0,0
400924051,-0.0,-0.0,1.5802405,0.0,0.7037599,0.0,-0.0,0.7104379,0.0,0.0,-0.52608526,1,0,0,0,0,0
401024117,-0.0,-0.0,1.5802405,0.0,0.7037599,0.0,-0.0,0.7104379,0.0,0.0,-0.5301168,1,0,0,0,0,0
401124146,-0.0,-0.0,1.5802405,0.0,0.7037599,0.0,-0.0,0.7104379,0.0,0.0,-0.54231614,1,0,0,0,0,0
401224231,-0.0,-0.0,1.5802405,0.0,0.7037599,0.0,-0.0,0.7104379,0.0,0.0,-0.5475654,1,0,0,0,0,0
401324301,-0.0,-0.0,1.5802405,0.0,0.7037599,0.0,-0.0,0.7104379,0.0,0.0,-0.5388928,1,0,0,0,0,0
401424434,-0.0,-0.0,1.5802405,0.0,0.7037599,0.0,-0.0,0.7104379,0.0,0.0,-0.5309809,1,0,0,0,0,0
401524701,-0.0,-0.0,1.5802405,0.0,0.7037599,0.0,-0.0,0.7104379,0.0,0.0,-0.518801,1,0,0,0,0,0
401624945,-0.0,-0.0,1.5802405,0.0,0.7037599,0.0,-0.0,0.7104379,0.0,0.0,-0.5209407,1,0,0,0,0,0
401724801,-0.0,-0.0,1.5802405,0.0,0.7037599,0.0,-0.0,0.7104379,0.0,0.0,-0.51789886,1,0,0,0,0,0
401825146,-0.0,-0.0,1.5802405,0.0,0.7037599,0.0,-0.0,0.7104379,0.0,0.0,-0.50936705,1,0,0,0,0,0
401925148,-0.0,-0.0,1.5802405,0.0,0.7037599,0.0,-0.0,0.7104379,0.0,0.0,-0.47660416,1,0,0,0,0,0
402025122,-0.0,-0.0,1.5802405,0.0,0.7037599,0.0,-0.0,0.7104379,0.0,0.0,-0.4997908,1,0,0,0,0,0
402145231,-0.0,-0.0,1.5802405,0.0,0.7037599,0.0,-0.0,0.7104379,0.0,0.0,-0.5267794,1,0,0,0,0,0
402245242,-0.0,-0.0,1.5802405,0.0,0.7037599,0.0,-0.0,0.7104379,0.0,0.0,-0.5224612,1,0,0,0,0,0
402346441,-0.0,-0.0,1.5802405,0.0,0.7037599,0.0,-0.0,0.7104379,0.0,0.0,-0.5178312,1,0,0,0,0,0
402446416,-0.0,-0.0,1.5802405,0.0,0.7037599,0.0,-0.0,0.7104379,0.0,0.0,-0.51355565,1,0,0,0,0,0
402545692,-0.0,-0.0,1.5802405,0.0,0.7037599,0.0,-0.0,0.7104379,0.0,0.0,-0.5109858,1,0,0,0,0,0
402645745,-0.0,-0.0,1.5802405,0.0,0.7037599,0.0,-0.0,0.7104379,0.0,0.0,-0.522407,1,0,0,0,0,0
402745853,-0.0,-0.0,1.5802405,0.0,0.7037599,0.0,-0.0,0.7104379,0.0,0.0,-0.5276692,1,0,0,0,0,0
402845874,-0.0,-0.0,1.5802405,0.0,0.7037599,0.0,-0.0,0.7104379,0.0,0.0,-0.52566266,1,0,0,0,0,0
402945944,-0.0,-0.0,1.5802405,0.0,0.7037599,0.0,-0.0,0.7104379,0.0,0.0,-0.5275734,1,0,0,0,0,0
403046183,-0.0,-0.0,1.5802405,0.0,0.7037599,0.0,-0.0,0.7104379,0.0,0.0,-0.51709,1,0,0,0,0,0
403146340,-0.0,-0.0,1.5802405,0.0,0.7037599,0.0,-0.0,0.7104379,0.0,0.0,-0.52416176,1,0,0,0,0,0
403246399,-0.0,-0.0,1.5802405,0.0,0.7037599,0.0,-0.0,0.7104379,0.0,0.0,-0.54304475,1,0,0,0,0,0
403346450,-0.0,-0.0,1.5802405,0.0,0.7037599,0.0,-0.0,0.7104379,0.0,0.0,-0.5498823,1,0,0,0,0,0
403466499,-0.0,-0.0,1.5802405,0.0,0.7037599,0.0,-0.0,0.7104379,0.0,0.0,-0.5338888,1,0,0,0,0,0
403566579,-0.0,-0.0,1.5802405,0.0,0.7037599,0.0,-0.0,0.7104379,0.0,0.0,-0.52599317,1,0,0,0,0,0
403666716,-0.0,-0.0,1.5802405,0.0,0.7037599,0.0,-0.0,0.7104379,0.0,0.0,-0.51933193,1,0,0,0,0,0
403766755,-0.0,-0.0,1.5802405,0.0,0.7037599,0.0,-0.0,0.7104379,0.0,0.0,-0.5217887,1,0,0,0,0,0
403866943,-0.0,-0.0,1.5802405,0.0,0.7037599,0.0,-0.0,0.7104379,0.0,0.0,-0.5307142,1,0,0,0,0,0
403967351,-0.0,-0.0,1.5802405,0.0,0.7037599,0.0,-0.0,0.7104379,0.0,0.0,-0.53998685,1,0,0,0,0,0
404067515,-0.0,-0.0,1.5802405,0.0,0.7037599,0.0,-0.0,0.7104379,0.0,0.0,-0.5472038,1,0,0,0,0,0
404167273,-0.0,-0.0,1.5802405,0.0,0.7037599,0.0,-0.0,0.7104379,0.0,0.0,-0.5353329,1,0,0,0,0,0
404268043,-0.0,-0.0,1.5802405,0.0,0.7037599,0.0,-0.0,0.7104379,0.0,0.0,-0.52110565,1,0,0,0,0,0
404367397,-0.0,-0.0,1.5802405,0.0,0.7037599,0.0,-0.0,0.7104379,0.0,0.0,-0.51958233,1,0,0,0,0,0
404468103,-0.0,-0.0,1.5802405,0.0,0.7037599,0.0,-0.0,0.7104379,0.0,0.0,-0.52024347,1,0,0,0,0,0
404567599,-0.0,-0.0,1.5802405,0.0,0.7037599,0.0,-0.0,0.7104379,0.0,0.0,-0.5235878,1,0,0,0,0,0
404668059,-0.0,-0.0,1.5802405,0.0,0.7037599,0.0,-0.0,0.7104379,0.0,0.0,-0.5202614,1,0,0,0,0,0
404787945,-0.0,-0.0,1.5802405,0.0,0.7037599,0.0,-0.0,0.7104379,0.0,0.0,-0.5181745,1,0,0,0,0,0
404888054,-0.0,-0.0,1.5802405,0.0,0.7037599,0.0,-0.0,0.7104379,0.0,0.0,-0.5287973,1,0,0,0,0,0
404988136,-0.0,-0.0,1.5802405,0.0,0.7037599,0.0,-0.0,0.7104379,0.0,0.0,-0.5315234,1,0,0,0,0,0
405088143,-0.0,-0.0,1.5802405,0.0,0.7037599,0.0,-0.0,0.7104379,0.0,0.0,-0.5265586,1,0,0,0,0,0
