timestamp,time_utc_usec,lat,lon,alt,alt_ellipsoid,s_variance_m_s,c_variance_rad,eph,epv,hdop,vdop,noise_per_ms,jamming_indicator,vel_m_s,vel_n_m_s,vel_e_m_s,vel_d_m_s,cog_rad,timestamp_time_relative,heading,heading_offset,fix_type,vel_ned_valid,satellites_used
349722434,1562313522400139,488479780,23577696,69960,116141,1.8340001,0.7875726,7.2510004,10.859,1.63,2.02,84,8,0.34800002,-0.34800002,0.003,-0.13800001,0.4539264,0,nan,0.0,3,1,7
349915202,1562313522600139,488479780,23577690,69980,116161,1.9750001,0.7876414,7.2640004,10.836,1.63,2.02,84,8,0.30600002,-0.29000002,-0.096,-0.064,0.4539264,0,nan,0.0,3,1,7
350116173,1562313522800139,488479784,23577689,69988,116170,1.542,0.78769517,7.274,10.808001,1.63,2.02,84,8,0.116000004,-0.116000004,0.010000001,-0.120000005,0.4539264,0,nan,0.0,3,1,7
350320137,1562313523000139,488479784,23577692,69800,115981,0.897,0.7877264,7.2790003,10.785001,1.63,2.02,84,9,0.108,-0.031000001,0.10300001,-0.068,0.4539264,0,nan,0.0,3,1,7
350512078,1562313523200139,488479785,23577690,69751,115932,1.7780001,0.78778815,7.2830005,10.759001,1.63,2.02,84,9,0.126,-0.11800001,-0.045,-0.064,0.4539264,0,nan,0.0,3,1,7
350718975,1562313523400139,488479790,23577685,69828,116010,1.473,0.7878395,7.2860003,10.736,1.63,2.02,84,9,0.2,-0.19700001,0.036000002,0.054,0.4539264,0,nan,0.0,3,1,7
350920119,1562313523600139,488479789,23577677,69836,116017,1.6630001,0.7878974,7.2890005,10.713,1.63,2.02,84,9,0.33800003,-0.20700002,-0.26700002,-0.068,0.4539264,0,nan,0.0,3,1,7
351115196,1562313523800139,488479794,23577678,69726,115907,0.62100005,0.78791904,7.2910004,10.690001,1.63,2.02,84,9,0.10300001,-0.046000004,0.09200001,0.062000003,0.4539264,0,nan,0.0,3,1,7
351321153,1562313524000139,488479793,23577666,69772,115953,1.5910001,0.7879744,7.2960005,10.679001,1.63,2.02,84,8,0.44200003,-0.215,-0.386,-0.0050000004,0.4539264,0,nan,0.0,3,1,7
351517687,1562313524200140,488479798,23577652,69922,116103,1.7810001,0.78803635,7.3,10.661,1.63,2.02,84,8,0.256,-0.19600001,-0.165,0.021000002,0.4539264,0,nan,0.0,3,1,7
351717685,1562313524400140,488479801,23577632,70194,116375,1.7950001,0.7880988,7.3030005,10.646001,1.63,2.02,84,8,0.49100003,-0.38000003,-0.31,0.017,0.4539264,0,nan,0.0,3,1,7
351920062,1562313524600140,488479799,23577631,70168,116349,1.4360001,0.78814876,7.306,10.6310005,1.63,2.02,84,8,0.24000001,-0.22600001,0.081,-0.14600001,0.4539264,0,nan,0.0,3,1,7
352121160,1562313524800140,488479798,23577619,70331,116512,1.8590001,0.7882135,7.3090005,10.622001,1.63,2.02,84,8,0.45600003,-0.41300002,-0.194,-0.030000001,0.4539264,0,nan,0.0,3,1,7
352317403,1562313525000140,488479799,23577606,70598,116779,1.825,0.78827685,7.3120003,10.611,1.63,2.02,84,9,0.46400002,-0.43300003,-0.16800001,-0.155,0.4539264,0,nan,0.0,3,1,7
352517630,1562313525200140,488479793,23577601,70601,116783,1.7990001,0.7883395,7.3190002,10.601001,1.63,2.02,84,9,0.467,-0.46500003,-0.048,-0.21400002,0.4539264,0,nan,0.0,3,1,7
352716202,1562313525400140,488479791,23577589,70642,116823,1.838,0.7884034,7.3230004,10.594001,1.63,2.02,84,9,0.50600004,-0.40500003,-0.303,-0.069000006,0.4539264,0,nan,0.0,3,1,7
352921093,1562313525600140,488479791,23577586,70500,116681,1.8900001,0.7884692,7.3300004,10.578,1.63,2.02,84,9,0.23900001,-0.19600001,-0.13800001,-0.044000003,0.4539264,0,nan,0.0,3,1,7
353115297,1562313525800140,488479797,23577577,70651,116832,1.511,0.7885217,7.34,10.566001,1.63,2.02,84,9,0.148,-0.080000006,-0.125,-0.116000004,0.4539264,0,nan,0.0,3,1,7
353321050,1562313526000140,488479808,23577574,70753,116935,1.582,0.7885767,7.3500004,10.553,1.63,2.02,84,9,0.194,0.15100001,0.12200001,-0.12900001,0.4539264,0,nan,0.0,3,1,7
353523170,1562313526200140,488479825,23577561,71114,117295,1.0170001,0.7886121,7.359,10.542001,1.63,2.02,84,9,0.24300002,0.19000001,-0.15300001,-0.055000003,0.4539264,0,nan,0.0,3,1,7
353719329,1562313526400141,488479819,23577563,70927,117108,1.093,0.78865004,7.3670006,10.518001,1.63,2.02,84,9,0.069000006,-0.051000003,-0.046000004,-0.27400002,0.4539264,0,nan,0.0,3,1,7
353925049,1562313526600141,488479821,23577569,70655,116836,1.166,0.7886905,7.373,10.486,1.63,2.02,84,9,0.1,0.1,0.006,-0.124000005,0.4539264,0,nan,0.0,3,1,7
354123814,1562313526800141,488479836,23577575,70560,116741,1.7390001,0.7887509,7.379,10.455001,1.63,2.02,84,9,0.569,0.564,0.07300001,-0.14,0.4539264,0,nan,0.0,3,1,7
354322617,1562313527000141,488479843,23577573,70697,116878,1.192,0.78879243,7.3830004,10.424001,1.63,2.02,84,10,0.193,0.158,0.11100001,-0.24800001,0.4539264,0,nan,0.0,3,1,7
354523155,1562313527200141,488479853,23577571,70934,117115,0.98800004,0.7888268,7.386,10.393001,1.63,2.02,84,10,0.17300001,0.07,0.158,-0.33,0.4539264,0,nan,0.0,3,1,7
354720165,1562313527400141,488479866,23577572,71037,117219,1.353,0.7888738,7.3890004,10.366,1.63,2.02,84,10,0.23600002,0.21200001,0.10300001,-0.21300001,0.4539264,0,nan,0.0,3,1,7
354915261,1562313527600141,488479879,23577568,71302,117484,1.143,0.78891355,7.392,10.341001,1.63,2.02,84,10,0.201,0.19900002,0.022000002,-0.252,0.4539264,0,nan,0.0,3,1,7
355115488,1562313527800141,488479900,23577565,71615,117796,1.5910001,0.78896886,7.3950005,10.315001,1.63,2.02,84,10,0.37500003,0.35000002,0.136,-0.18900001,0.4539264,0,nan,0.0,3,1,7
355322328,1562313528000141,488479930,23577564,71999,118180,1.8210001,0.78903204,7.399,10.286,1.63,2.02,84,9,0.70900005,0.68200004,0.193,-0.060000002,0.4539264,0,nan,0.0,3,1,7
355518160,1562313528200141,488479952,23577562,72388,118569,1.6680001,0.78909004,7.4010005,10.251,1.63,2.02,84,9,0.69500005,0.666,0.19600001,-0.252,0.4539264,0,nan,0.0,3,1,7
355713644,1562313528400141,488479955,23577551,72604,118786,0.76000005,0.7891164,7.4040003,10.224001,1.63,2.02,84,9,0.20400001,0.029000001,-0.202,-0.21400002,0.4539264,0,nan,0.0,3,1,7
355925065,1562313528600142,488479968,23577549,72698,118879,1.4510001,0.7891668,7.4090004,10.200001,1.63,2.02,84,9,0.42600003,0.425,-0.033,-0.215,0.4539264,0,nan,0.0,3,1,7
356121246,1562313528800142,488479991,23577551,72884,119065,1.794,0.7892291,7.4110003,10.165001,1.63,2.02,84,9,0.785,0.735,0.27400002,-0.10700001,0.4539264,0,nan,0.0,3,1,7
356321498,1562313529000142,488480005,23577552,73011,119192,1.802,0.7892918,7.412,10.13,1.63,2.02,84,10,0.648,0.62100005,0.185,-0.05,0.4539264,0,nan,0.0,3,1,7
356522324,1562313529200142,488480015,23577549,73202,119384,1.6960001,0.78935057,7.4140005,10.096001,1.63,2.02,84,10,0.354,0.35000002,0.051000003,-0.083000004,0.4539264,0,nan,0.0,3,1,7
356721095,1562313529400142,488480019,23577547,73272,119453,1.414,0.7893998,7.4150004,10.064,1.63,2.02,84,10,0.23500001,0.23,0.048,-0.164,0.4539264,0,nan,0.0,3,1,7
356924084,1562313529600142,488480039,23577549,73316,119497,1.7990001,0.78946227,7.4150004,10.032001,1.63,2.02,84,10,0.794,0.781,0.148,-0.003,0.4539264,0,nan,0.0,3,1,7
357121096,1562313529800142,488480047,23577544,73584,119765,1.6090001,0.7895181,7.4160004,10.0060005,1.63,2.02,84,10,0.337,0.32500002,0.089,-0.142,0.4539264,0,nan,0.0,3,1,7
357320194,1562313530000142,488480057,23577538,73901,120082,1.115,0.78955686,7.4170003,9.973001,1.63,2.02,84,11,0.13700001,0.123,0.061000004,-0.18800001,0.4539264,0,nan,0.0,3,1,7
357520224,1562313530200142,488480066,23577529,74255,120436,1.049,0.78959334,7.418,9.940001,1.63,2.02,84,11,0.09,-0.026,-0.086,-0.124000005,0.4539264,0,nan,0.0,3,1,7
357717188,1562313530400142,488480076,23577521,74631,120812,0.85200006,0.78962284,7.419,9.909,1.63,2.02,84,11,0.023000002,0.020000001,-0.011000001,-0.27,0.4539264,0,nan,0.0,3,1,7
357920129,1562313530600142,488480081,23577516,74854,121035,0.99600005,0.7896574,7.4240003,9.88,1.63,2.02,84,11,0.059000004,-0.032,-0.049000002,-0.34100002,0.4539264,0,nan,0.0,3,1,7
358123496,1562313530800143,488480089,23577513,75072,121253,0.81200004,0.78968567,7.4330006,9.852,1.63,2.02,84,11,0.109000005,0.106000006,-0.026,-0.33800003,0.4539264,0,nan,0.0,3,1,7
358314324,1562313531000143,488480094,23577509,75282,121463,0.83800006,0.78971463,7.4430003,9.827001,1.63,2.02,84,11,0.069000006,0.069000006,-0.007,-0.39000002,0.4539264,0,nan,0.0,3,1,7
358517502,1562313531200143,488480109,23577512,75336,121517,1.7450001,0.7897754,7.4550004,9.801001,1.63,2.02,84,11,0.51600003,0.505,0.11000001,-0.201,0.4539264,0,nan,0.0,3,1,7
358719139,1562313531400143,488480109,23577501,75714,121896,1.9100001,0.7898417,7.4790006,9.778001,1.63,2.02,84,11,0.23700002,-0.22000001,-0.087000005,-0.24000001,0.4539264,0,nan,0.0,3,1,7
358918148,1562313531600143,488480092,23577491,75970,122151,1.8510001,0.78990597,7.4920006,9.753,1.63,2.02,84,11,0.632,-0.606,-0.178,-0.53900003,0.4539264,0,nan,0.0,3,1,7
359118168,1562313531800143,488480103,23577490,76141,122322,1.225,0.78994834,7.5030003,9.7300005,1.63,2.02,84,11,0.116000004,-0.10300001,0.053000003,-0.27400002,0.4539264,0,nan,0.0,3,1,7
359322028,1562313532000143,488480095,23577483,76337,122518,1.7820001,0.79001033,7.5140004,9.708,1.63,2.02,84,9,0.39400002,-0.37500003,-0.119,-0.33600003,0.4539264,0,nan,0.0,3,1,7
359519144,1562313532200143,488480080,23577475,76437,122618,1.9200001,0.790077,7.5250006,9.688001,1.63,2.02,84,9,0.61800003,-0.61,-0.1,-0.32500002,0.4539264,0,nan,0.0,3,1,7
359717092,1562313532400143,488480092,23577472,76720,122901,1.9810001,0.7901456,7.5360003,9.658,1.63,2.02,84,9,0.30200002,-0.30200002,0.010000001,-0.119,0.4539264,0,nan,0.0,3,1,7
359917123,1562313532600143,488480101,23577468,77005,123187,1.9930001,0.7902147,7.543,9.629001,1.63,2.02,84,9,0.194,-0.18800001,-0.048,-0.096,0.4539264,0,nan,0.0,3,1,7
360121089,1562313532800143,488480125,23577467,77417,123599,1.5370001,0.7902681,7.5480003,9.602,1.63,2.02,84,9,0.193,0.155,0.11400001,-0.116000004,0.4539264,0,nan,0.0,3,1,7
360313248,1562313533000144,488480137,23577463,77783,123965,0.92200005,0.7903001,7.5550003,9.578,1.63,2.02,84,11,0.07700001,0.046000004,0.062000003,-0.19900002,0.4539264,0,nan,0.0,3,1,7
360513760,1562313533200144,488480137,23577450,78103,124284,1.7140001,0.79035956,7.5670004,9.554001,1.63,2.02,84,11,0.36800003,-0.279,-0.24000001,-0.30600002,0.4539264,0,nan,0.0,3,1,7
360718187,1562313533400144,488480123,23577435,78360,124541,1.9470001,0.7904271,7.5800004,9.531,1.63,2.02,84,11,0.81900007,-0.76100004,-0.305,-0.499,0.4539264,0,nan,0.0,3,1,7
360910232,1562313533600144,488480121,23577426,78492,124674,1.9160001,0.7904936,7.5910006,9.504001,1.63,2.02,84,11,0.573,-0.532,-0.21400002,-0.36600003,0.4539264,0,nan,0.0,3,1,7
361117054,1562313533800144,488480107,23577418,78472,124654,1.9690001,0.79056185,7.6050005,9.478001,1.63,2.02,84,11,0.73200005,-0.717,-0.148,-0.34100002,0.4539264,0,nan,0.0,3,1,7
361314356,1562313534000144,488480113,23577414,78609,124790,1.871,0.79062676,7.6260004,9.459001,1.63,2.02,84,10,0.32900003,-0.305,-0.12200001,-0.28,0.4539264,0,nan,0.0,3,1,7
361517064,1562313534200144,488480125,23577417,78617,124798,1.6370001,0.7906835,7.642,9.442,1.63,2.02,84,10,0.261,0.19500001,0.17400001,-0.132,0.4539264,0,nan,0.0,3,1,7
361717123,1562313534400144,488480156,23577421,78923,125105,1.8790001,0.7907486,7.6660004,9.432,1.63,2.02,84,10,0.89900005,0.89100003,0.12100001,-0.30200002,0.4539264,0,nan,0.0,3,1,7
361915218,1562313534600144,488480187,23577430,79073,125255,2.066,0.7787374,7.6930003,9.423,1.63,2.02,84,10,1.171,1.0550001,0.509,-0.164,0.4515601,0,nan,0.0,3,1,7
362118837,1562313534800144,488480191,23577428,79194,125376,1.9510001,0.7788062,7.7200003,9.4140005,1.63,2.02,84,10,0.38700002,0.35900003,0.14600001,-0.135,0.4515601,0,nan,0.0,3,1,7
362320060,1562313535000144,488480200,23577424,79281,125463,1.7580001,0.77886814,7.7440004,9.406,1.63,2.02,84,10,0.22800002,0.216,-0.071,0.036000002,0.4515601,0,nan,0.0,3,1,7
362518391,1562313535200145,488480231,23577428,79440,125622,2.089,0.77894163,7.7710004,9.400001,1.63,2.02,84,10,0.772,0.767,0.082,0.10700001,0.4515601,0,nan,0.0,3,1,7
362718635,1562313535400145,488480262,23577434,79580,125761,2.0800002,0.77901495,7.7970004,9.392,1.63,2.02,84,10,1.116,1.082,0.27100003,0.134,0.4515601,0,nan,0.0,3,1,7
362915302,1562313535600145,488480276,23577436,79641,125822,2.088,0.7790884,7.8240004,9.383,1.63,2.02,84,10,0.89900005,0.87700003,0.19800001,0.011000001,0.4515601,0,nan,0.0,3,1,7
363119105,1562313535800145,488480292,23577444,79610,125791,2.045,0.7791603,7.8480005,9.372001,1.63,2.02,84,10,1.006,0.943,0.351,-0.025,0.4515601,0,nan,0.0,3,1,7
363317957,1562313536000145,488480296,23577454,79134,125315,2.038,0.779232,7.8700004,9.342,1.63,2.02,84,7,1.033,1.008,0.22600001,-0.054,0.4515601,0,nan,0.0,3,1,7
363517390,1562313536200145,488480278,23577452,78801,124983,1.0,0.7792673,7.873,9.302,1.63,2.02,84,7,0.089,-0.061000004,0.066,-0.21700001,0.4515601,0,nan,0.0,3,1,7
363722128,1562313536400145,488480267,23577456,78506,124687,1.2420001,0.77931094,7.8840003,9.274,1.63,2.02,84,7,0.24200001,-0.21900001,0.10300001,-0.15200001,0.4515601,0,nan,0.0,3,1,7
363920773,1562313536600145,488480270,23577465,78665,124846,1.2010001,0.77935314,7.9030004,9.293,1.63,2.02,84,7,0.363,-0.11400001,0.34500003,-0.16900001,0.4515601,0,nan,0.0,3,1,7
364121107,1562313536800145,488480264,23577481,78798,124979,1.2290001,0.7793965,7.9290004,9.314,1.63,2.02,84,7,0.731,-0.26700002,0.68100005,-0.386,0.4515601,0,nan,0.0,3,1,7
364321201,1562313537000145,488480249,23577485,78954,125135,1.085,0.7794347,7.9260006,9.329,1.63,2.02,84,11,0.17500001,-0.001,0.17500001,-0.51900005,0.4515601,0,nan,0.0,3,1,7
364521095,1562313537200146,488480237,23577485,79225,125406,1.4120001,0.7794842,7.919,9.343,1.63,2.02,84,11,0.446,-0.33200002,0.298,-0.43100002,0.4515601,0,nan,0.0,3,1,7
364720091,1562313537400146,488480193,23577473,79414,125595,1.3240001,0.7795308,7.8140006,9.356001,1.63,2.02,84,11,0.25800002,-0.24400002,0.083000004,-0.316,0.4515601,0,nan,0.0,3,1,7
364920100,1562313537600146,488480071,23577439,79482,125663,1.0040001,0.7795663,7.5980005,9.367001,1.63,2.02,84,11,0.11800001,-0.11100001,-0.039,-0.231,0.4515601,0,nan,0.0,3,1,7
365119771,1562313537800146,488479881,23577382,79381,125562,1.478,0.77961826,7.2850003,9.379001,1.63,2.02,84,11,0.119,-0.082,-0.086,-0.009000001,0.4515601,0,nan,0.0,3,1,7
365317607,1562313538000146,488479522,23577289,79294,125475,1.5680001,0.77967346,6.642,9.393001,1.63,2.02,84,11,0.512,0.409,0.307,-0.323,0.4515601,0,nan,0.0,3,1,7
365524242,1562313538200146,488479273,23577204,79032,125214,1.57,0.7797286,6.1510005,9.3880005,1.63,2.02,84,11,0.335,-0.17600001,-0.28500003,0.23400001,0.4515601,0,nan,0.0,3,1,7
365720058,1562313538400146,488479093,23577149,78932,125114,0.712,0.77975374,5.8,9.383,1.63,2.02,84,11,0.215,0.14400001,0.16000001,0.323,0.4515601,0,nan,0.0,3,1,7
365919261,1562313538600146,488479016,23577103,79108,125289,1.6300001,0.49204895,5.5690002,9.4140005,1.63,2.02,84,11,1.2260001,-0.82100004,-0.9110001,0.36100003,4.7638626,0,nan,0.0,3,1,7
366118052,1562313538800146,488478982,23577058,79611,125792,1.5230001,0.38810587,5.401,9.435,1.63,2.02,84,11,1.5480001,-0.947,-1.2240001,0.09,4.3261046,0,nan,0.0,3,1,7
366327302,1562313539000146,488478964,23577047,79654,125836,1.6650001,0.38822335,5.386,9.462001,1.63,2.02,84,10,0.725,-0.63100004,-0.35700002,0.011000001,4.3261046,0,nan,0.0,3,1,7
366523254,1562313539200146,488478968,23577063,79839,126020,1.2880001,0.38831446,5.373,9.483001,1.63,2.02,84,10,0.50200003,-0.030000001,0.50100005,0.030000001,4.3261046,0,nan,0.0,3,1,7
366724060,1562313539400147,488478989,23577071,79909,126090,0.86100006,0.3883752,5.235,9.496,1.63,2.02,84,10,0.28100002,-0.263,0.09900001,-0.072000004,4.3261046,0,nan,0.0,3,1,7
366918567,1562313539600147,488479001,23577085,80025,126206,1.355,0.38847083,5.243,9.489,1.63,2.02,84,10,0.293,0.11400001,0.27,-0.33,4.3261046,0,nan,0.0,3,1,7
367125095,1562313539800147,488479002,23577101,79724,125905,1.279,0.38856107,5.249,9.443001,1.63,2.02,84,10,0.38500002,0.109000005,0.36900002,-0.365,4.3261046,0,nan,0.0,3,1,7
367326174,1562313540000147,488479008,23577114,79777,125958,0.85700005,0.38862163,5.2190003,9.384001,1.63,2.02,84,10,0.317,-0.09200001,0.30400002,-0.72300005,4.3261046,0,nan,0.0,3,1,7
367526180,1562313540200147,488479029,23577131,79973,126154,1.0660001,0.38869685,5.183,9.341001,1.63,2.02,84,10,0.76600003,0.64400005,0.41500002,-0.67700005,4.3261046,0,nan,0.0,3,1,7
367725216,1562313540400147,488479054,23577145,80052,126234,1.2310001,0.38878357,5.1650004,9.321,1.63,2.02,84,10,1.0020001,0.98,0.20700002,-0.411,4.3261046,0,nan,0.0,3,1,7
367921408,1562313540600147,488479065,23577144,79938,126119,1.046,0.38885742,5.163,9.313001,1.63,2.02,84,10,0.41900003,0.347,-0.23500001,-0.17400001,4.3261046,0,nan,0.0,3,1,7
368122514,1562313540800147,488479069,23577138,79997,126178,1.1630001,0.38893926,5.1730003,9.299001,1.63,2.02,84,10,0.48700002,-0.18300001,-0.45100003,-0.324,4.3261046,0,nan,0.0,3,1,7
368326132,1562313541000147,488479069,23577140,79922,126104,1.042,0.38901275,5.1860003,9.2890005,1.63,2.02,84,13,0.157,-0.096,-0.125,-0.22100002,4.3261046,0,nan,0.0,3,1,7
368520205,1562313541200147,488479072,23577143,79820,126001,1.014,0.3890843,5.1910005,9.273001,1.63,2.02,84,13,0.35000002,0.252,-0.24400002,-0.266,4.3261046,0,nan,0.0,3,1,7
368713111,1562313541400147,488479078,23577129,80141,126322,1.3230001,0.3891775,5.2120004,9.280001,1.63,2.02,84,13,0.568,-0.238,-0.51500005,-0.314,4.3261046,0,nan,0.0,3,1,7
368917196,1562313541600148,488479089,23577108,80856,127037,1.7350001,0.3892997,5.2400002,9.281,1.63,2.02,84,13,0.64000005,-0.549,-0.33,-0.039,4.3261046,0,nan,0.0,3,1,7
369116174,1562313541800148,488479088,23577097,80937,127118,1.649,0.38941574,5.2830005,9.293,1.63,2.02,84,13,0.74100006,-0.252,-0.697,-0.202,4.3261046,0,nan,0.0,3,1,7
369321059,1562313542000148,488479079,23577105,80399,126581,1.794,0.3895421,5.3240004,9.272,1.63,2.02,84,12,0.224,-0.141,-0.17500001,-0.027,4.3261046,0,nan,0.0,3,1,7
369520110,1562313542200148,488479087,23577115,79756,125938,1.1060001,0.38961995,5.3620005,9.195001,1.63,2.02,84,12,0.95500004,0.87700003,-0.379,0.34500003,4.3261046,0,nan,0.0,3,1,7
369720182,1562313542400148,488479093,23577115,79514,125695,1.11,0.38969815,5.4020004,9.176001,1.63,2.02,84,12,0.597,0.51900005,-0.296,0.029000001,4.3261046,0,nan,0.0,3,1,7
369918619,1562313542600148,488479115,23577149,79544,125725,1.774,0.38982293,5.4420004,9.157001,1.63,2.02,84,12,1.1550001,0.684,0.93100005,-0.358,4.3261046,0,nan,0.0,3,1,7
370120058,1562313542800148,488479151,23577213,79976,126157,1.7210001,0.50829375,5.4830003,9.166,1.63,2.02,84,12,2.446,1.085,2.1920002,-0.87200004,5.463031,0,nan,0.0,3,1,7
370318541,1562313543000148,488479156,23577250,79531,125712,1.8640001,0.54977274,5.519,9.143001,1.63,2.02,84,12,1.5600001,1.32,0.83100003,-0.17,6.1000743,0,nan,0.0,3,1,7
370518378,1562313543200148,488479171,23577272,79496,125677,1.8100001,0.6492425,5.5530005,9.120001,1.63,2.02,84,12,1.291,0.86800003,0.95600003,0.078,0.24165548,0,nan,0.0,3,1,7
370717121,1562313543400148,488479164,23577283,79016,125198,1.25,0.64929545,5.584,9.099,1.63,2.02,84,12,0.71500003,0.65800005,0.282,0.611,0.24165548,0,nan,0.0,3,1,7
370917778,1562313543600148,488479169,23577282,78815,124997,0.87500006,0.6493335,5.616,9.085,1.63,2.02,84,12,0.596,0.558,-0.208,0.67700005,0.24165548,0,nan,0.0,3,1,7
371121128,1562313543800149,488479165,23577269,78466,124647,1.0430001,0.6493858,5.6470003,9.053,1.63,2.02,84,12,0.411,0.19000001,-0.36400002,1.1700001,0.24165548,0,nan,0.0,3,1,7
371313143,1562313544000149,488479162,23577265,78354,124535,1.468,0.649448,5.6790004,9.06,1.63,2.02,85,11,0.507,-0.45200002,-0.23,0.89000005,0.24165548,0,nan,0.0,3,1,7
371515289,1562313544200149,488479169,23577289,78231,124412,0.95800006,0.6494895,5.7180004,9.087001,1.63,2.02,85,11,0.48200002,0.037,0.48000002,0.859,0.24165548,0,nan,0.0,3,1,7
371721052,1562313544400149,488479178,23577317,78128,124309,1.131,0.6495384,5.7590003,9.112,1.63,2.02,85,11,0.75100005,0.18200001,0.72800004,0.882,0.24165548,0,nan,0.0,3,1,7
371921050,1562313544600149,488479170,23577311,77966,124147,1.199,0.649589,5.7890005,9.122001,1.63,2.02,85,11,0.33600003,-0.333,-0.044000003,1.103,0.24165548,0,nan,0.0,3,1,7
372121062,1562313544800149,488479166,23577306,77881,124062,1.4790001,0.64965147,5.8220005,9.13,1.63,2.02,85,11,0.573,-0.42000002,-0.39000002,1.0630001,0.24165548,0,nan,0.0,3,1,7
372321060,1562313545000149,488479171,23577314,77815,123997,1.197,0.6497021,5.852,9.094001,1.63,2.02,85,13,0.20700002,-0.18900001,-0.083000004,0.938,0.24165548,0,nan,0.0,3,1,7
372520799,1562313545200149,488479162,23577324,77326,123507,1.217,0.6497534,5.8820004,9.053,1.63,2.02,85,13,0.294,-0.252,-0.15100001,1.1730001,0.24165548,0,nan,0.0,3,1,7
372717059,1562313545400149,488479171,23577322,77485,123666,1.353,0.6498105,5.926,9.06,1.63,2.02,85,13,0.367,-0.177,-0.321,0.79800004,0.24165548,0,nan,0.0,3,1,7
372920134,1562313545600149,488479165,23577316,77553,123735,1.8440001,0.64988834,5.9800005,9.038,1.63,2.02,85,13,0.72,-0.651,-0.30800003,0.55200005,0.24165548,0,nan,0.0,3,1,7
373120075,1562313545800150,488479178,23577315,77825,124007,1.5370001,0.64995307,6.0350003,9.063001,1.63,2.01,85,13,0.342,-0.303,-0.158,0.554,0.24165548,0,nan,0.0,3,1,7
373323189,1562313546000150,488479183,23577309,78110,124291,1.4610001,0.65001535,6.0940003,9.093,1.63,2.01,85,11,1.098,-1.0380001,0.35900003,0.9850001,0.24165548,0,nan,0.0,3,1,7
373523350,1562313546200150,488479191,23577312,78247,124429,1.6140001,0.6500834,6.1540003,9.1,1.63,2.01,85,11,0.526,-0.51900005,-0.083000004,0.68,0.24165548,0,nan,0.0,3,1,7
373723226,1562313546400150,488479192,23577324,77967,124148,1.3230001,0.6501391,6.2100005,9.107,1.63,2.01,85,11,0.522,-0.49400002,0.16900001,0.943,0.24165548,0,nan,0.0,3,1,7
373922135,1562313546600150,488479201,23577350,77653,123835,1.2950001,0.65019375,6.267,9.124001,1.63,2.01,85,11,0.261,0.124000005,0.23,0.80300003,0.24165548,0,nan,0.0,3,1,7
374118441,1562313546800150,488479232,23577371,77672,123854,1.9210001,0.65027475,6.3220005,9.143001,1.63,2.01,85,11,0.77800006,0.63100004,0.45400003,0.4,0.24165548,0,nan,0.0,3,1,7
374318346,1562313547000150,488479260,23577387,77573,123754,1.9560001,0.6503573,6.379,9.156,1.63,2.01,84,12,0.84900004,0.56,0.638,0.31800002,0.24165548,0,nan,0.0,3,1,7
374524159,1562313547200150,488479286,23577414,76943,123125,2.13,0.7346949,6.4370003,9.14,1.63,2.01,84,12,1.1370001,0.89400005,0.702,0.064,0.4278507,0,nan,0.0,3,1,7
374723116,1562313547400150,488479266,23577414,76454,122636,1.514,0.73475146,6.504,9.1640005,1.63,2.01,84,12,0.492,-0.45900002,0.179,0.039,0.4278507,0,nan,0.0,3,1,7
374922298,1562313547600150,488479214,23577424,73447,119628,2.163,0.7348321,6.5720005,9.041,1.63,2.01,84,12,0.88900006,-0.859,-0.23200001,-0.027,0.4278507,0,nan,0.0,3,1,7
375121627,1562313547800150,488479187,23577435,72341,118522,1.9460001,0.7349047,6.6460004,9.0390005,1.63,2.01,84,12,1.0320001,-1.031,0.038000003,0.045,0.4278507,0,nan,0.0,3,1,7
375322177,1562313548000151,488479192,23577447,72214,118395,1.7680001,0.7349707,6.728,9.077001,1.63,2.01,85,15,0.551,-0.528,0.158,-0.091000006,0.4278507,0,nan,0.0,3,1,7
375519359,1562313548200151,488479161,23577473,69302,115483,1.3850001,0.7350223,6.8,9.028001,1.63,2.01,85,15,0.573,-0.537,0.202,0.37100002,0.4278507,0,nan,0.0,3,1,7
375721339,1562313548400151,488479147,23577516,66831,113012,1.445,0.73507625,6.873,8.989,1.63,2.01,85,15,0.4,0.105000004,0.386,0.721,0.4278507,0,nan,0.0,3,1,7
375920941,1562313548600151,488479130,23577535,65921,112102,1.143,0.73511887,6.952,9.008,1.63,2.01,85,15,0.37100002,-0.15,0.34,0.41900003,0.4278507,0,nan,0.0,3,1,7
376126161,1562313548800151,488479164,23577573,65754,111935,2.2350001,0.73520225,7.0480003,9.053,1.63,2.01,85,15,1.09,0.58000004,0.92300004,0.43,0.4278507,0,nan,0.0,3,1,7
376325079,1562313549000151,488479201,23577609,65792,111974,2.1260002,0.7352815,7.1240005,9.120001,1.63,2.01,85,13,1.4280001,0.78400004,1.1930001,0.43400002,0.4278507,0,nan,0.0,3,1,7
376517093,1562313549200151,488479230,23577659,64698,110879,2.184,0.52862704,7.202,9.149,1.63,2.01,85,13,1.7820001,1.2010001,1.3160001,0.609,0.6937406,0,nan,0.0,3,1,7
376721065,1562313549400151,488479261,23577704,63781,109962,2.25,0.46085432,7.28,9.18,1.63,2.01,85,13,1.9060001,1.3740001,1.32,0.559,0.73444515,0,nan,0.0,3,1,7
376920324,1562313549600151,488479278,23577741,62956,109138,2.311,0.61165655,7.3620005,9.213,1.63,2.01,85,13,1.58,1.059,1.172,0.28,0.77111435,0,nan,0.0,3,1,7
377120397,1562313549800151,488479281,23577767,62078,108259,2.2080002,0.6117555,7.4420004,9.249001,1.63,2.01,85,13,1.039,0.50600004,0.90700006,-0.011000001,0.77111435,0,nan,0.0,3,1,7
377320129,1562313550000152,488479275,23577799,60655,106836,1.9020001,0.61184067,7.5220003,9.2890005,1.63,2.01,85,10,0.87500006,0.18100001,0.85600007,-0.078,0.77111435,0,nan,0.0,3,1,7
377521100,1562313550200152,488479254,23577832,58647,104828,1.616,0.6119131,7.603,9.333,1.63,2.01,85,10,0.63000005,0.035,0.629,0.134,0.77111435,0,nan,0.0,3,1,7
377721063,1562313550400152,488479231,23577868,54779,100960,2.085,0.6120065,7.7110004,9.347,1.63,2.01,85,10,0.48000002,0.20600002,0.43400002,0.31500003,0.77111435,0,nan,0.0,3,1,7
377922220,1562313550600152,488479199,23577895,51459,97640,0.98700005,0.61205083,7.8230004,9.358001,1.63,2.01,85,10,0.57600003,-0.40800002,0.40600002,-0.17,0.77111435,0,nan,0.0,3,1,7
378126774,1562313550800152,488479196,23577923,50466,96647,1.47,0.6121166,7.9350004,9.418,1.63,2.01,85,10,0.66,-0.577,0.32200003,-0.62600005,0.77111435,0,nan,0.0,3,1,7
378323167,1562313551000152,488479199,23577935,50362,96543,1.7960001,0.61219704,8.047,9.497001,1.63,2.01,85,12,0.708,-0.703,0.086,-0.79200006,0.77111435,0,nan,0.0,3,1,7
378524118,1562313551200152,488479185,23577953,49241,95422,1.848,0.6122798,8.163,9.565001,1.63,2.01,85,12,0.96500003,-0.952,0.157,-0.75600004,0.77111435,0,nan,0.0,3,1,7
378722144,1562313551400152,488479161,23577998,46731,92912,1.4950001,0.61234665,8.451,9.8,1.63,2.01,85,12,0.92,-0.822,0.41400003,-1.0090001,0.77111435,0,nan,0.0,3,1,7
378921197,1562313551600152,488479122,23578047,43370,89551,1.3560001,0.6124074,8.878,10.161,1.63,2.01,85,12,0.97,-0.79,0.563,-0.869,0.77111435,0,nan,0.0,3,1,7
379114209,1562313551800152,488479103,23578099,41186,87367,1.269,0.61246604,8.92,10.095,1.63,2.01,85,12,0.99000007,-0.62100005,0.771,-0.85800004,0.77111435,0,nan,0.0,3,1,7
379321109,1562313552000153,488479121,23578164,40686,86868,1.59,0.6125372,8.64,9.734,1.63,2.01,85,10,1.269,-0.26900002,1.24,-0.425,0.77111435,0,nan,0.0,3,1,7
379520348,1562313552200153,488479105,23578185,40099,86280,0.95500004,0.61258,8.742001,9.814,1.63,2.01,85,10,0.86700004,-0.611,0.615,0.042000003,0.77111435,0,nan,0.0,3,1,7
379720816,1562313552400153,488479103,23578201,39489,85671,1.5530001,0.6126496,8.843,9.895,1.63,2.01,85,10,0.63000005,-0.59300005,0.21100001,0.63100004,0.77111435,0,nan,0.0,3,1,7
379921050,1562313552600153,488479100,23578210,38372,84553,1.616,0.61272186,8.950001,9.949,1.63,2.01,85,10,0.462,-0.462,-0.001,1.159,0.77111435,0,nan,0.0,3,1,7
380118208,1562313552800153,488479107,23578217,37716,83898,1.6220001,0.61279446,9.055,10.016001,3.1499999,4.8199997,85,10,0.384,-0.379,-0.061000004,1.3240001,0.77111435,0,nan,0.0,3,1,6
380320412,1562313553000153,488479159,23578273,37384,83565,1.7990001,0.6128749,9.17,10.1,3.1499999,4.8199997,85,11,0.804,0.4,0.697,1.2770001,0.77111435,0,nan,0.0,3,1,6
380520079,1562313553200153,488479215,23578359,37349,83530,2.69,0.7042178,9.290001,10.201,3.1499999,4.8199997,85,11,1.6040001,1.1110001,1.1570001,0.70500004,0.78586954,0,nan,0.0,3,1,6
380717091,1562313553400153,488479256,23578442,36850,83031,2.778,0.5591291,9.415001,10.301001,3.1499999,4.8199997,85,11,2.0570002,1.245,1.6380001,0.665,0.8688386,0,nan,0.0,3,1,6
380915401,1562313553600153,488479234,23578453,35905,82086,2.0500002,0.5592296,9.561001,10.3880005,3.1499999,4.8199997,85,11,0.9480001,0.177,0.93100005,0.808,0.8688386,0,nan,0.0,3,1,6
381116134,1562313553800153,488479202,23578454,34932,81114,1.6330001,0.5593097,9.712001,10.477,3.1499999,4.8199997,85,11,0.53400004,-0.505,0.17300001,0.90500003,0.8688386,0,nan,0.0,3,1,6
381319129,1562313554000153,488479145,23578416,34183,80365,2.91,0.73047173,9.858001,10.562,3.1499999,4.8199997,85,12,1.7300001,-1.6070001,-0.64000005,0.771,1.8491968,0,nan,0.0,3,1,6
381521103,1562313554200154,488479073,23578373,33263,79444,3.1680002,0.38011402,10.022,10.665001,3.1499999,4.8199997,85,12,2.7600002,-2.423,-1.322,0.878,3.2593791,0,nan,0.0,3,1,6
381712223,1562313554400154,488479016,23578338,32594,78775,3.2010002,0.3406687,10.183001,10.77,3.1499999,4.8199997,85,12,3.2200003,-2.7960002,-1.5970001,1.1500001,3.482053,0,nan,0.0,3,1,6
381916100,1562313554600154,488478971,23578302,32297,78478,3.1460001,0.3878795,10.323001,10.877001,3.1499999,4.8199997,85,12,3.4740002,-3.022,-1.713,1.1930001,3.5584023,0,nan,0.0,3,1,6
382119292,1562313554800154,488478934,23578313,31871,78052,3.1580002,0.4339321,10.463,10.987,3.1499999,4.8199997,85,12,3.1560001,-2.7500002,-1.5480001,0.94000006,3.6010482,0,nan,0.0,3,1,6
382318536,1562313555000154,488478887,23578261,31842,78023,3.1890001,0.37956354,10.598001,11.095,3.1499999,4.8199997,84,12,3.5740001,-3.0400002,-1.8790001,0.74600005,3.6543925,0,nan,0.0,3,1,6
382518676,1562313555200154,488478839,23578232,31463,77644,3.117,0.5274922,10.725,11.212001,3.1499999,4.8199997,84,12,3.667,-3.17,-1.8440001,0.9480001,3.659253,0,nan,0.0,3,1,6
382719350,1562313555400154,488478765,23578213,30794,76975,3.016,0.51058245,10.8550005,11.334001,3.1499999,4.8199997,84,12,4.0940003,-3.811,-1.4940001,1.4260001,3.584855,0,nan,0.0,3,1,6
382922675,1562313555600154,488478721,23578170,30349,76531,3.0440001,0.51484764,10.989,11.460001,3.1499999,4.8199997,84,12,3.9730003,-3.3520002,-2.1330001,1.5870001,3.6460924,0,nan,0.0,3,1,6
383114370,1562313555800154,488478740,23578174,30146,76328,2.503,0.740351,11.0060005,11.525001,1.63,2.01,84,12,2.4610002,-1.9230001,-1.5370001,1.4310001,3.7014487,0,nan,0.0,3,1,7
383323116,1562313556000154,488478773,23578179,30496,76677,2.421,0.7404407,11.127001,11.64,2.09,2.25,84,11,1.4120001,-1.3740001,-0.32700002,1.2,3.7014487,0,nan,0.0,3,1,6
383517102,1562313556200154,488478821,23578207,30565,76746,1.5200001,0.74049705,11.252001,11.755,2.09,2.25,84,11,0.31100002,-0.263,0.16700001,1.146,3.7014487,0,nan,0.0,3,1,6
383721238,1562313556400155,488478870,23578253,30496,76678,2.127,0.7405758,11.382001,11.875001,2.09,2.25,84,11,0.88500005,0.50600004,0.726,1.154,3.7014487,0,nan,0.0,3,1,6
383921149,1562313556600155,488478829,23578242,30337,76518,1.9100001,0.7406465,11.515,11.996,2.09,2.25,84,11,0.74300003,-0.702,0.24300002,0.726,3.7014487,0,nan,0.0,3,1,6
384118207,1562313556800155,488478781,23578221,30172,76353,2.834,0.7407514,11.646001,12.117001,2.09,2.25,84,11,1.5380001,-1.5180001,-0.246,0.51100004,3.7014487,0,nan,0.0,3,1,6
384313125,1562313557000155,488478757,23578194,29995,76176,3.0400002,0.7408639,11.804001,12.242001,2.09,2.25,84,13,1.6680001,-1.5560001,-0.601,0.83300006,3.7014487,0,nan,0.0,3,1,6
384520101,1562313557200155,488478778,23578236,29721,75902,2.0830002,0.7409409,11.937,12.370001,2.09,2.25,84,13,0.827,-0.82600003,0.035,1.039,3.7014487,0,nan,0.0,3,1,6
384718191,1562313557400155,488478792,23578272,29446,75627,1.5560001,0.7409985,12.073001,12.507001,2.09,2.25,84,13,0.642,-0.492,0.41300002,1.189,3.7014487,0,nan,0.0,3,1,6
384915162,1562313557600155,488478829,23578332,29021,75202,1.9760001,0.74107164,12.214001,12.633,2.09,2.25,84,13,0.84400004,0.33900002,0.77300006,1.4710001,3.7014487,0,nan,0.0,3,1,6
385120058,1562313557800155,488478855,23578389,28622,74804,2.2150002,0.7411535,12.336,12.76,2.09,2.25,84,13,1.207,0.56,1.069,1.437,3.7014487,0,nan,0.0,3,1,6
385322306,1562313558000155,488478868,23578416,28316,74498,2.048,0.74122924,12.450001,12.886001,2.09,2.25,84,11,1.0530001,0.49600002,0.92800003,1.455,3.7014487,0,nan,0.0,3,1,6
385520110,1562313558200155,488478883,23578422,28389,74570,1.9290001,0.74130064,12.559001,13.012001,2.09,2.25,84,11,0.753,0.26200002,0.70500004,1.098,3.7014487,0,nan,0.0,3,1,6
385720101,1562313558400156,488478904,23578426,28610,74792,2.042,0.7413762,12.674001,13.156001,2.09,2.25,84,11,0.64900005,0.18400002,0.62200004,0.772,3.7014487,0,nan,0.0,3,1,6
385919136,1562313558600156,488478915,23578409,28877,75058,1.616,0.74143606,12.788001,13.3,2.09,2.25,84,11,0.128,0.049000002,0.11800001,0.41000003,3.7014487,0,nan,0.0,3,1,6
386115256,1562313558800156,488478911,23578375,28890,75072,1.4840001,0.741491,12.808001,13.354001,2.09,2.25,84,11,0.606,-0.33400002,0.505,0.851,3.7014487,0,nan,0.0,3,1,6
386319200,1562313559000156,488478949,23578435,28666,74847,2.285,0.74157554,12.926001,13.491,2.09,2.25,84,13,1.113,0.42700002,1.028,0.99700004,3.7014487,0,nan,0.0,3,1,6
386519282,1562313559200156,488478972,23578468,28306,74488,2.226,0.74165773,13.035001,13.627001,2.4199998,2.8899999,84,13,1.235,0.64900005,1.051,1.3240001,3.7014487,0,nan,0.0,3,1,5
386719109,1562313559400156,488478995,23578495,27924,74105,2.177,0.7417382,13.139001,13.7630005,2.4199998,2.8899999,84,13,1.2440001,0.86300004,0.897,1.5050001,3.7014487,0,nan,0.0,3,1,5
386915234,1562313559600156,488478978,23578527,27280,73461,1.8590001,0.7418069,13.252001,13.871,2.4299998,2.8899999,84,13,0.78000003,0.141,0.767,1.1830001,3.7014487,0,nan,0.0,3,1,5
387118315,1562313559800156,488478953,23578561,26558,72740,1.5050001,0.7418626,13.368001,13.979001,2.4299998,2.8899999,84,13,0.54700005,-0.29900002,0.45700002,0.975,3.7014487,0,nan,0.0,3,1,5
387318187,1562313560000156,488478908,23578529,26200,72381,2.5200002,0.7419558,13.515,14.1050005,2.4299998,2.8899999,84,13,1.21,-1.21,-0.031000001,1.072,3.7014487,0,nan,0.0,3,1,5
387518173,1562313560200156,488478896,23578530,25722,71904,2.407,0.7420447,13.639001,14.221001,2.09,2.25,84,13,1.024,-1.001,-0.21800001,1.281,3.7014487,0,nan,0.0,3,1,6
387722128,1562313560400156,488478856,23578518,25026,71207,2.7900002,0.7421478,13.742001,14.339001,2.09,2.25,84,13,1.442,-1.263,-0.697,1.253,3.7014487,0,nan,0.0,3,1,6
387918214,1562313560600157,488478831,23578516,24589,70770,2.6890001,0.7422471,13.856001,14.491001,2.09,2.25,84,13,1.6560001,-1.616,-0.36200002,1.121,3.7014487,0,nan,0.0,3,1,6
388120057,1562313560800157,488478809,23578514,23935,70117,2.8950002,0.7423541,14.015,14.6380005,2.09,2.25,84,13,1.5530001,-1.478,-0.476,1.047,3.7014487,0,nan,0.0,3,1,6
388320325,1562313561000157,488478796,23578529,23402,69583,2.8040001,0.7424576,14.183001,14.785001,2.09,2.25,84,11,1.419,-1.411,-0.15200001,0.85300004,3.7014487,0,nan,0.0,3,1,6
388516072,1562313561200157,488478824,23578619,22853,69034,1.289,0.74250525,14.358001,14.926001,2.09,2.25,84,11,0.99100006,-0.606,0.78400004,0.69200003,3.7014487,0,nan,0.0,3,1,6
388715276,1562313561400157,488478837,23578666,22313,68495,1.697,0.7425679,14.527,15.066001,2.09,2.25,84,11,1.131,-0.354,1.074,0.95300007,3.7014487,0,nan,0.0,3,1,6
388920048,1562313561600157,488478831,23578674,21032,67213,1.547,0.742625,14.693001,15.1640005,2.09,2.25,84,11,0.74100006,-0.36800003,0.643,1.3490001,3.7014487,0,nan,0.0,3,1,6
389114451,1562313561800157,488478825,23578637,21036,67217,1.593,0.7426838,14.742001,15.2300005,2.4299998,2.8899999,84,11,0.577,-0.323,0.47800002,1.304,3.7014487,0,nan,0.0,3,1,5
389314444,1562313562000157,488478841,23578664,20486,66668,1.723,0.7427473,14.8810005,15.373001,2.4299998,2.8899999,84,11,0.314,0.07300001,0.305,1.5780001,3.7014487,0,nan,0.0,3,1,5
389507172,1562313562200157,488478846,23578689,19808,65989,1.616,0.74281156,15.008,15.492001,2.4299998,2.8899999,84,11,0.776,-0.245,0.73600006,1.5560001,3.7014487,0,nan,0.0,3,1,5
389711240,1562313562400157,488478812,23578694,18685,64866,1.549,0.7428688,15.1310005,15.597001,2.4299998,2.8899999,84,11,0.68700004,-0.633,0.26700002,1.3700001,3.7014487,0,nan,0.0,3,1,5
389911164,1562313562600157,488478755,23578631,17708,63889,2.4450002,0.742959,15.244,15.711,2.4299998,2.8899999,84,11,1.644,-1.5610001,-0.51600003,1.6,3.7014487,0,nan,0.0,3,1,5
390114438,1562313562800158,488478714,23578639,16457,62638,2.5600002,0.7614686,15.356001,15.820001,2.4299998,2.8899999,84,11,1.8270001,-1.7310001,-0.58400005,1.6660001,3.5871835,0,nan,0.0,3,1,5
390316114,1562313563000158,488478713,23578692,15531,61712,2.094,0.761544,15.461,15.938001,2.4299998,2.8899999,84,11,1.2670001,-1.266,-0.044000003,1.6190001,3.5871835,0,nan,0.0,3,1,5
390515101,1562313563200158,488478711,23578749,14652,60834,1.631,0.76161397,15.56,16.049002,2.4299998,2.8899999,84,11,1.1190001,-1.016,0.469,1.5940001,3.5871835,0,nan,0.0,3,1,5
390715235,1562313563400158,488478713,23578844,13719,59900,1.539,0.7616737,15.660001,16.169,2.4299998,2.8899999,84,11,0.869,-0.38700002,0.77800006,1.4100001,3.5871835,0,nan,0.0,3,1,5
390914142,1562313563600158,488478709,23578924,12895,59076,1.6420001,0.7617431,15.757001,16.286001,2.4299998,2.8899999,84,11,1.3180001,-0.38200003,1.261,1.4070001,3.5871835,0,nan,0.0,3,1,5
391114376,1562313563800158,488478753,23579003,12653,58834,1.649,0.7618086,15.764001,16.407001,1.79,2.4299998,84,11,1.205,-0.328,1.1600001,1.3590001,3.5871835,0,nan,0.0,3,1,6
391317119,1562313564000158,488478807,23579096,12320,58501,1.8000001,0.7618749,15.778001,16.536001,1.79,2.4299998,84,9,1.187,-0.133,1.1800001,1.4120001,3.5871835,0,nan,0.0,3,1,6
391517107,1562313564200158,488478854,23579156,12083,58264,1.6330001,0.7619374,15.790001,16.643002,1.79,2.4299998,84,9,0.85600007,-0.07300001,0.85300004,1.514,3.5871835,0,nan,0.0,3,1,6
391718181,1562313564400158,488478855,23579241,11270,57451,1.5460001,0.7620086,15.814001,16.758001,1.79,2.4299998,84,9,1.182,-0.804,0.86600006,1.5890001,3.5871835,0,nan,0.0,3,1,6
391918048,1562313564600158,488478872,23579321,10858,57039,1.6220001,0.7620718,15.837001,16.866001,1.79,2.4299998,84,9,1.1730001,-0.966,0.665,1.3050001,3.5871835,0,nan,0.0,3,1,6
392113060,1562313564800159,488478937,23579250,11996,58178,1.5920001,0.762129,15.693001,16.743,1.79,2.4299998,84,9,0.85400003,-0.69500005,0.49500003,1.3440001,3.5871835,0,nan,0.0,3,1,6
392316093,1562313565000159,488479003,23579360,11754,57935,1.651,0.7621899,15.703001,16.835001,1.79,2.4299998,84,10,1.1860001,-0.186,1.172,1.2040001,3.5871835,0,nan,0.0,3,1,6
392515267,1562313565200159,488479066,23579479,11402,57583,1.8270001,0.762261,15.711,16.922,1.79,2.4299998,84,10,1.5170001,-0.036000002,1.5170001,1.2670001,3.5871835,0,nan,0.0,3,1,6
392715268,1562313565400159,488479123,23579594,10595,56776,1.9280001,0.76233256,15.724001,17.005001,1.79,2.4299998,84,10,0.97,0.48100004,0.84200007,1.7360001,3.5871835,0,nan,0.0,3,1,6
392916955,1562313565600159,488479150,23579690,10252,56434,1.439,0.762402,15.686001,17.084002,1.79,2.4299998,84,10,1.363,-0.54200006,1.251,1.366,3.5871835,0,nan,0.0,3,1,6
393119131,1562313565800159,488479198,23579784,9872,56053,1.542,0.7624629,15.655001,17.211,1.79,2.4299998,84,10,0.79700005,-0.201,0.771,1.496,3.5871835,0,nan,0.0,3,1,6
393320153,1562313566000159,488479298,23579870,10162,56344,1.9350001,0.76253253,15.622001,17.291,1.79,2.4299998,84,10,1.25,0.53800005,1.1290001,1.3750001,3.5871835,0,nan,0.0,3,1,6
393520087,1562313566200159,488479363,23579994,9671,55853,2.141,0.76261544,15.599001,17.287,1.79,2.4299998,84,10,1.7750001,0.80100006,1.5840001,1.4710001,3.5871835,0,nan,0.0,3,1,6
393719549,1562313566400159,488479424,23580018,10097,56279,1.6270001,0.7627001,15.56,17.256,1.79,2.4299998,84,10,1.756,-0.2,1.7450001,1.572,3.5871835,0,nan,0.0,3,1,6
393923126,1562313566600159,488479443,23580108,9118,55299,1.5090001,0.76276296,15.521001,17.225,1.79,2.4299998,84,10,0.46400002,0.303,0.351,1.6830001,3.5871835,0,nan,0.0,3,1,6
394123205,1562313566800159,488479483,23580250,7832,54013,1.835,0.7628289,15.479001,17.197,1.79,2.4299998,84,10,0.934,0.86500007,0.35200003,1.5640001,3.5871835,0,nan,0.0,3,1,6
394323236,1562313567000160,488479513,23580296,7507,53688,1.3800001,0.7628849,15.416,17.102001,1.79,2.4299998,84,10,0.194,0.009000001,0.194,1.5480001,3.5871835,0,nan,0.0,3,1,6
394523191,1562313567200160,488479557,23580379,7262,53443,1.3870001,0.76293486,15.379001,17.04,1.79,2.4299998,84,10,0.61200005,-0.0050000004,0.61200005,1.213,3.5871835,0,nan,0.0,3,1,6
394715175,1562313567400160,488479626,23580459,7750,53932,1.468,0.76298755,15.331,16.948,1.63,2.01,84,10,0.642,0.047000002,0.64000005,0.95900005,3.5871835,0,nan,0.0,3,1,7
394918223,1562313567600160,488479667,23580546,7541,53722,1.8570001,0.76305425,15.332001,16.990002,1.79,2.4299998,84,10,1.0090001,0.21100001,0.98700005,0.90300006,3.5871835,0,nan,0.0,3,1,6
395118449,1562313567800160,488479706,23580462,8956,55138,1.437,0.76310587,15.147,16.881,1.63,2.01,84,10,0.48100004,-0.34300002,0.33800003,1.011,3.5871835,0,nan,0.0,3,1,7
395322051,1562313568000160,488479718,23580496,9032,55213,1.889,0.7631738,15.031001,16.787,1.63,2.01,84,9,0.89400005,-0.883,-0.13900001,1.1880001,3.5871835,0,nan,0.0,3,1,7
395516272,1562313568200160,488479753,23580561,9057,55238,1.7540001,0.7632368,14.903001,16.542002,1.63,2.01,84,9,0.80300003,-0.79700005,-0.096,1.24,3.5871835,0,nan,0.0,3,1,7
395725051,1562313568400160,488479786,23580695,8410,54591,1.2750001,0.76328254,14.774001,16.233002,1.63,2.01,84,9,0.38500002,-0.328,0.201,1.1680001,3.5871835,0,nan,0.0,3,1,7
395921150,1562313568600160,488479821,23580852,8036,54217,1.2,0.76332945,14.64,15.903001,1.63,2.01,84,9,0.97400004,-0.256,0.93900007,0.86700004,3.5871835,0,nan,0.0,3,1,7
396124095,1562313568800160,488479877,23580875,8924,55105,1.1370001,0.7633738,14.562,15.709001,1.63,2.01,84,9,0.52900004,-0.223,0.48000002,1.1140001,3.5871835,0,nan,0.0,3,1,7
396325086,1562313569000160,488479914,23580923,9446,55627,1.266,0.7634192,14.479001,15.522,1.63,2.01,84,10,0.51600003,-0.425,0.29200003,1.0090001,3.5871835,0,nan,0.0,3,1,7
396523564,1562313569200161,488479939,23580875,11129,57310,2.089,0.76349425,14.378,15.286,1.63,2.01,84,10,0.83100003,-0.76600003,-0.323,1.006,3.5871835,0,nan,0.0,3,1,7
396721104,1562313569400161,488479971,23580912,11850,58031,2.026,0.76356703,14.1380005,14.956,1.63,2.01,84,10,0.70500004,-0.563,-0.423,0.52900004,3.5871835,0,nan,0.0,3,1,7
396924090,1562313569600161,488479962,23580992,11376,57558,1.9700001,0.7636377,13.959001,14.772,1.63,2.01,84,10,0.86200005,-0.48200002,-0.71400005,0.48200002,3.5871835,0,nan,0.0,3,1,7
397119324,1562313569800161,488479998,23581022,12031,58212,1.6240001,0.763696,13.811001,14.695001,1.63,2.01,84,10,0.59800005,-0.582,0.13900001,0.259,3.5871835,0,nan,0.0,3,1,7
397315246,1562313570000161,488480033,23580999,13271,59452,1.8850001,0.7637637,13.675,14.635,1.63,2.01,84,9,0.91400003,-0.91300005,-0.053000003,0.057000004,3.5871835,0,nan,0.0,3,1,7
397521101,1562313570200161,488480049,23581014,13917,60098,2.065,0.7638379,13.5390005,14.568001,1.63,2.01,84,9,0.777,-0.71300006,-0.31,-0.012,3.5871835,0,nan,0.0,3,1,7
397721585,1562313570400161,488480061,23580991,15135,61316,2.0080001,0.7639098,13.407001,14.498001,1.63,2.01,84,9,1.2140001,-1.128,-0.44900003,0.049000002,3.5871835,0,nan,0.0,3,1,7
397919165,1562313570600161,488480078,23581043,15448,61629,1.69,0.76397055,13.307,14.473001,1.63,2.01,84,9,0.65800005,-0.656,0.049000002,-0.098000005,3.5871835,0,nan,0.0,3,1,7
398523115,1562313571200161,488480149,23581172,17012,63193,1.4360001,0.7641255,12.992001,14.367001,1.63,2.01,84,12,0.62200004,-0.33600003,0.52400005,-0.18900001,3.5871835,0,nan,0.0,3,1,7
398719307,1562313571400162,488480181,23581205,17595,63776,1.542,0.76418084,12.898001,14.333001,1.63,2.01,84,12,0.77000004,-0.029000001,0.76900005,-0.24800001,3.5871835,0,nan,0.0,3,1,7
398922209,1562313571600162,488480220,23581231,18189,64370,1.7860001,0.7642449,12.818001,14.304001,1.63,2.01,84,12,0.67300004,0.15400001,0.65500003,-0.314,3.5871835,0,nan,0.0,3,1,7
399118205,1562313571800162,488480241,23581224,18488,64669,2.253,0.76432574,12.753,14.269001,1.63,2.01,84,12,0.47800002,-0.377,-0.293,0.071,3.5871835,0,nan,0.0,3,1,7
399316787,1562313572000162,488480294,23581203,19424,65606,1.9570001,0.7643959,12.699,14.267001,1.63,2.01,85,12,0.231,-0.052,-0.22500001,0.057000004,3.5871835,0,nan,0.0,3,1,7
399518329,1562313572200162,488480367,23581190,20833,67014,2.124,0.7644721,12.653001,14.2630005,1.63,2.01,85,12,0.65800005,0.25800002,0.605,-0.34100002,3.5871835,0,nan,0.0,3,1,7
399717357,1562313572400162,488480455,23581222,21971,68152,2.421,0.68262947,12.618001,14.264001,1.63,2.01,85,12,1.8950001,1.284,1.394,-0.632,2.0509992,0,nan,0.0,3,1,7
399913170,1562313572600162,488480542,23581272,22700,68881,2.486,0.476859,12.585001,14.2630005,1.63,2.01,85,12,2.6820002,1.9840001,1.8050001,-0.56200004,1.1685392,0,nan,0.0,3,1,7
400119141,1562313572800162,488480565,23581298,23144,69325,2.345,0.47699392,12.558001,14.264001,1.63,2.01,85,12,1.5970001,0.94900006,1.2850001,-0.814,1.1685392,0,nan,0.0,3,1,7
400316346,1562313573000162,488480584,23581378,22921,69102,2.255,0.4771234,12.530001,14.261001,1.63,2.01,85,12,1.9690001,0.74600005,1.8220001,-0.64400005,1.1685392,0,nan,0.0,3,1,7
400516099,1562313573200162,488480593,23581432,22570,68751,2.298,0.47725555,12.501,14.262001,1.79,2.4299998,85,12,1.8730001,0.87500006,1.6560001,-0.264,1.1685392,0,nan,0.0,3,1,6
400717246,1562313573400162,488480613,23581504,22158,68340,2.374,0.6189374,12.481001,14.274001,1.79,2.4299998,85,12,2.4290001,1.258,2.078,0.068,1.1155269,0,nan,0.0,3,1,6
400920109,1562313573600163,488480616,23581546,21949,68131,2.459,0.61904645,12.478001,14.314001,1.79,2.4299998,85,12,1.9480001,0.97400004,1.687,0.008,1.1155269,0,nan,0.0,3,1,6
401120064,1562313573800163,488480654,23581601,22130,68311,2.4080002,0.6509301,12.460001,14.336,1.79,2.4299998,85,12,2.203,1.24,1.8210001,-0.24800001,1.0478187,0,nan,0.0,3,1,6
401320242,1562313574000163,488480632,23581640,21417,67598,1.9620001,0.65101284,12.439,14.358001,1.79,2.4299998,84,12,1.2830001,0.35000002,1.2340001,0.21100001,1.0478187,0,nan,0.0,3,1,6
401520090,1562313574200163,488480627,23581676,21043,67224,1.697,0.65108424,12.415001,14.377001,1.79,2.4299998,84,12,0.96800005,0.124000005,0.96000004,0.33200002,1.0478187,0,nan,0.0,3,1,6
401717681,1562313574400163,488480602,23581699,20257,66438,1.3840001,0.65114254,12.39,14.394001,1.79,2.4299998,84,12,0.49400002,-0.143,0.47200003,0.892,1.0478187,0,nan,0.0,3,1,6
401920175,1562313574600163,488480589,23581723,19721,65902,1.4020001,0.65120167,12.369,14.412001,1.79,2.4299998,84,12,0.43500003,-0.116000004,0.41900003,0.96300006,1.0478187,0,nan,0.0,3,1,6
402120116,1562313574800163,488480572,23581742,19196,65377,1.5300001,0.6512661,12.394001,14.479001,1.79,2.4299998,84,12,0.53400004,-0.44300002,0.29700002,1.125,1.0478187,0,nan,0.0,3,1,6
402320118,1562313575000163,488480573,23581770,18953,65135,1.3850001,0.6513244,12.419001,14.542001,1.79,2.4299998,84,13,0.43,-0.201,0.38000003,0.837,1.0478187,0,nan,0.0,3,1,6
402510348,1562313575200163,488480572,23581807,18443,64624,1.4200001,0.65138406,12.456,14.589001,3.34,5.4,84,13,0.77800006,-0.12900001,0.767,0.91300005,1.0478187,0,nan,0.0,3,1,5
402719102,1562313575400163,488480574,23581852,17991,64173,1.6040001,0.6514516,12.503,14.637001,3.34,5.4,84,13,1.013,-0.039,1.0120001,0.92300004,1.0478187,0,nan,0.0,3,1,5
402917359,1562313575600164,488480577,23581904,17364,63545,1.3920001,0.6515228,12.534,14.672001,3.34,5.4,84,13,1.383,-0.29200003,1.3510001,0.9710001,1.0478187,0,nan,0.0,3,1,5
403122180,1562313575800164,488480582,23581987,16590,62772,1.83,0.65159976,12.559001,14.708001,3.34,5.4,84,13,1.391,0.192,1.378,0.674,1.0478187,0,nan,0.0,3,1,5
403317095,1562313576000164,488480599,23582026,16119,62301,1.771,0.651675,12.584001,14.736001,3.34,5.4,84,11,1.475,0.272,1.45,1.011,1.0478187,0,nan,0.0,3,1,5
403518312,1562313576200164,488480601,23582054,15667,61849,1.605,0.65174276,12.604001,14.778001,3.1499999,4.83,84,11,1.023,0.316,0.97300005,1.2420001,1.0478187,0,nan,0.0,3,1,6
403722052,1562313576400164,488480600,23582098,15160,61342,1.598,0.65180993,12.624001,14.827001,3.1499999,4.83,84,11,0.94900006,0.25300002,0.91400003,1.1120001,1.0478187,0,nan,0.0,3,1,6
403922143,1562313576600164,488480569,23582107,14638,60819,1.3850001,0.6518682,12.632001,14.880001,1.63,2.01,84,11,0.65300006,0.001,0.65300006,1.187,1.0478187,0,nan,0.0,3,1,7
404125106,1562313576800164,488480545,23582141,14094,60276,1.463,0.651937,12.650001,14.949,1.63,2.01,84,11,1.1110001,-0.09,1.107,1.202,1.0478187,0,nan,0.0,3,1,7
404324122,1562313577000164,488480532,23582170,12825,59006,1.343,0.65200067,12.670001,14.971001,1.63,2.01,84,12,0.86100006,-0.002,0.86100006,1.248,1.0478187,0,nan,0.0,3,1,7
404520099,1562313577200164,488480492,23582188,11899,58080,1.2900001,0.65207,12.684001,15.031001,3.1499999,4.8399997,84,12,0.85600007,-0.29700002,0.80200005,1.4080001,1.0478187,0,nan,0.0,3,1,6
404722136,1562313577400164,488480474,23582246,11078,57259,1.5150001,0.65214485,12.717001,15.102001,3.1499999,4.8399997,84,12,1.1060001,0.2,1.088,1.391,1.0478187,0,nan,0.0,3,1,6
404924120,1562313577600164,488480463,23582311,10382,56564,1.6910001,0.6522389,12.757001,15.175001,3.1499999,4.8399997,84,12,1.761,0.15100001,1.7540001,1.3840001,1.0478187,0,nan,0.0,3,1,6
405115199,1562313577800165,488480446,23582343,9724,55905,1.5810001,0.65231013,12.808001,15.2560005,3.1499999,4.8399997,84,12,1.154,0.158,1.143,1.2390001,1.0478187,0,nan,0.0,3,1,6
405319165,1562313578000165,488480424,23582379,8987,55168,1.6140001,0.6523981,12.862,15.362,3.1499999,4.8399997,84,12,1.243,0.462,1.154,1.682,1.0478187,0,nan,0.0,3,1,6
405520167,1562313578200165,488480382,23582467,8115,54296,1.9790001,0.5905878,12.875001,15.451001,3.1499999,4.8399997,84,12,1.8880001,1.0860001,1.544,1.309,0.9982686,0,nan,0.0,3,1,6
405720221,1562313578400165,488480373,23582557,7652,53833,2.305,0.50271416,12.902,15.5390005,3.1499999,4.8399997,84,12,2.7900002,1.34,2.447,1.136,1.0397003,0,nan,0.0,3,1,6
405922169,1562313578600165,488480339,23582656,6788,52970,2.265,0.4861279,12.922001,15.626,3.1499999,4.8399997,84,12,2.904,1.314,2.5900002,1.0760001,1.0714562,0,nan,0.0,3,1,6
406124050,1562313578800165,488480336,23582733,6395,52576,2.3230002,0.45165262,12.953001,15.717001,3.1499999,4.8399997,84,12,2.9060001,1.659,2.3860002,0.957,1.0132929,0,nan,0.0,3,1,6
406320114,1562313579000165,488480307,23582759,5904,52085,2.1230001,0.5877358,12.999001,15.81,3.1499999,4.8399997,84,11,2.262,1.261,1.8780001,1.2870001,1.0007124,0,nan,0.0,3,1,6
406515236,1562313579200165,488480311,23582770,5763,51944,1.95,0.58784956,13.073001,15.9210005,3.1499999,4.8399997,84,11,1.891,0.832,1.6980001,1.544,1.0007124,0,nan,0.0,3,1,6
406722174,1562313579400165,488480337,23582809,5737,51918,2.0070002,0.74292886,13.120001,16.016,3.1499999,4.8399997,84,11,1.8750001,1.056,1.549,1.3690001,0.9899205,0,nan,0.0,3,1,6
406922067,1562313579600165,488480337,23582800,5813,51994,1.605,0.74300337,13.165001,16.104,3.1499999,4.8399997,84,11,1.35,0.35000002,1.304,1.5000001,0.9899205,0,nan,0.0,3,1,6
407119433,1562313579800166,488480355,23582826,5842,52023,1.6840001,0.74308157,13.207001,16.196001,3.1499999,4.8399997,84,11,1.5200001,0.476,1.4440001,1.475,0.9899205,0,nan,0.0,3,1,6
407322113,1562313580000166,488480327,23582835,5383,51565,1.4460001,0.7431348,13.245001,16.292002,3.1499999,4.8399997,84,12,0.298,-0.16000001,0.25100002,1.1450001,0.9899205,0,nan,0.0,3,1,6
407517202,1562313580200166,488480293,23582776,5393,51574,1.8040001,0.7432015,13.216001,16.309,1.63,2.01,84,12,0.717,-0.703,0.14400001,0.989,0.9899205,0,nan,0.0,3,1,7
407714487,1562313580400166,488480245,23582776,4810,50991,2.0990002,0.7432788,13.243001,16.400002,1.63,2.01,84,12,0.93200004,-0.901,-0.24000001,1.315,0.9899205,0,nan,0.0,3,1,7
407916855,1562313580600166,488480244,23582806,4807,50988,1.4660001,0.74333286,13.258,16.494001,1.63,2.01,84,12,0.46,-0.287,0.36,1.054,0.9899205,0,nan,0.0,3,1,7
408120121,1562313580800166,488480241,23582835,4752,50933,1.348,0.74338263,13.272,16.582,1.63,2.01,84,12,0.42000002,0.003,0.42000002,0.74200004,0.9899205,0,nan,0.0,3,1,7
408320169,1562313581000166,488480231,23582851,4585,50767,1.3470001,0.7434324,13.2890005,16.663,1.63,2.01,84,13,0.51500005,0.127,0.499,0.96700007,0.9899205,0,nan,0.0,3,1,7
408517204,1562313581200166,488480224,23582875,4328,50510,1.3440001,0.74348193,13.290001,16.707,1.63,2.01,84,13,0.595,0.32200003,0.5,1.0890001,0.9899205,0,nan,0.0,3,1,7
408720049,1562313581400166,488480205,23582900,4040,50221,1.3210001,0.74353063,13.280001,16.719,1.63,2.01,84,13,0.619,-0.09200001,0.61200005,1.131,0.9899205,0,nan,0.0,3,1,7
408920088,1562313581600166,488480189,23582951,3525,49706,1.309,0.743579,13.26,16.7,1.63,2.01,84,13,0.60200006,0.27100003,0.537,1.143,0.9899205,0,nan,0.0,3,1,7
409120061,1562313581800166,488480175,23582987,3123,49304,1.2950001,0.74362665,13.245001,16.689001,1.63,2.01,84,13,0.683,-0.068,0.68,1.0320001,0.9899205,0,nan,0.0,3,1,7
409321220,1562313582000167,488480149,23582987,2873,49055,1.46,0.74368054,13.2300005,16.677,1.63,2.01,84,12,0.45800003,-0.42200002,0.179,1.074,0.9899205,0,nan,0.0,3,1,7
409519137,1562313582200167,488480106,23582967,2687,48868,2.255,0.7437636,13.222001,16.679,1.63,2.01,84,12,1.294,-1.153,-0.58900005,0.768,0.9899205,0,nan,0.0,3,1,7
409720074,1562313582400167,488480071,23582965,2713,48894,2.269,0.77372515,13.244,16.738,1.63,2.01,84,12,1.7320001,-1.6070001,-0.648,0.148,2.2075448,0,nan,0.0,3,1,7
409920156,1562313582600167,488480056,23582923,3755,49937,2.265,0.7687639,13.277,16.776001,1.63,2.01,84,12,1.3470001,-1.189,-0.632,-0.09,2.9235556,0,nan,0.0,3,1,7
410119311,1562313582800167,488480037,23582910,3803,49985,2.4980001,0.76885307,13.325001,16.86,1.63,2.01,84,12,1.355,-0.92200005,-0.99200004,-0.143,2.9235556,0,nan,0.0,3,1,7
410311203,1562313583000167,488480025,23582905,3900,50081,2.4050002,0.7689388,13.369,16.927,1.63,2.01,84,9,1.1270001,-1.088,-0.29500002,-0.11800001,2.9235556,0,nan,0.0,3,1,7
410516059,1562313583200167,488480024,23582824,4584,50765,2.3000002,0.7690208,13.358001,16.92,1.63,2.01,84,9,0.70900005,-0.702,-0.09900001,0.252,2.9235556,0,nan,0.0,3,1,7
410719160,1562313583400167,488479998,23582825,4228,50410,2.6910002,0.7691168,13.416,16.985,1.63,2.01,84,9,1.033,-0.73700005,-0.72400004,0.286,2.9235556,0,nan,0.0,3,1,7
410914298,1562313583600167,488479969,23582797,4239,50421,2.7830002,0.7259667,13.477,17.035002,1.63,2.01,84,9,1.4490001,-1.1700001,-0.85400003,0.238,3.3723452,0,nan,0.0,3,1,7
411113511,1562313583800167,488479981,23582788,4658,50839,2.8860002,0.72607577,13.556001,17.109001,1.63,2.01,84,9,0.785,-0.68100005,-0.39100003,-0.014,3.3723452,0,nan,0.0,3,1,7
411316179,1562313584000167,488479980,23582806,4834,51015,1.937,0.7261489,13.642,17.185001,1.63,2.01,84,10,0.776,-0.76000005,0.157,-0.31300002,3.3723452,0,nan,0.0,3,1,7
411517054,1562313584200168,488480002,23582854,5118,51299,2.1490002,0.7262299,13.742001,17.278,1.63,2.01,84,10,0.49600002,0.017,0.49600002,-0.69200003,3.3723452,0,nan,0.0,3,1,7
411713162,1562313584400168,488480024,23582854,5724,51905,1.9860001,0.72630495,13.841001,17.378,1.63,2.01,84,10,0.402,0.402,0.007,-1.143,3.3723452,0,nan,0.0,3,1,7
411917122,1562313584600168,488480025,23582813,6275,52457,1.71,0.7263697,13.948001,17.482,1.63,2.01,84,10,0.776,0.13800001,-0.76400006,-1.4770001,3.3723452,0,nan,0.0,3,1,7
412119512,1562313584800168,488479994,23582797,6469,52651,2.115,0.72644943,14.053,17.6,1.63,2.01,84,10,1.0660001,-0.96900004,-0.44500002,-1.4020001,3.3723452,0,nan,0.0,3,1,7
412324255,1562313585000168,488479964,23582783,6624,52806,2.482,0.7265432,14.147,17.69,1.63,2.01,84,9,1.552,-1.552,-0.019000001,-0.952,3.3723452,0,nan,0.0,3,1,7
412520545,1562313585200168,488479961,23582767,6492,52673,2.743,0.72664666,14.234,17.786001,1.63,2.01,84,9,1.018,-0.85,-0.56100005,-0.583,3.3723452,0,nan,0.0,3,1,7
412720055,1562313585400168,488479935,23582782,5889,52070,2.9570003,0.7267582,14.320001,17.876001,1.63,2.01,84,9,1.116,-0.92700005,-0.62200004,-0.273,3.3723452,0,nan,0.0,3,1,7
412920071,1562313585600168,488479898,23582791,5576,51757,2.983,0.7268708,14.419001,17.984001,1.79,2.4299998,84,9,1.593,-1.547,-0.38200003,-0.09900001,3.3723452,0,nan,0.0,3,1,6
413128099,1562313585800168,488479901,23582809,5753,51935,2.4390001,0.72696275,14.5130005,18.081001,1.63,2.01,84,9,1.4100001,-1.3460001,0.42100003,0.040000003,3.3723452,0,nan,0.0,3,1,7
413328063,1562313586000168,488479902,23582802,5779,51960,2.299,0.7270493,14.608001,18.178001,1.63,2.01,84,8,1.1570001,-1.088,0.39400002,0.36,3.3723452,0,nan,0.0,3,1,7
413524150,1562313586200168,488479889,23582758,5928,52110,2.266,0.7271348,14.585001,18.189001,1.63,2.01,84,8,1.1780001,-1.123,0.35700002,0.6,3.3723452,0,nan,0.0,3,1,7
413722194,1562313586400169,488479898,23582767,5422,51603,1.9410001,0.72720814,14.668,18.310001,1.79,2.4299998,84,8,0.76500005,-0.71400005,0.273,1.266,3.3723452,0,nan,0.0,3,1,6
413922949,1562313586600169,488479849,23582775,5121,51302,2.5210001,0.7273031,14.769001,18.436,1.79,2.4299998,84,8,1.8360001,-1.8130001,0.289,1.217,3.3723452,0,nan,0.0,3,1,6
414122155,1562313586800169,488479768,23582742,4333,50514,3.0600002,0.727424,14.895,18.584002,1.79,2.4299998,84,8,2.855,-2.6950002,-0.94000006,1.468,3.3723452,0,nan,0.0,3,1,6
414326319,1562313587000169,488479740,23582731,3408,49590,2.969,0.7275438,15.016001,18.731,1.63,2.01,84,11,2.545,-2.207,-1.2670001,1.9010001,3.3723452,0,nan,0.0,3,1,7
414526160,1562313587200169,488479657,23582729,2639,48821,2.9850001,0.6935652,15.137001,18.881,1.63,2.01,84,11,3.4390001,-3.3690002,-0.694,2.1290002,3.3578646,0,nan,0.0,3,1,7
414722320,1562313587400169,488479596,23582740,1836,48017,3.035,0.6941075,15.260001,19.032001,1.63,2.01,84,11,3.456,-3.3600001,-0.808,2.0930002,3.3676562,0,nan,0.0,3,1,7
414921413,1562313587600169,488479545,23582677,1261,47443,3.183,0.528049,15.377001,19.184,1.63,2.01,84,11,3.7020001,-2.9620001,-2.22,1.8410001,3.6318917,0,nan,0.0,3,1,7
415122049,1562313587800169,488479504,23582613,640,46821,3.164,0.57180405,15.504001,19.338001,1.63,2.01,84,11,3.726,-2.739,-2.526,2.033,3.7492113,0,nan,0.0,3,1,7
415322198,1562313588000169,488479464,23582556,-140,46041,3.2040002,0.537542,15.634001,19.464,1.63,2.01,84,10,3.6250002,-2.48,-2.6430001,2.223,3.8604934,0,nan,0.0,3,1,7
415516295,1562313588200169,488479471,23582582,-678,45504,3.1190002,0.5377012,15.772,19.592001,1.63,2.01,84,10,2.3040001,-1.761,-1.4860001,2.0760002,3.8604934,0,nan,0.0,3,1,7
415722050,1562313588400170,488479486,23582627,-1252,44929,2.8160002,0.53784466,15.910001,19.719002,1.63,2.01,84,10,1.273,-0.943,-0.855,1.835,3.8604934,0,nan,0.0,3,1,7
415920519,1562313588600170,488479523,23582703,-1432,44749,1.7310001,0.53793275,15.659,19.022001,1.24,1.3199999,84,10,0.22800002,-0.134,0.18400002,1.3700001,3.8604934,0,nan,0.0,3,1,8
416121099,1562313588800170,488479570,23582803,-1041,45141,2.838,0.5380775,15.474001,18.439001,1.24,1.3199999,84,10,1.3280001,0.273,1.299,0.44000003,3.8604934,0,nan,0.0,3,1,8
416324057,1562313589000170,488479649,23582923,-472,45709,3.3460002,0.75381655,15.302001,17.935001,1.24,1.3199999,84,10,2.426,1.3310001,2.029,-0.328,2.8913033,0,nan,0.0,3,1,8
416520916,1562313589200170,488479660,23582840,9,46191,2.9420002,0.75392354,15.005001,17.398,1.24,1.3199999,84,10,1.7290001,1.2670001,1.176,0.21900001,2.8913033,0,nan,0.0,3,1,8
416729162,1562313589400170,488479702,23582898,-733,45448,2.861,0.7540277,15.096001,17.5,1.63,2.01,84,10,2.2120001,2.035,0.86700004,0.697,2.8913033,0,nan,0.0,3,1,7
416924070,1562313589600170,488479749,23582908,-729,45452,2.9450002,0.7541347,15.205001,17.618,1.63,2.01,84,10,2.217,2.091,0.735,0.69600004,2.8913033,0,nan,0.0,3,1,7
417120291,1562313589800170,488479757,23582979,-1336,44845,2.7410002,0.7542344,15.279,17.716002,1.63,2.01,84,10,2.1650002,1.213,1.7930001,1.041,2.8913033,0,nan,0.0,3,1,7
417321062,1562313590000170,488479750,23583041,-1973,44208,2.453,0.7543236,15.354001,17.815,1.63,2.01,84,10,2.029,0.574,1.9460001,1.1650001,2.8913033,0,nan,0.0,3,1,7
417520059,1562313590200170,488479716,23583098,-2579,43603,1.9110001,0.75439304,15.423,17.904001,1.63,2.01,84,10,1.6150001,-0.223,1.6,0.9250001,2.8913033,0,nan,0.0,3,1,7
417722306,1562313590400170,488479698,23583092,-2667,43514,1.588,0.7544508,15.490001,17.983002,1.63,2.01,84,10,0.735,-0.171,0.71400005,0.88900006,2.8913033,0,nan,0.0,3,1,7
417922158,1562313590600171,488479663,23583107,-2910,43271,1.5180001,0.754506,15.5460005,18.052,1.24,1.3199999,84,10,0.523,-0.30900002,0.42200002,1.005,2.8913033,0,nan,0.0,3,1,8
418120115,1562313590800171,488479564,23583057,-1697,44485,2.1330001,0.7545835,15.585001,18.029001,1.24,1.3199999,84,10,0.81500006,-0.81000006,-0.086,1.1190001,2.8913033,0,nan,0.0,3,1,8
418322199,1562313591000171,488479498,23583020,-1158,45024,2.1220002,0.7546606,15.632001,18.033,1.24,1.3199999,84,10,1.001,-0.98100007,-0.202,1.4900001,2.8913033,0,nan,0.0,3,1,8
418525573,1562313591200171,488479455,23582998,-1180,45001,2.108,0.7547372,15.678,18.039001,1.24,1.3199999,84,10,0.9850001,-0.89300007,-0.41500002,1.774,2.8913033,0,nan,0.0,3,1,8
