timestamp,timestamp_last_signal,channel_count,rssi,rc_lost_frame_count,rc_total_frame_count,rc_ppm_frame_length,values[0],values[1],values[2],values[3],values[4],values[5],values[6],values[7],values[8],values[9],values[10],values[11],values[12],values[13],values[14],values[15],values[16],values[17],rc_failsafe,rc_lost,input_source
349499734,349499734,12,45,0,0,30003,1497,1509,1507,1504,1505,1257,1105,1105,1506,1105,1505,1257,0,0,0,0,0,0,0,0,2
349702974,349702974,12,45,0,0,30003,1498,1508,1507,1505,1505,1257,1105,1105,1505,1105,1506,1257,0,0,0,0,0,0,0,0,2
349902852,349902852,12,45,0,0,30004,1497,1508,1507,1504,1505,1257,1106,1105,1505,1105,1505,1257,0,0,0,0,0,0,0,0,2
350098745,350098745,12,45,0,0,30004,1498,1509,1507,1504,1505,1257,1105,1105,1506,1105,1505,1257,0,0,0,0,0,0,0,0,2
350294316,350294316,12,45,0,0,30003,1498,1508,1507,1504,1505,1258,1105,1105,1505,1105,1505,1257,0,0,0,0,0,0,0,0,2
350510183,350510183,12,45,0,0,30003,1497,1508,1507,1504,1505,1258,1105,1105,1505,1105,1505,1257,0,0,0,0,0,0,0,0,2
350714195,350714195,12,45,0,0,30003,1498,1508,1508,1504,1505,1257,1105,1105,1505,1106,1505,1257,0,0,0,0,0,0,0,0,2
350906337,350906337,12,45,0,0,30003,1497,1508,1507,1504,1506,1257,1105,1105,1505,1105,1505,1258,0,0,0,0,0,0,0,0,2
351121940,351121940,12,45,0,0,30003,1497,1508,1507,1504,1505,1258,1105,1105,1505,1105,1505,1257,0,0,0,0,0,0,0,0,2
351321384,351321384,12,45,0,0,30003,1497,1509,1507,1504,1505,1257,1105,1105,1506,1105,1505,1257,0,0,0,0,0,0,0,0,2
351513514,351513514,12,45,0,0,30003,1498,1508,1507,1504,1506,1257,1105,1105,1505,1105,1505,1258,0,0,0,0,0,0,0,0,2
351717356,351717356,12,45,0,0,30003,1497,1508,1506,1504,1505,1257,1106,1105,1505,1105,1505,1257,0,0,0,0,0,0,0,0,2
351916379,351916379,12,45,0,0,30004,1496,1509,1506,1504,1505,1257,1105,1105,1506,1105,1505,1257,0,0,0,0,0,0,0,0,2
352136394,352136394,12,45,0,0,30003,1497,1508,1506,1505,1505,1257,1105,1105,1505,1105,1506,1257,0,0,0,0,0,0,0,0,2
352336366,352336366,12,45,0,0,30003,1498,1508,1506,1504,1506,1257,1105,1105,1505,1105,1505,1258,0,0,0,0,0,0,0,0,2
352536349,352536349,12,45,0,0,30003,1497,1509,1506,1504,1505,1257,1105,1105,1506,1105,1505,1257,0,0,0,0,0,0,0,0,2
352739562,352739562,12,45,0,0,30004,1498,1508,1506,1506,1505,1257,1105,1105,1505,1105,1506,1257,0,0,0,0,0,0,0,0,2
352943745,352943745,12,45,0,0,30003,1498,1508,1506,1504,1506,1257,1105,1105,1505,1105,1505,1258,0,0,0,0,0,0,0,0,2
353147570,353147570,12,45,0,0,30003,1498,1508,1506,1504,1505,1257,1106,1105,1505,1105,1505,1257,0,0,0,0,0,0,0,0,2
353351550,353351550,12,45,0,0,30004,1509,1508,1507,1503,1505,1257,1105,1105,1505,1106,1505,1257,0,0,0,0,0,0,0,0,2
353542767,353542767,12,45,0,0,30003,1498,1508,1506,1505,1506,1257,1105,1105,1505,1105,1505,1258,0,0,0,0,0,0,0,0,2
353738812,353738812,12,45,0,0,30004,1497,1509,1507,1504,1505,1257,1105,1105,1506,1105,1505,1257,0,0,0,0,0,0,0,0,2
353938928,353938928,12,45,0,0,30003,1499,1508,1508,1505,1505,1257,1105,1105,1505,1106,1505,1257,0,0,0,0,0,0,0,0,2
354158734,354158734,12,45,0,0,30003,1498,1509,1508,1504,1506,1257,1105,1105,1505,1105,1505,1258,0,0,0,0,0,0,0,0,2
354342157,354342157,12,45,0,0,30004,1512,1509,1508,1504,1505,1257,1105,1105,1506,1105,1505,1257,0,0,0,0,0,0,0,0,2
354545937,354545937,12,45,0,0,30003,1540,1508,1507,1505,1505,1257,1105,1105,1505,1105,1506,1257,0,0,0,0,0,0,0,0,2
354746215,354746215,12,45,0,0,30003,1554,1508,1507,1504,1505,1257,1106,1105,1505,1105,1505,1257,0,0,0,0,0,0,0,0,2
354969966,354969966,12,45,0,0,30004,1559,1509,1507,1503,1505,1257,1105,1105,1506,1105,1505,1257,0,0,0,0,0,0,0,0,2
355165193,355165193,12,45,0,0,30003,1560,1508,1508,1505,1505,1257,1105,1105,1505,1105,1506,1257,0,0,0,0,0,0,0,0,2
355353357,355353357,12,45,0,0,30004,1554,1509,1507,1505,1505,1257,1105,1106,1505,1105,1505,1257,0,0,0,0,0,0,0,0,2
355577127,355577127,12,45,0,0,30003,1576,1508,1507,1505,1505,1257,1105,1105,1505,1105,1505,1257,0,0,0,0,0,0,0,0,2
355777237,355777237,12,45,0,0,30003,1587,1508,1507,1504,1505,1258,1105,1105,1505,1105,1505,1257,0,0,0,0,0,0,0,0,2
355976357,355976357,12,45,0,0,30003,1605,1508,1507,1504,1505,1257,1105,1106,1505,1105,1505,1257,0,0,0,0,0,0,0,0,2
356160563,356160563,12,45,0,0,30003,1606,1508,1507,1504,1506,1257,1105,1105,1505,1105,1505,1258,0,0,0,0,0,0,0,0,2
356368394,356368394,12,45,0,0,30003,1621,1508,1507,1505,1505,1257,1106,1105,1505,1105,1505,1257,0,0,0,0,0,0,0,0,2
356572560,356572560,12,45,0,0,30003,1621,1509,1507,1505,1505,1257,1105,1105,1506,1105,1505,1257,0,0,0,0,0,0,0,0,2
356775575,356775575,12,45,0,0,30003,1619,1508,1507,1504,1505,1258,1105,1105,1505,1105,1505,1257,0,0,0,0,0,0,0,0,2
356991601,356991601,12,45,0,0,30003,1604,1509,1507,1505,1505,1258,1105,1105,1505,1105,1505,1257,0,0,0,0,0,0,0,0,2
357191923,357191923,12,45,0,0,30003,1581,1508,1534,1504,1505,1257,1105,1105,1505,1105,1506,1257,0,0,0,0,0,0,0,0,2
357394791,357394791,12,45,0,0,30003,1547,1508,1552,1504,1506,1257,1105,1105,1505,1105,1505,1257,0,0,0,0,0,0,0,0,2
357594789,357594789,12,45,0,0,30003,1499,1508,1524,1505,1505,1257,1105,1106,1505,1105,1505,1257,0,0,0,0,0,0,0,0,2
357786976,357786976,12,45,0,0,30003,1497,1508,1507,1506,1505,1257,1105,1105,1505,1105,1506,1257,0,0,0,0,0,0,0,0,2
357990953,357990953,12,45,0,0,30003,1475,1508,1511,1504,1505,1258,1105,1105,1505,1105,1505,1257,0,0,0,0,0,0,0,0,2
358189978,358189978,12,45,0,0,30003,1452,1509,1568,1504,1505,1257,1105,1105,1506,1105,1505,1257,0,0,0,0,0,0,0,0,2
358397942,358397942,12,45,0,0,30003,1455,1508,1507,1505,1505,1257,1105,1105,1505,1105,1506,1257,0,0,0,0,0,0,0,0,2
358594368,358594368,12,45,0,0,30003,1442,1508,1507,1504,1505,1257,1106,1105,1505,1105,1505,1257,0,0,0,0,0,0,0,0,2
358805987,358805987,12,45,0,0,30004,1438,1510,1507,1504,1505,1257,1105,1105,1506,1105,1505,1257,0,0,0,0,0,0,0,0,2
359001334,359001334,12,45,0,0,30003,1447,1508,1522,1505,1505,1257,1105,1105,1505,1105,1506,1257,0,0,0,0,0,0,0,0,2
359205559,359205559,12,45,0,0,30003,1448,1508,1555,1504,1505,1257,1105,1106,1505,1105,1505,1257,0,0,0,0,0,0,0,0,2
359421518,359421518,12,45,0,0,30004,1449,1508,1565,1505,1505,1257,1105,1106,1505,1105,1505,1257,0,0,0,0,0,0,0,0,2
359625367,359625367,12,45,0,0,30003,1462,1508,1508,1505,1506,1257,1105,1105,1505,1105,1505,1258,0,0,0,0,0,0,0,0,2
359807762,359807762,12,45,0,0,30003,1496,1509,1507,1504,1505,1258,1105,1105,1505,1105,1505,1257,0,0,0,0,0,0,0,0,2
360012514,360012514,12,45,0,0,30004,1497,1508,1508,1504,1505,1257,1105,1105,1505,1106,1505,1257,0,0,0,0,0,0,0,0,2
360232362,360232362,12,45,0,0,30004,1510,1508,1508,1536,1505,1257,1105,1105,1505,1106,1505,1257,0,0,0,0,0,0,0,0,2
360428755,360428755,12,45,0,0,30003,1530,1509,1507,1597,1505,1258,1105,1105,1505,1105,1505,1257,0,0,0,0,0,0,0,0,2
360635569,360635569,12,45,0,0,30004,1528,1509,1507,1603,1505,1257,1105,1105,1506,1105,1505,1257,0,0,0,0,0,0,0,0,2
360823613,360823613,12,45,0,0,30003,1529,1509,1507,1605,1506,1257,1105,1105,1505,1105,1505,1258,0,0,0,0,0,0,0,0,2
361035914,361035914,12,45,0,0,30003,1531,1509,1533,1572,1505,1257,1106,1105,1505,1105,1505,1257,0,0,0,0,0,0,0,0,2
361231537,361231537,12,45,0,0,30003,1534,1509,1531,1572,1505,1257,1105,1105,1506,1105,1505,1257,0,0,0,0,0,0,0,0,2
361446745,361446745,12,45,0,0,30004,1586,1508,1509,1571,1505,1257,1105,1105,1505,1106,1505,1257,0,0,0,0,0,0,0,0,2
361651016,361651016,12,45,0,0,30003,1594,1508,1508,1572,1506,1257,1105,1105,1505,1105,1505,1258,0,0,0,0,0,0,0,0,2
361846801,361846801,12,45,0,0,30003,1566,1509,1507,1563,1505,1258,1105,1105,1505,1105,1505,1257,0,0,0,0,0,0,0,0,2
362050735,362050735,12,45,0,0,30003,1563,1509,1508,1594,1505,1257,1105,1105,1505,1106,1505,1257,0,0,0,0,0,0,0,0,2
362258315,362258315,12,45,0,0,30003,1570,1508,1507,1615,1506,1257,1105,1105,1505,1105,1505,1258,0,0,0,0,0,0,0,0,2
362454166,362454166,12,45,0,0,30003,1571,1509,1507,1609,1505,1258,1105,1105,1505,1105,1505,1257,0,0,0,0,0,0,0,0,2
362657951,362657951,12,45,0,0,30003,1577,1509,1507,1605,1505,1257,1105,1106,1505,1105,1505,1257,0,0,0,0,0,0,0,0,2
362854144,362854144,12,45,0,0,30003,1581,1508,1535,1598,1506,1257,1105,1105,1505,1105,1505,1258,0,0,0,0,0,0,0,0,2
363053135,363053135,12,45,0,0,30004,1577,1508,1545,1595,1505,1257,1105,1106,1505,1105,1505,1257,0,0,0,0,0,0,0,0,2
363261157,363261157,12,45,0,0,30003,1572,1508,1552,1588,1505,1257,1105,1105,1505,1106,1505,1257,0,0,0,0,0,0,0,0,2
363465173,363465173,12,45,0,0,30003,1562,1508,1552,1576,1505,1257,1106,1105,1505,1105,1505,1257,0,0,0,0,0,0,0,0,2
363664397,363664397,12,45,0,0,30004,1524,1508,1540,1504,1505,1257,1105,1105,1506,1105,1505,1257,0,0,0,0,0,0,0,0,2
363868581,363868581,12,45,0,0,30003,1535,1508,1524,1505,1506,1257,1105,1105,1505,1105,1505,1258,0,0,0,0,0,0,0,0,2
364064382,364064382,12,45,0,0,30003,1576,1509,1522,1506,1505,1257,1105,1105,1506,1105,1505,1257,0,0,0,0,0,0,0,0,2
364276356,364276356,12,45,0,0,30003,1578,1508,1519,1507,1505,1257,1105,1105,1505,1105,1506,1257,0,0,0,0,0,0,0,0,2
364479537,364479537,12,45,0,0,30003,1578,1508,1513,1506,1505,1258,1105,1105,1505,1105,1505,1257,0,0,0,0,0,0,0,0,2
364679762,364679762,12,45,0,0,30003,1574,1509,1515,1506,1505,1257,1105,1105,1506,1105,1505,1257,0,0,0,0,0,0,0,0,2
364883935,364883935,12,45,0,0,30003,1572,1508,1515,1507,1505,1257,1105,1105,1505,1105,1506,1257,0,0,0,0,0,0,0,0,2
365087564,365087564,12,45,0,0,30003,1558,1508,1514,1505,1505,1258,1105,1105,1505,1105,1505,1257,0,0,0,0,0,0,0,0,2
365292557,365292557,12,45,0,0,30003,1545,1508,1520,1505,1505,1257,1105,1105,1505,1106,1505,1257,0,0,0,0,0,0,0,0,2
365494791,365494791,12,45,0,0,30003,1536,1508,1523,1505,1506,1257,1105,1105,1505,1105,1505,1258,0,0,0,0,0,0,0,0,2
365686767,365686767,12,45,0,0,30003,1534,1509,1531,1505,1505,1257,1105,1105,1506,1105,1505,1257,0,0,0,0,0,0,0,0,2
365906924,365906924,12,45,0,0,30003,1587,1509,1540,1505,1505,1257,1105,1105,1506,1105,1505,1257,0,0,0,0,0,0,0,0,2
366102315,366102315,12,45,0,0,30003,1556,1508,1540,1505,1505,1258,1105,1105,1505,1105,1505,1257,0,0,0,0,0,0,0,0,2
366294191,366294191,12,45,0,0,30003,1543,1508,1538,1505,1505,1257,1105,1106,1505,1105,1505,1257,0,0,0,0,0,0,0,0,2
366506187,366506187,12,45,0,0,30004,1542,1508,1542,1505,1505,1257,1105,1105,1505,1106,1505,1257,0,0,0,0,0,0,0,0,2
366710154,366710154,12,45,0,0,30003,1571,1508,1550,1505,1506,1257,1105,1105,1505,1105,1505,1258,0,0,0,0,0,0,0,0,2
366913388,366913388,12,45,0,0,30003,1573,1509,1548,1505,1505,1257,1105,1105,1506,1105,1505,1257,0,0,0,0,0,0,0,0,2
367117152,367117152,12,45,0,0,30003,1576,1509,1548,1506,1505,1257,1105,1105,1505,1105,1506,1257,0,0,0,0,0,0,0,0,2
367317193,367317193,12,45,0,0,30003,1574,1508,1546,1505,1506,1257,1105,1105,1505,1105,1505,1257,0,0,0,0,0,0,0,0,2
367509175,367509175,12,45,0,0,30003,1575,1509,1539,1505,1505,1257,1105,1105,1506,1105,1505,1257,0,0,0,0,0,0,0,0,2
367732366,367732366,12,45,0,0,30004,1574,1509,1537,1505,1505,1257,1105,1105,1505,1106,1505,1257,0,0,0,0,0,0,0,0,2
367920574,367920574,12,45,0,0,30003,1575,1508,1535,1505,1505,1258,1105,1105,1505,1105,1505,1257,0,0,0,0,0,0,0,0,2
368136355,368136355,12,45,0,0,30004,1579,1508,1527,1505,1505,1257,1105,1106,1505,1105,1505,1257,0,0,0,0,0,0,0,0,2
368332539,368332539,12,45,0,0,30003,1580,1508,1521,1505,1505,1257,1105,1105,1505,1106,1505,1257,0,0,0,0,0,0,0,0,2
368539555,368539555,12,45,0,0,30003,1581,1508,1516,1505,1506,1257,1105,1105,1505,1105,1505,1258,0,0,0,0,0,0,0,0,2
368731591,368731591,12,45,0,0,30003,1577,1509,1509,1505,1505,1257,1105,1105,1506,1105,1505,1257,0,0,0,0,0,0,0,0,2
368931607,368931607,12,45,0,0,30004,1571,1508,1539,1505,1505,1257,1105,1105,1505,1106,1505,1257,0,0,0,0,0,0,0,0,2
369134772,369134772,12,45,0,0,30003,1572,1508,1543,1505,1505,1257,1106,1105,1505,1105,1505,1257,0,0,0,0,0,0,0,0,2
369330952,369330952,12,45,0,0,30003,1570,1509,1538,1505,1505,1257,1105,1105,1506,1105,1505,1257,0,0,0,0,0,0,0,0,2
369546763,369546763,12,45,0,0,30003,1571,1508,1531,1505,1505,1257,1105,1105,1505,1106,1505,1257,0,0,0,0,0,0,0,0,2
369742766,369742766,12,45,0,0,30003,1560,1508,1536,1505,1506,1257,1105,1105,1505,1105,1505,1258,0,0,0,0,0,0,0,0,2
369947144,369947144,12,45,0,0,30004,1566,1509,1535,1505,1505,1257,1105,1105,1506,1105,1505,1257,0,0,0,0,0,0,0,0,2
370157953,370157953,12,45,0,0,30004,1570,1508,1533,1505,1505,1257,1105,1105,1505,1105,1505,1257,0,0,0,0,0,0,0,0,2
370349936,370349936,12,45,0,0,30003,1572,1508,1525,1505,1506,1257,1105,1105,1505,1105,1505,1258,0,0,0,0,0,0,0,0,2
370550152,370550152,12,45,0,0,30003,1568,1508,1530,1505,1505,1258,1105,1105,1505,1105,1505,1257,0,0,0,0,0,0,0,0,2
370774726,370774726,12,45,0,0,30004,1554,1509,1510,1505,1505,1257,1105,1106,1505,1105,1505,1257,0,0,0,0,0,0,0,0,2
370977360,370977360,12,45,0,0,30003,1498,1508,1508,1505,1505,1257,1105,1105,1505,1106,1505,1257,0,0,0,0,0,0,0,0,2
371173418,371173418,12,45,0,0,30003,1498,1508,1507,1505,1505,1257,1106,1105,1505,1105,1505,1257,0,0,0,0,0,0,0,0,2
371365157,371365157,12,45,0,0,30004,1498,1509,1509,1504,1505,1257,1105,1105,1506,1105,1505,1257,0,0,0,0,0,0,0,0,2
371568549,371568549,12,45,0,0,30003,1498,1508,1507,1504,1506,1257,1105,1105,1505,1105,1505,1258,0,0,0,0,0,0,0,0,2
371772367,371772367,12,45,0,0,30004,1547,1509,1507,1485,1505,1257,1105,1105,1506,1105,1505,1257,0,0,0,0,0,0,0,0,2
371988380,371988380,12,45,0,0,30003,1557,1508,1506,1505,1505,1257,1105,1105,1505,1105,1506,1257,0,0,0,0,0,0,0,0,2
372184361,372184361,12,45,0,0,30003,1561,1508,1505,1504,1505,1258,1105,1105,1505,1105,1505,1257,0,0,0,0,0,0,0,0,2
372391572,372391572,12,45,0,0,30003,1600,1509,1502,1505,1505,1257,1105,1105,1506,1105,1505,1257,0,0,0,0,0,0,0,0,2
372591564,372591564,12,45,0,0,30003,1598,1508,1486,1505,1505,1257,1105,1105,1505,1105,1506,1257,0,0,0,0,0,0,0,0,2
372795601,372795601,12,45,0,0,30003,1562,1508,1490,1504,1505,1257,1105,1106,1505,1105,1505,1257,0,0,0,0,0,0,0,0,2
372991596,372991596,12,45,0,0,30004,1535,1508,1476,1504,1505,1257,1105,1105,1505,1106,1505,1257,0,0,0,0,0,0,0,0,2
373202757,373202757,12,45,0,0,30003,1565,1509,1456,1505,1506,1257,1105,1105,1505,1105,1505,1258,0,0,0,0,0,0,0,0,2
373402772,373402772,12,45,0,0,30003,1575,1509,1446,1505,1505,1257,1105,1106,1505,1105,1505,1257,0,0,0,0,0,0,0,0,2
373598729,373598729,12,45,0,0,30003,1579,1508,1451,1506,1505,1257,1105,1105,1505,1105,1506,1257,0,0,0,0,0,0,0,0,2
373798799,373798799,12,45,0,0,30003,1580,1508,1494,1504,1505,1258,1105,1105,1505,1105,1505,1257,0,0,0,0,0,0,0,0,2
373997968,373997968,12,45,0,0,30004,1569,1509,1505,1505,1505,1257,1105,1105,1506,1105,1505,1257,0,0,0,0,0,0,0,0,2
374209978,374209978,12,45,0,0,30003,1533,1462,1507,1506,1505,1257,1105,1105,1505,1105,1506,1257,0,0,0,0,0,0,0,0,2
374418002,374418002,12,45,0,0,30003,1516,1453,1506,1505,1505,1257,1105,1106,1505,1105,1505,1257,0,0,0,0,0,0,0,0,2
374614052,374614052,12,45,0,0,30003,1536,1452,1505,1505,1505,1257,1105,1105,1505,1106,1505,1257,0,0,0,0,0,0,0,0,2
374821252,374821252,12,45,0,0,30003,1581,1487,1488,1505,1506,1257,1105,1105,1505,1105,1505,1258,0,0,0,0,0,0,0,0,2
375013515,375013515,12,45,0,0,30004,1570,1499,1483,1505,1505,1257,1105,1105,1506,1105,1505,1257,0,0,0,0,0,0,0,0,2
375221156,375221156,12,45,0,0,30003,1557,1509,1460,1506,1505,1257,1105,1105,1505,1105,1506,1257,0,0,0,0,0,0,0,0,2
375417132,375417132,12,45,0,0,30003,1562,1509,1442,1505,1506,1257,1105,1105,1505,1105,1505,1257,0,0,0,0,0,0,0,0,2
375632346,375632346,12,45,0,0,30004,1581,1509,1440,1505,1505,1257,1105,1106,1505,1105,1505,1257,0,0,0,0,0,0,0,0,2
375828324,375828324,12,45,0,0,30003,1578,1486,1495,1505,1505,1257,1105,1105,1506,1105,1505,1257,0,0,0,0,0,0,0,0,2
376040552,376040552,12,45,0,0,30003,1558,1455,1504,1506,1505,1257,1105,1105,1505,1105,1506,1257,0,0,0,0,0,0,0,0,2
376231528,376231528,12,45,0,0,30003,1560,1467,1504,1505,1505,1257,1105,1106,1505,1105,1505,1257,0,0,0,0,0,0,0,0,2
376427574,376427574,12,45,0,0,30003,1566,1508,1504,1505,1506,1257,1105,1105,1505,1105,1505,1258,0,0,0,0,0,0,0,0,2
376635707,376635707,12,45,0,0,30003,1574,1508,1504,1505,1505,1258,1105,1105,1505,1105,1505,1257,0,0,0,0,0,0,0,0,2
376847841,376847841,12,45,0,0,30003,1574,1508,1505,1505,1505,1257,1106,1105,1505,1105,1505,1257,0,0,0,0,0,0,0,0,2
377050752,377050752,12,45,0,0,30003,1574,1508,1506,1504,1505,1257,1105,1105,1505,1106,1505,1257,0,0,0,0,0,0,0,0,2
377243118,377243118,12,45,0,0,30003,1581,1508,1505,1505,1506,1257,1105,1105,1505,1105,1505,1258,0,0,0,0,0,0,0,0,2
377442761,377442761,12,45,0,0,30004,1601,1509,1505,1505,1505,1257,1105,1105,1506,1105,1505,1257,0,0,0,0,0,0,0,0,2
377639142,377639142,12,45,0,0,30003,1607,1508,1506,1505,1505,1257,1105,1105,1505,1105,1506,1257,0,0,0,0,0,0,0,0,2
377862776,377862776,12,45,0,0,30003,1608,1508,1505,1505,1506,1257,1105,1105,1505,1105,1505,1258,0,0,0,0,0,0,0,0,2
378041945,378041945,12,45,0,0,30003,1608,1509,1505,1505,1505,1257,1105,1105,1506,1105,1505,1257,0,0,0,0,0,0,0,0,2
378266021,378266021,12,45,0,0,30004,1609,1509,1505,1505,1505,1257,1105,1105,1506,1105,1505,1257,0,0,0,0,0,0,0,0,2
378470059,378470059,12,45,0,0,30004,1609,1508,1506,1505,1505,1257,1105,1105,1505,1105,1506,1257,0,0,0,0,0,0,0,0,2
378673163,378673163,12,45,0,0,30003,1610,1508,1505,1505,1505,1257,1106,1105,1505,1105,1505,1257,0,0,0,0,0,0,0,0,2
378869123,378869123,12,45,0,0,30003,1611,1509,1505,1505,1505,1257,1105,1105,1506,1105,1505,1257,0,0,0,0,0,0,0,0,2
379069139,379069139,12,45,0,0,30004,1620,1508,1506,1505,1505,1257,1105,1105,1505,1106,1505,1257,0,0,0,0,0,0,0,0,2
379269178,379269178,12,45,0,0,30003,1623,1508,1505,1504,1505,1258,1105,1105,1505,1105,1505,1257,0,0,0,0,0,0,0,0,2
379468366,379468366,12,45,0,0,30003,1622,1509,1505,1505,1505,1257,1105,1106,1505,1105,1505,1257,0,0,0,0,0,0,0,0,2
379672593,379672593,12,45,0,0,30003,1624,1508,1505,1505,1505,1257,1105,1105,1505,1105,1506,1257,0,0,0,0,0,0,0,0,2
379888456,379888456,12,45,0,0,30003,1624,1508,1505,1504,1505,1258,1105,1105,1505,1105,1505,1257,0,0,0,0,0,0,0,0,2
380084755,380084755,12,45,0,0,30003,1624,1508,1506,1505,1505,1257,1105,1105,1505,1106,1505,1257,0,0,0,0,0,0,0,0,2
380295536,380295536,12,45,0,0,30003,1624,1508,1505,1505,1506,1257,1105,1105,1505,1105,1505,1258,0,0,0,0,0,0,0,0,2
380479787,380479787,12,45,0,0,30003,1624,1508,1505,1505,1505,1257,1105,1106,1505,1105,1505,1257,0,0,0,0,0,0,0,0,2
380691915,380691915,12,45,0,0,30004,1624,1508,1506,1505,1505,1257,1105,1105,1505,1106,1505,1257,0,0,0,0,0,0,0,0,2
380891747,380891747,12,45,0,0,30003,1624,1508,1505,1505,1505,1257,1106,1105,1505,1105,1505,1257,0,0,0,0,0,0,0,0,2
381090947,381090947,12,45,0,0,30004,1624,1509,1505,1505,1505,1257,1105,1105,1506,1105,1505,1257,0,0,0,0,0,0,0,0,2
381303119,381303119,12,45,0,0,30003,1624,1508,1505,1506,1505,1257,1105,1105,1505,1105,1505,1258,0,0,0,0,0,0,0,0,2
381498734,381498734,12,45,0,0,30003,1624,1508,1505,1505,1505,1257,1106,1105,1505,1105,1505,1257,0,0,0,0,0,0,0,0,2
381699120,381699120,12,45,0,0,30003,1624,1508,1505,1506,1505,1257,1105,1105,1505,1105,1506,1257,0,0,0,0,0,0,0,0,2
381902760,381902760,12,45,0,0,30003,1624,1508,1505,1505,1505,1258,1105,1105,1505,1105,1505,1257,0,0,0,0,0,0,0,0,2
382102175,382102175,12,45,0,0,30004,1624,1508,1505,1505,1505,1257,1105,1106,1505,1105,1505,1257,0,0,0,0,0,0,0,0,2
382318063,382318063,12,45,0,0,30004,1624,1508,1506,1505,1505,1257,1105,1105,1505,1106,1505,1257,0,0,0,0,0,0,0,0,2
382502116,382502116,12,45,0,0,30003,1624,1508,1505,1505,1505,1257,1106,1105,1505,1105,1505,1257,0,0,0,0,0,0,0,0,2
382725124,382725124,12,45,0,0,30004,1622,1509,1505,1505,1505,1257,1105,1105,1506,1105,1505,1257,0,0,0,0,0,0,0,0,2
382921534,382921534,12,45,0,0,30003,1586,1508,1505,1506,1505,1257,1105,1105,1505,1105,1506,1257,0,0,0,0,0,0,0,0,2
383117347,383117347,12,45,0,0,30003,1539,1508,1505,1505,1505,1257,1105,1106,1505,1105,1505,1257,0,0,0,0,0,0,0,0,2
383321201,383321201,12,45,0,0,30004,1499,1508,1506,1505,1505,1257,1105,1105,1505,1106,1505,1257,0,0,0,0,0,0,0,0,2
383524362,383524362,12,45,0,0,30003,1497,1508,1505,1504,1506,1257,1105,1105,1505,1105,1505,1258,0,0,0,0,0,0,0,0,2
383720378,383720378,12,45,0,0,30004,1497,1508,1505,1504,1505,1257,1106,1105,1505,1105,1505,1257,0,0,0,0,0,0,0,0,2
383944554,383944554,12,45,0,0,30003,1495,1508,1506,1504,1505,1257,1105,1105,1506,1105,1505,1257,0,0,0,0,0,0,0,0,2
384140598,384140598,12,45,0,0,30003,1480,1508,1505,1505,1505,1257,1105,1105,1505,1105,1506,1257,0,0,0,0,0,0,0,0,2
384347567,384347567,12,45,0,0,30004,1469,1508,1505,1504,1505,1257,1105,1106,1505,1105,1505,1257,0,0,0,0,0,0,0,0,2
384543591,384543591,12,45,0,0,30003,1441,1508,1506,1504,1505,1257,1105,1105,1505,1106,1505,1257,0,0,0,0,0,0,0,0,2
384751556,384751556,12,45,0,0,30003,1430,1508,1505,1503,1506,1257,1105,1105,1505,1105,1505,1258,0,0,0,0,0,0,0,0,2
384951568,384951568,12,45,0,0,30003,1416,1508,1505,1503,1505,1257,1106,1105,1505,1105,1505,1257,0,0,0,0,0,0,0,0,2
385151155,385151155,12,45,0,0,30004,1409,1508,1505,1504,1505,1257,1105,1105,1505,1105,1506,1257,0,0,0,0,0,0,0,0,2
385354952,385354952,12,45,0,0,30003,1396,1508,1505,1500,1506,1257,1105,1105,1505,1105,1505,1257,0,0,0,0,0,0,0,0,2
385550731,385550731,12,45,0,0,30003,1381,1508,1505,1494,1505,1257,1106,1105,1505,1105,1505,1257,0,0,0,0,0,0,0,0,2
385754770,385754770,12,45,0,0,30003,1368,1508,1505,1493,1505,1257,1105,1105,1505,1105,1506,1257,0,0,0,0,0,0,0,0,2
385946131,385946131,12,45,0,0,30003,1352,1508,1505,1491,1505,1258,1105,1105,1505,1105,1505,1257,0,0,0,0,0,0,0,0,2
386161984,386161984,12,45,0,0,30004,1343,1508,1505,1490,1505,1257,1105,1106,1505,1105,1505,1257,0,0,0,0,0,0,0,0,2
386369932,386369932,12,45,0,0,30003,1334,1508,1506,1486,1505,1257,1105,1105,1506,1105,1505,1257,0,0,0,0,0,0,0,0,2
386560514,386560514,12,45,0,0,30003,1321,1508,1505,1486,1505,1258,1105,1105,1505,1105,1505,1257,0,0,0,0,0,0,0,0,2
386761187,386761187,12,45,0,0,30003,1310,1508,1505,1486,1505,1257,1105,1106,1505,1105,1505,1257,0,0,0,0,0,0,0,0,2
386965128,386965128,12,45,0,0,30004,1302,1508,1506,1481,1505,1257,1105,1105,1506,1105,1505,1257,0,0,0,0,0,0,0,0,2
387165515,387165515,12,45,0,0,30003,1294,1508,1505,1478,1505,1258,1105,1105,1505,1105,1505,1257,0,0,0,0,0,0,0,0,2
387384414,387384414,12,45,0,0,30003,1284,1508,1505,1475,1505,1258,1105,1105,1505,1105,1505,1257,0,0,0,0,0,0,0,0,2
387580528,387580528,12,45,0,0,30004,1281,1509,1505,1475,1505,1257,1105,1105,1506,1105,1505,1257,0,0,0,0,0,0,0,0,2
387772348,387772348,12,45,0,0,30003,1253,1508,1505,1473,1505,1257,1105,1105,1505,1105,1506,1257,0,0,0,0,0,0,0,0,2
387980364,387980364,12,45,0,0,30003,1230,1508,1505,1467,1506,1237,1105,1105,1505,1105,1505,1257,0,0,0,0,0,0,0,0,2
388187562,388187562,12,45,0,0,30004,1218,1508,1507,1466,1505,1225,1105,1105,1505,1106,1505,1257,0,0,0,0,0,0,0,0,2
388383558,388383558,12,45,0,0,30003,1205,1508,1505,1461,1506,1212,1105,1105,1505,1105,1505,1258,0,0,0,0,0,0,0,0,2
388583705,388583705,12,45,0,0,30003,1204,1508,1505,1460,1505,1211,1105,1106,1505,1105,1505,1257,0,0,0,0,0,0,0,0,2
388787532,388787532,12,45,0,0,30003,1204,1508,1505,1462,1505,1211,1105,1105,1505,1105,1505,1258,0,0,0,0,0,0,0,0,2
388989176,388989176,12,45,0,0,30003,1204,1508,1505,1461,1505,1211,1106,1105,1505,1105,1505,1257,0,0,0,0,0,0,0,0,2
389194953,389194953,12,45,0,0,30003,1204,1509,1505,1460,1505,1211,1105,1105,1506,1105,1505,1257,0,0,0,0,0,0,0,0,2
389394929,389394929,12,45,0,0,30003,1204,1508,1505,1462,1505,1211,1105,1105,1505,1105,1505,1258,0,0,0,0,0,0,0,0,2
389598873,389598873,12,45,0,0,30004,1203,1509,1505,1460,1505,1211,1105,1105,1506,1105,1505,1257,0,0,0,0,0,0,0,0,2
389814177,389814177,12,45,0,0,30003,1203,1509,1505,1460,1505,1211,1105,1105,1506,1105,1505,1257,0,0,0,0,0,0,0,0,2
390005932,390005932,12,45,0,0,30003,1204,1508,1505,1461,1505,1212,1105,1105,1505,1105,1505,1257,0,0,0,0,0,0,0,0,2
390221935,390221935,12,45,0,0,30004,1204,1508,1505,1460,1505,1211,1105,1106,1505,1105,1505,1257,0,0,0,0,0,0,0,0,2
390418156,390418156,12,45,0,0,30004,1204,1508,1506,1461,1505,1211,1105,1105,1505,1105,1506,1257,0,0,0,0,0,0,0,0,2
390621212,390621212,12,45,0,0,30003,1204,1508,1505,1460,1506,1210,1105,1105,1505,1105,1505,1257,0,0,0,0,0,0,0,0,2
390821347,390821347,12,45,0,0,30004,1206,1508,1506,1460,1505,1213,1105,1105,1506,1105,1505,1257,0,0,0,0,0,0,0,0,2
391021157,391021157,12,45,0,0,30003,1211,1508,1505,1461,1505,1218,1105,1105,1505,1105,1505,1258,0,0,0,0,0,0,0,0,2
391213387,391213387,12,45,0,0,30003,1229,1509,1505,1465,1505,1237,1105,1106,1505,1105,1505,1257,0,0,0,0,0,0,0,0,2
391432356,391432356,12,45,0,0,30004,1237,1509,1505,1466,1505,1245,1105,1105,1506,1105,1505,1257,0,0,0,0,0,0,0,0,2
391636367,391636367,12,45,0,0,30003,1477,1508,1505,1502,1506,1257,1105,1105,1505,1105,1505,1258,0,0,0,0,0,0,0,0,2
391832399,391832399,12,45,0,0,30004,1496,1508,1505,1504,1505,1257,1106,1105,1505,1105,1505,1257,0,0,0,0,0,0,0,0,2
392044509,392044509,12,45,0,0,30004,1497,1509,1506,1504,1505,1257,1105,1105,1506,1105,1505,1257,0,0,0,0,0,0,0,0,2
392243567,392243567,12,45,0,0,30003,1497,1508,1505,1505,1505,1257,1105,1105,1505,1105,1506,1257,0,0,0,0,0,0,0,0,2
392451612,392451612,12,45,0,0,30003,1497,1508,1505,1504,1505,1258,1105,1105,1505,1105,1505,1257,0,0,0,0,0,0,0,0,2
392651542,392651542,12,45,0,0,30004,1497,1508,1537,1504,1505,1257,1105,1105,1505,1106,1505,1257,0,0,0,0,0,0,0,0,2
392859595,392859595,12,45,0,0,30003,1497,1508,1577,1504,1506,1257,1105,1105,1505,1105,1505,1258,0,0,0,0,0,0,0,0,2
393042797,393042797,12,45,0,0,30003,1496,1509,1584,1504,1505,1257,1105,1105,1506,1105,1505,1257,0,0,0,0,0,0,0,0,2
393258972,393258972,12,45,0,0,30003,1497,1508,1583,1504,1505,1257,1105,1105,1505,1105,1505,1257,0,0,0,0,0,0,0,0,2
393458782,393458782,12,45,0,0,30003,1497,1508,1556,1504,1506,1257,1105,1105,1505,1105,1505,1257,0,0,0,0,0,0,0,0,2
393661968,393661968,12,45,0,0,30004,1497,1508,1507,1504,1505,1257,1105,1106,1505,1105,1505,1257,0,0,0,0,0,0,0,0,2
393870762,393870762,12,45,0,0,30003,1497,1508,1508,1504,1505,1257,1105,1105,1506,1105,1505,1257,0,0,0,0,0,0,0,0,2
394077933,394077933,12,45,0,0,30003,1497,1508,1507,1505,1505,1257,1105,1105,1505,1105,1506,1257,0,0,0,0,0,0,0,0,2
394274151,394274151,12,45,0,0,30004,1497,1508,1508,1504,1505,1257,1105,1106,1505,1105,1505,1257,0,0,0,0,0,0,0,0,2
394473347,394473347,12,45,0,0,30004,1497,1508,1529,1504,1505,1257,1105,1105,1505,1106,1505,1257,0,0,0,0,0,0,0,0,2
394669149,394669149,12,45,0,0,30003,1497,1508,1531,1504,1505,1258,1105,1105,1505,1105,1505,1257,0,0,0,0,0,0,0,0,2
394873353,394873353,12,45,0,0,30003,1497,1508,1532,1504,1505,1257,1105,1106,1505,1105,1505,1257,0,0,0,0,0,0,0,0,2
395089434,395089434,12,45,0,0,30004,1497,1508,1509,1504,1505,1257,1105,1105,1505,1105,1505,1257,0,0,0,0,0,0,0,0,2
395277200,395277200,12,45,0,0,30003,1497,1508,1507,1505,1505,1257,1105,1105,1505,1105,1505,1258,0,0,0,0,0,0,0,0,2
395480547,395480547,12,45,0,0,30003,1497,1508,1507,1504,1505,1258,1105,1105,1505,1105,1505,1257,0,0,0,0,0,0,0,0,2
395676391,395676391,12,45,0,0,30004,1497,1508,1508,1504,1505,1257,1105,1105,1505,1106,1505,1257,0,0,0,0,0,0,0,0,2
395880525,395880525,12,45,0,0,30003,1497,1508,1507,1505,1505,1257,1105,1105,1505,1105,1506,1257,0,0,0,0,0,0,0,0,2
396092388,396092388,12,45,0,0,30003,1528,1508,1507,1505,1505,1258,1105,1105,1505,1105,1505,1257,0,0,0,0,0,0,0,0,2
396291923,396291923,12,45,0,0,30003,1584,1508,1507,1505,1505,1257,1105,1106,1505,1105,1505,1257,0,0,0,0,0,0,0,0,2
396495766,396495766,12,45,0,0,30003,1657,1508,1507,1506,1505,1257,1105,1105,1505,1105,1506,1257,0,0,0,0,0,0,0,0,2
396691691,396691691,12,45,0,0,30003,1672,1508,1507,1505,1505,1258,1105,1105,1505,1105,1505,1257,0,0,0,0,0,0,0,0,2
396894761,396894761,12,45,0,0,30003,1668,1509,1507,1505,1505,1257,1105,1105,1506,1105,1505,1257,0,0,0,0,0,0,0,0,2
397114999,397114999,12,45,0,0,30003,1669,1508,1507,1506,1505,1257,1105,1105,1505,1105,1506,1257,0,0,0,0,0,0,0,0,2
397314738,397314738,12,45,0,0,30003,1684,1508,1507,1505,1505,1258,1105,1105,1505,1105,1505,1257,0,0,0,0,0,0,0,0,2
397502792,397502792,12,45,0,0,30003,1710,1508,1508,1504,1505,1257,1105,1105,1505,1105,1506,1257,0,0,0,0,0,0,0,0,2
397721179,397721179,12,45,0,0,30003,1721,1508,1507,1504,1506,1257,1105,1105,1505,1105,1505,1257,0,0,0,0,0,0,0,0,2
397914148,397914148,12,45,0,0,30004,1720,1508,1507,1504,1505,1257,1105,1106,1505,1105,1505,1257,0,0,0,0,0,0,0,0,2
398733518,398733518,12,45,0,0,30003,1704,1508,1507,1505,1506,1257,1105,1105,1505,1105,1505,1258,0,0,0,0,0,0,0,0,2
398929273,398929273,12,45,0,0,30003,1700,1509,1507,1505,1505,1257,1105,1105,1506,1105,1505,1257,0,0,0,0,0,0,0,0,2
399129516,399129516,12,45,0,0,30003,1653,1508,1507,1504,1505,1257,1105,1105,1505,1105,1506,1257,0,0,0,0,0,0,0,0,2
399332384,399332384,12,45,0,0,30003,1657,1508,1507,1505,1505,1258,1105,1105,1505,1105,1505,1257,0,0,0,0,0,0,0,0,2
399532527,399532527,12,45,0,0,30003,1661,1508,1507,1505,1505,1257,1105,1106,1505,1105,1505,1257,0,0,0,0,0,0,0,0,2
399740757,399740757,12,45,0,0,30003,1641,1508,1507,1505,1506,1257,1105,1105,1505,1105,1505,1258,0,0,0,0,0,0,0,0,2
399944409,399944409,12,45,0,0,30003,1535,1508,1507,1505,1505,1257,1106,1105,1505,1105,1505,1257,0,0,0,0,0,0,0,0,2
400147529,400147529,12,45,0,0,30003,1513,1509,1507,1505,1505,1257,1105,1105,1506,1105,1505,1257,0,0,0,0,0,0,0,0,2
400347610,400347610,12,45,0,0,30003,1500,1508,1507,1506,1505,1257,1105,1105,1505,1105,1506,1257,0,0,0,0,0,0,0,0,2
400559759,400559759,12,45,0,0,30003,1499,1508,1507,1505,1505,1258,1105,1105,1505,1105,1505,1257,0,0,0,0,0,0,0,0,2
400759547,400759547,12,45,0,0,30004,1498,1508,1508,1504,1505,1257,1105,1105,1505,1106,1505,1257,0,0,0,0,0,0,0,0,2
400958724,400958724,12,45,0,0,30003,1497,1508,1507,1504,1506,1257,1105,1105,1505,1105,1505,1258,0,0,0,0,0,0,0,0,2
401166893,401166893,12,45,0,0,30003,1447,1508,1507,1504,1505,1257,1106,1105,1505,1105,1505,1257,0,0,0,0,0,0,0,0,2
401362784,401362784,12,45,0,0,30004,1431,1509,1507,1504,1505,1257,1105,1105,1506,1105,1505,1257,0,0,0,0,0,0,0,0,2
401562985,401562985,12,45,0,0,30003,1407,1508,1507,1504,1505,1258,1105,1105,1505,1105,1505,1257,0,0,0,0,0,0,0,0,2
401761954,401761954,12,45,0,0,30004,1358,1508,1507,1504,1505,1257,1105,1106,1505,1105,1505,1257,0,0,0,0,0,0,0,0,2
401977935,401977935,12,45,0,0,30004,1277,1508,1508,1504,1505,1257,1105,1105,1505,1106,1505,1257,0,0,0,0,0,0,0,0,2
402177962,402177962,12,45,0,0,30003,1256,1508,1507,1504,1506,1257,1105,1105,1505,1105,1505,1258,0,0,0,0,0,0,0,0,2
402381933,402381933,12,45,0,0,30003,1229,1508,1507,1504,1505,1237,1105,1105,1505,1105,1505,1257,0,0,0,0,0,0,0,0,2
402565209,402565209,12,45,0,0,30004,1197,1508,1508,1504,1505,1204,1105,1105,1505,1106,1505,1257,0,0,0,0,0,0,0,0,2
402785139,402785139,12,45,0,0,30003,1172,1508,1507,1504,1506,1179,1105,1105,1505,1105,1505,1258,0,0,0,0,0,0,0,0,2
402973519,402973519,12,45,0,0,30003,1144,1509,1507,1504,1505,1152,1105,1105,1506,1105,1505,1257,0,0,0,0,0,0,0,0,2
403177399,403177399,12,45,0,0,30003,1126,1508,1508,1504,1505,1133,1105,1105,1505,1105,1506,1257,0,0,0,0,0,0,0,0,2
403377143,403377143,12,45,0,0,30003,1126,1509,1507,1504,1506,1133,1105,1105,1505,1105,1505,1258,0,0,0,0,0,0,0,0,2
403580743,403580743,12,45,0,0,30003,1110,1508,1507,1504,1505,1117,1106,1105,1505,1105,1505,1257,0,0,0,0,0,0,0,0,2
403784573,403784573,12,45,0,0,30003,1100,1508,1508,1504,1505,1107,1105,1105,1505,1105,1506,1257,0,0,0,0,0,0,0,0,2
403984509,403984509,12,45,0,0,30003,1098,1508,1507,1504,1506,1105,1105,1105,1505,1105,1505,1258,0,0,0,0,0,0,0,0,2
404195539,404195539,12,45,0,0,30003,1098,1508,1507,1505,1505,1105,1106,1105,1505,1105,1505,1257,0,0,0,0,0,0,0,0,2
404387539,404387539,12,45,0,0,30003,1098,1508,1508,1504,1505,1105,1105,1105,1505,1105,1506,1257,0,0,0,0,0,0,0,0,2
404591593,404591593,12,45,0,0,30003,1098,1508,1507,1505,1506,1105,1105,1105,1505,1105,1505,1258,0,0,0,0,0,0,0,0,2
404790767,404790767,12,45,0,0,30003,1098,1508,1507,1505,1505,1105,1106,1105,1505,1105,1505,1257,0,0,0,0,0,0,0,0,2
405010776,405010776,12,45,0,0,30003,1097,1509,1507,1505,1505,1105,1105,1105,1506,1105,1505,1257,0,0,0,0,0,0,0,0,2
405202782,405202782,12,45,0,0,30004,1098,1508,1507,1506,1505,1105,1105,1105,1505,1105,1506,1257,0,0,0,0,0,0,0,0,2
405402770,405402770,12,45,0,0,30003,1098,1508,1507,1505,1505,1105,1105,1106,1505,1105,1505,1257,0,0,0,0,0,0,0,0,2
405618770,405618770,12,45,0,0,30004,1098,1508,1508,1504,1505,1105,1105,1105,1505,1106,1505,1257,0,0,0,0,0,0,0,0,2
405814150,405814150,12,45,0,0,30003,1098,1508,1507,1504,1506,1105,1105,1105,1505,1105,1505,1258,0,0,0,0,0,0,0,0,2
406005988,406005988,12,45,0,0,30003,1097,1509,1507,1504,1505,1105,1105,1105,1506,1105,1505,1257,0,0,0,0,0,0,0,0,2
406214162,406214162,12,45,0,0,30003,1098,1508,1507,1505,1505,1105,1105,1105,1505,1105,1506,1257,0,0,0,0,0,0,0,0,2
406415744,406415744,12,45,0,0,30003,1098,1508,1507,1504,1505,1106,1105,1105,1505,1105,1505,1257,0,0,0,0,0,0,0,0,2
406613331,406613331,12,45,0,0,30004,1097,1509,1507,1504,1505,1105,1105,1105,1506,1105,1505,1257,0,0,0,0,0,0,0,0,2
406817123,406817123,12,45,0,0,30003,1101,1508,1507,1504,1506,1108,1105,1105,1505,1105,1505,1258,0,0,0,0,0,0,0,0,2
407037170,407037170,12,45,0,0,30003,1498,1508,1507,1505,1506,1257,1105,1105,1505,1105,1505,1258,0,0,0,0,0,0,0,0,2
407232328,407232328,12,45,0,0,30003,1498,1509,1507,1504,1505,1257,1105,1105,1506,1105,1505,1257,0,0,0,0,0,0,0,0,2
407440358,407440358,12,45,0,0,30003,1498,1508,1507,1505,1505,1257,1105,1105,1505,1105,1506,1257,0,0,0,0,0,0,0,0,2
407636361,407636361,12,45,0,0,30003,1498,1508,1507,1504,1505,1258,1105,1105,1505,1105,1505,1257,0,0,0,0,0,0,0,0,2
407840557,407840557,12,45,0,0,30003,1498,1508,1508,1504,1505,1257,1105,1105,1505,1106,1505,1257,0,0,0,0,0,0,0,0,2
408043590,408043590,12,45,0,0,30003,1498,1508,1507,1504,1506,1257,1105,1105,1505,1105,1505,1258,0,0,0,0,0,0,0,0,2
408243539,408243539,12,45,0,0,30003,1498,1508,1507,1504,1505,1257,1106,1105,1505,1105,1505,1257,0,0,0,0,0,0,0,0,2
408439769,408439769,12,45,0,0,30003,1498,1508,1507,1505,1505,1257,1105,1105,1505,1105,1506,1257,0,0,0,0,0,0,0,0,2
408659562,408659562,12,45,0,0,30003,1499,1508,1507,1505,1505,1257,1105,1105,1505,1105,1506,1257,0,0,0,0,0,0,0,0,2
408858807,408858807,12,45,0,0,30003,1499,1508,1507,1504,1505,1257,1105,1106,1505,1105,1505,1257,0,0,0,0,0,0,0,0,2
409054798,409054798,12,45,0,0,30004,1499,1508,1508,1504,1505,1257,1105,1105,1505,1106,1505,1257,0,0,0,0,0,0,0,0,2
409250963,409250963,12,45,0,0,30003,1673,1508,1507,1504,1505,1258,1105,1105,1505,1105,1505,1257,0,0,0,0,0,0,0,0,2
409462948,409462948,12,45,0,0,30003,1750,1508,1507,1505,1505,1258,1105,1105,1505,1105,1505,1257,0,0,0,0,0,0,0,0,2
409665998,409665998,12,45,0,0,30004,1784,1508,1508,1505,1505,1257,1105,1105,1505,1106,1505,1257,0,0,0,0,0,0,0,0,2
409869964,409869964,12,45,0,0,30003,1783,1508,1507,1506,1505,1257,1105,1105,1505,1105,1505,1258,0,0,0,0,0,0,0,0,2
410065970,410065970,12,45,0,0,30003,1786,1508,1507,1505,1505,1258,1105,1105,1505,1105,1505,1257,0,0,0,0,0,0,0,0,2
410265928,410265928,12,45,0,0,30004,1784,1508,1508,1505,1505,1257,1105,1105,1505,1106,1505,1257,0,0,0,0,0,0,0,0,2
410482950,410482950,12,45,0,0,30004,1782,1508,1508,1505,1505,1257,1105,1105,1505,1106,1505,1257,0,0,0,0,0,0,0,0,2
410689516,410689516,12,45,0,0,30003,1783,1508,1507,1505,1505,1258,1105,1105,1505,1105,1505,1257,0,0,0,0,0,0,0,0,2
410885178,410885178,12,45,0,0,30003,1781,1509,1507,1505,1505,1257,1105,1106,1505,1105,1505,1257,0,0,0,0,0,0,0,0,2
411077156,411077156,12,45,0,0,30003,1779,1508,1507,1505,1506,1257,1105,1105,1505,1105,1505,1258,0,0,0,0,0,0,0,0,2
411296351,411296351,12,45,0,0,30003,1777,1508,1507,1505,1506,1257,1105,1105,1505,1105,1505,1258,0,0,0,0,0,0,0,0,2
411496611,411496611,12,45,0,0,30003,1772,1509,1507,1505,1505,1257,1105,1106,1505,1105,1505,1257,0,0,0,0,0,0,0,0,2
411688350,411688350,12,45,0,0,30004,1731,1508,1508,1505,1505,1257,1105,1105,1505,1106,1505,1257,0,0,0,0,0,0,0,0,2
411904364,411904364,12,45,0,0,30003,1746,1508,1507,1506,1505,1257,1105,1105,1505,1105,1505,1258,0,0,0,0,0,0,0,0,2
412103573,412103573,12,45,0,0,30003,1713,1508,1507,1505,1505,1258,1105,1105,1505,1105,1505,1257,0,0,0,0,0,0,0,0,2
412299783,412299783,12,45,0,0,30003,1499,1508,1507,1506,1505,1257,1105,1105,1505,1105,1506,1257,0,0,0,0,0,0,0,0,2
412503728,412503728,12,45,0,0,30003,1498,1508,1507,1504,1505,1258,1105,1105,1505,1105,1505,1257,0,0,0,0,0,0,0,0,2
412703918,412703918,12,45,0,0,30004,1498,1509,1507,1505,1505,1257,1105,1105,1506,1105,1505,1257,0,0,0,0,0,0,0,0,2
412910749,412910749,12,45,0,0,30003,1498,1508,1507,1504,1506,1257,1105,1105,1505,1105,1505,1257,0,0,0,0,0,0,0,0,2
413106770,413106770,12,45,0,0,30003,1498,1508,1507,1504,1505,1257,1105,1106,1505,1105,1505,1257,0,0,0,0,0,0,0,0,2
413311172,413311172,12,45,0,0,30004,1498,1508,1508,1505,1505,1257,1105,1105,1505,1106,1505,1257,0,0,0,0,0,0,0,0,2
413510925,413510925,12,45,0,0,30003,1498,1508,1507,1505,1505,1257,1106,1105,1505,1105,1505,1257,0,0,0,0,0,0,0,0,2
413726128,413726128,12,45,0,0,30003,1498,1508,1507,1504,1505,1257,1105,1106,1505,1105,1505,1257,0,0,0,0,0,0,0,0,2
413926060,413926060,12,45,0,0,30003,1497,1508,1507,1505,1505,1257,1105,1105,1505,1105,1505,1258,0,0,0,0,0,0,0,0,2
414134065,414134065,12,45,0,0,30003,1474,1508,1507,1504,1505,1257,1106,1105,1505,1105,1505,1257,0,0,0,0,0,0,0,0,2
414333169,414333169,12,45,0,0,30004,1353,1509,1507,1504,1505,1257,1105,1105,1506,1105,1505,1257,0,0,0,0,0,0,0,0,2
414533517,414533517,12,45,0,0,30003,1315,1508,1507,1505,1505,1257,1105,1105,1505,1105,1506,1257,0,0,0,0,0,0,0,0,2
414737139,414737139,12,45,0,0,30003,1193,1509,1507,1503,1505,1201,1105,1106,1505,1105,1505,1257,0,0,0,0,0,0,0,0,2
414941153,414941153,12,45,0,0,30003,1098,1508,1507,1505,1505,1105,1105,1105,1505,1105,1506,1257,0,0,0,0,0,0,0,0,2
415137142,415137142,12,45,0,0,30003,1098,1508,1507,1504,1506,1105,1105,1105,1505,1105,1505,1257,0,0,0,0,0,0,0,0,2
415336351,415336351,12,45,0,0,30004,1098,1508,1508,1505,1505,1105,1105,1105,1505,1106,1505,1257,0,0,0,0,0,0,0,0,2
415536573,415536573,12,45,0,0,30003,1098,1508,1507,1505,1505,1105,1105,1105,1505,1105,1505,1258,0,0,0,0,0,0,0,0,2
415752544,415752544,12,45,0,0,30003,1098,1508,1507,1505,1505,1105,1106,1105,1505,1105,1505,1257,0,0,0,0,0,0,0,0,2
415951756,415951756,12,45,0,0,30004,1097,1509,1507,1504,1505,1105,1105,1105,1506,1105,1505,1257,0,0,0,0,0,0,0,0,2
416155722,416155722,12,45,0,0,30003,1098,1508,1507,1505,1505,1105,1105,1105,1505,1105,1506,1257,0,0,0,0,0,0,0,0,2
416347788,416347788,12,45,0,0,30004,1098,1508,1507,1504,1505,1105,1105,1106,1505,1105,1505,1257,0,0,0,0,0,0,0,0,2
416559729,416559729,12,45,0,0,30004,1098,1508,1508,1504,1505,1105,1105,1105,1505,1106,1505,1257,0,0,0,0,0,0,0,0,2
416758805,416758805,12,45,0,0,30003,1098,1508,1507,1505,1505,1105,1105,1105,1505,1105,1505,1258,0,0,0,0,0,0,0,0,2
416958950,416958950,12,45,0,0,30004,1098,1508,1507,1504,1505,1105,1105,1106,1505,1105,1505,1257,0,0,0,0,0,0,0,0,2
417155030,417155030,12,45,0,0,30004,1098,1508,1508,1504,1505,1105,1105,1105,1505,1106,1505,1257,0,0,0,0,0,0,0,0,2
417354790,417354790,12,45,0,0,30003,1098,1508,1507,1504,1506,1105,1105,1105,1505,1105,1505,1258,0,0,0,0,0,0,0,0,2
417573167,417573167,12,45,0,0,30003,1098,1508,1507,1504,1505,1105,1106,1105,1505,1105,1505,1257,0,0,0,0,0,0,0,0,2
417765926,417765926,12,45,0,0,30004,1098,1508,1507,1505,1505,1105,1105,1105,1505,1105,1506,1257,0,0,0,0,0,0,0,0,2
417965962,417965962,12,45,0,0,30003,1098,1508,1507,1504,1506,1105,1105,1105,1505,1105,1505,1257,0,0,0,0,0,0,0,0,2
418169949,418169949,12,45,0,0,30003,1098,1508,1507,1504,1505,1105,1106,1105,1505,1105,1505,1257,0,0,0,0,0,0,0,0,2
418385969,418385969,12,45,0,0,30004,1098,1509,1507,1504,1505,1105,1105,1105,1506,1105,1505,1257,0,0,0,0,0,0,0,0,2
418585171,418585171,12,45,0,0,30003,1098,1508,1507,1505,1505,1105,1105,1105,1505,1105,1506,1257,0,0,0,0,0,0,0,0,2
418785191,418785191,12,45,0,0,30003,1098,1508,1507,1504,1505,1105,1105,1106,1505,1105,1505,1257,0,0,0,0,0,0,0,0,2
418985373,418985373,12,45,0,0,30004,1098,1509,1507,1504,1505,1105,1105,1105,1506,1105,1505,1257,0,0,0,0,0,0,0,0,2
419185350,419185350,12,45,0,0,30003,1098,1508,1507,1505,1505,1105,1105,1105,1505,1105,1506,1257,0,0,0,0,0,0,0,0,2
419388358,419388358,12,45,0,0,30003,1098,1508,1507,1504,1505,1105,1105,1106,1505,1105,1505,1257,0,0,0,0,0,0,0,0,2
419592384,419592384,12,45,0,0,30003,1098,1509,1507,1504,1505,1105,1105,1105,1506,1105,1505,1257,0,0,0,0,0,0,0,0,2
419808343,419808343,12,45,0,0,30003,1098,1508,1507,1505,1505,1105,1105,1105,1505,1105,1506,1257,0,0,0,0,0,0,0,0,2
420011567,420011567,12,45,0,0,30003,1098,1508,1507,1504,1506,1105,1105,1105,1505,1105,1505,1257,0,0,0,0,0,0,0,0,2
420211914,420211914,12,45,0,0,30003,1098,1508,1507,1504,1505,1105,1106,1105,1505,1105,1505,1257,0,0,0,0,0,0,0,0,2
420399673,420399673,12,45,0,0,30004,1497,1508,1508,1505,1505,1257,1105,1105,1505,1106,1505,1257,0,0,0,0,0,0,0,0,2
420619747,420619747,12,45,0,0,30003,1498,1508,1507,1505,1506,1257,1105,1105,1505,1105,1505,1257,0,0,0,0,0,0,0,0,2
420810774,420810774,12,45,0,0,30004,1498,1508,1507,1505,1505,1257,1105,1106,1505,1105,1505,1257,0,0,0,0,0,0,0,0,2
421010926,421010926,12,45,0,0,30003,1498,1508,1507,1505,1506,1257,1105,1105,1505,1105,1505,1258,0,0,0,0,0,0,0,0,2
421210735,421210735,12,45,0,0,30004,1498,1508,1507,1505,1505,1257,1106,1105,1505,1105,1505,1257,0,0,0,0,0,0,0,0,2
421410769,421410769,12,45,0,0,30003,1499,1508,1508,1505,1505,1257,1105,1105,1505,1106,1505,1257,0,0,0,0,0,0,0,0,2
421614355,421614355,12,45,0,0,30003,1547,1508,1507,1505,1506,1257,1105,1105,1505,1105,1505,1258,0,0,0,0,0,0,0,0,2
421822132,421822132,12,45,0,0,30003,1725,1509,1507,1504,1505,1257,1105,1105,1506,1105,1505,1257,0,0,0,0,0,0,0,0,2
422037931,422037931,12,45,0,0,30004,1749,1508,1508,1504,1505,1257,1105,1105,1506,1105,1505,1257,0,0,0,0,0,0,0,0,2
422237933,422237933,12,45,0,0,30003,1750,1508,1507,1504,1505,1258,1105,1105,1505,1105,1505,1257,0,0,0,0,0,0,0,0,2
422428444,422428444,12,45,0,0,30003,1751,1509,1507,1504,1505,1257,1105,1105,1506,1105,1505,1257,0,0,0,0,0,0,0,0,2
422629260,422629260,12,45,0,0,30003,1755,1508,1507,1504,1506,1257,1105,1105,1505,1105,1505,1257,0,0,0,0,0,0,0,0,2
422849157,422849157,12,45,0,0,30003,1747,1508,1507,1505,1505,1258,1105,1105,1505,1105,1505,1257,0,0,0,0,0,0,0,0,2
423045176,423045176,12,45,0,0,30004,1747,1508,1508,1505,1505,1257,1105,1105,1505,1106,1505,1257,0,0,0,0,0,0,0,0,2
423648556,423648556,12,45,0,0,30003,1755,1508,1507,1505,1505,1257,1105,1105,1505,1105,1506,1257,0,0,0,0,0,0,0,0,2
424459718,424459718,12,45,0,0,30004,1744,1508,1507,1504,1505,1257,1106,1105,1505,1105,1505,1257,0,0,0,0,0,0,0,0,2
424663538,424663538,12,45,0,0,30003,1743,1509,1507,1505,1505,1257,1105,1105,1506,1105,1505,1257,0,0,0,0,0,0,0,0,2
424858730,424858730,12,45,0,0,30003,1739,1508,1507,1505,1505,1257,1105,1105,1505,1105,1506,1257,0,0,0,0,0,0,0,0,2
425058771,425058771,12,45,0,0,30004,1729,1508,1507,1504,1505,1257,1105,1106,1505,1105,1505,1257,0,0,0,0,0,0,0,0,2
425266732,425266732,12,45,0,0,30003,1677,1508,1508,1505,1505,1257,1105,1105,1505,1106,1505,1257,0,0,0,0,0,0,0,0,2
425463119,425463119,12,45,0,0,30003,1706,1508,1507,1505,1506,1257,1105,1105,1505,1105,1505,1258,0,0,0,0,0,0,0,0,2
425682161,425682161,12,45,0,0,30003,1596,1508,1507,1505,1505,1257,1106,1105,1505,1105,1505,1257,0,0,0,0,0,0,0,0,2
425886152,425886152,12,45,0,0,30004,1498,1509,1507,1504,1505,1257,1105,1105,1506,1105,1505,1257,0,0,0,0,0,0,0,0,2
426085969,426085969,12,45,0,0,30003,1498,1508,1507,1505,1505,1257,1105,1105,1505,1105,1506,1257,0,0,0,0,0,0,0,0,2
426290322,426290322,12,45,0,0,30003,1498,1508,1507,1503,1505,1257,1106,1105,1505,1105,1505,1257,0,0,0,0,0,0,0,0,2
426493198,426493198,12,45,0,0,30004,1498,1509,1507,1504,1505,1257,1105,1105,1506,1105,1505,1257,0,0,0,0,0,0,0,0,2
426701153,426701153,12,45,0,0,30003,1498,1508,1507,1505,1505,1257,1105,1105,1505,1105,1506,1257,0,0,0,0,0,0,0,0,2
426885361,426885361,12,45,0,0,30003,1497,1508,1507,1503,1505,1257,1105,1106,1505,1105,1505,1257,0,0,0,0,0,0,0,0,2
427105134,427105134,12,45,0,0,30003,1497,1508,1507,1504,1505,1257,1105,1106,1505,1105,1505,1257,0,0,0,0,0,0,0,0,2
427288371,427288371,12,45,0,0,30003,1497,1508,1507,1505,1505,1257,1105,1105,1505,1105,1506,1257,0,0,0,0,0,0,0,0,2
427508721,427508721,12,45,0,0,30003,1400,1508,1507,1503,1505,1258,1105,1105,1505,1105,1505,1257,0,0,0,0,0,0,0,0,2
427708371,427708371,12,45,0,0,30004,1273,1508,1507,1503,1505,1257,1105,1106,1505,1105,1505,1257,0,0,0,0,0,0,0,0,2
427912374,427912374,12,45,0,0,30003,1206,1508,1482,1504,1505,1213,1105,1105,1505,1105,1505,1258,0,0,0,0,0,0,0,0,2
428111752,428111752,12,45,0,0,30003,1210,1228,1506,1503,1505,1218,1105,1105,1505,1105,1505,1257,0,0,0,0,0,0,0,0,2
428303543,428303543,12,45,0,0,30003,1230,1198,1504,1503,1505,1237,1105,1106,1505,1105,1505,1257,0,0,0,0,0,0,0,0,2
428515915,428515915,12,45,0,0,30004,1232,1508,1507,1503,1505,1239,1105,1105,1505,1106,1505,1257,0,0,0,0,0,0,0,0,2
428715747,428715747,12,45,0,0,30003,1232,1508,1505,1503,1505,1240,1105,1105,1505,1105,1505,1257,0,0,0,0,0,0,0,0,2
428911054,428911054,12,45,0,0,30004,1232,1508,1505,1503,1505,1239,1105,1106,1505,1105,1505,1257,0,0,0,0,0,0,0,0,2
429114787,429114787,12,45,0,0,30003,1203,1508,1505,1505,1505,1210,1105,1105,1505,1105,1506,1257,0,0,0,0,0,0,0,0,2
429318739,429318739,12,45,0,0,30004,1202,1508,1505,1504,1505,1209,1105,1106,1505,1105,1505,1257,0,0,0,0,0,0,0,0,2
429526766,429526766,12,45,0,0,30003,1176,1508,1506,1505,1505,1183,1105,1105,1505,1106,1505,1257,0,0,0,0,0,0,0,0,2
429726181,429726181,12,45,0,0,30003,1148,1508,1505,1505,1506,1155,1105,1105,1505,1105,1505,1258,0,0,0,0,0,0,0,0,2
429922152,429922152,12,45,0,0,30003,1119,1509,1506,1505,1505,1126,1105,1105,1506,1105,1505,1257,0,0,0,0,0,0,0,0,2
430122152,430122152,12,45,0,0,30003,1103,1508,1505,1506,1506,1110,1105,1105,1505,1105,1505,1258,0,0,0,0,0,0,0,0,2
430345380,430345380,12,45,0,0,30003,1110,1508,1505,1506,1506,1117,1105,1105,1505,1105,1505,1258,0,0,0,0,0,0,0,0,2
430533351,430533351,12,45,0,0,30004,1110,1509,1506,1506,1505,1117,1105,1105,1506,1105,1505,1257,0,0,0,0,0,0,0,0,2
430753162,430753162,12,45,0,0,30003,1110,1508,1505,1507,1505,1117,1105,1105,1505,1105,1505,1258,0,0,0,0,0,0,0,0,2
430957267,430957267,12,45,0,0,30003,1154,1508,1505,1505,1505,1161,1106,1105,1505,1105,1505,1257,0,0,0,0,0,0,0,0,2
431153378,431153378,12,45,0,0,30004,1153,1508,1505,1506,1505,1160,1105,1105,1505,1105,1506,1257,0,0,0,0,0,0,0,0,2
431356715,431356715,12,45,0,0,30003,1153,1509,1505,1505,1505,1161,1105,1105,1505,1105,1505,1257,0,0,0,0,0,0,0,0,2
431556380,431556380,12,45,0,0,30003,1179,1536,1505,1504,1505,1186,1105,1106,1505,1105,1505,1257,0,0,0,0,0,0,0,0,2
431756391,431756391,12,45,0,0,30004,1182,1541,1506,1505,1505,1189,1105,1105,1505,1106,1505,1257,0,0,0,0,0,0,0,0,2
431948342,431948342,12,45,0,0,30003,1185,1526,1505,1504,1505,1192,1106,1105,1505,1105,1505,1257,0,0,0,0,0,0,0,0,2
432163554,432163554,12,45,0,0,30004,1204,1522,1505,1504,1505,1211,1105,1105,1506,1105,1505,1257,0,0,0,0,0,0,0,0,2
432367562,432367562,12,45,0,0,30003,1209,1508,1505,1505,1505,1216,1105,1105,1505,1105,1506,1257,0,0,0,0,0,0,0,0,2
432571747,432571747,12,45,0,0,30003,1217,1508,1505,1505,1505,1225,1105,1105,1505,1105,1505,1257,0,0,0,0,0,0,0,0,2
432770765,432770765,12,45,0,0,30004,1205,1508,1506,1505,1505,1212,1105,1105,1505,1106,1505,1257,0,0,0,0,0,0,0,0,2
432975154,432975154,12,45,0,0,30003,1201,1508,1505,1505,1506,1208,1105,1105,1505,1105,1505,1258,0,0,0,0,0,0,0,0,2
433170980,433170980,12,45,0,0,30003,1198,1508,1505,1505,1505,1205,1106,1105,1505,1105,1505,1257,0,0,0,0,0,0,0,0,2
433371118,433371118,12,45,0,0,30003,1181,1508,1505,1506,1505,1188,1105,1105,1505,1105,1506,1257,0,0,0,0,0,0,0,0,2
433586331,433586331,12,45,0,0,30003,1172,1508,1505,1506,1505,1179,1105,1105,1505,1105,1506,1257,0,0,0,0,0,0,0,0,2
433785945,433785945,12,45,0,0,30004,1149,1508,1505,1505,1505,1156,1105,1106,1505,1105,1505,1257,0,0,0,0,0,0,0,0,2
433994127,433994127,12,45,0,0,30003,1139,1508,1506,1505,1505,1146,1105,1105,1505,1106,1505,1257,0,0,0,0,0,0,0,0,2
434185965,434185965,12,45,0,0,30003,1134,1508,1505,1505,1506,1141,1105,1105,1505,1105,1505,1258,0,0,0,0,0,0,0,0,2
434389295,434389295,12,45,0,0,30003,1134,1509,1505,1505,1505,1142,1105,1105,1506,1105,1505,1257,0,0,0,0,0,0,0,0,2
434609143,434609143,12,45,0,0,30003,1136,1509,1505,1505,1505,1144,1105,1105,1506,1105,1505,1257,0,0,0,0,0,0,0,0,2
434793205,434793205,12,45,0,0,30003,1146,1508,1505,1505,1506,1153,1105,1105,1505,1105,1505,1258,0,0,0,0,0,0,0,0,2
435001326,435001326,12,45,0,0,30003,1152,1508,1505,1505,1505,1159,1106,1105,1505,1105,1505,1257,0,0,0,0,0,0,0,0,2
435204725,435204725,12,45,0,0,30003,1257,1509,1505,1505,1505,1257,1105,1105,1506,1105,1505,1257,0,0,0,0,0,0,0,0,2
435408556,435408556,12,45,0,0,30003,1297,1508,1505,1505,1506,1257,1105,1105,1505,1105,1505,1258,0,0,0,0,0,0,0,0,2
435608350,435608350,12,45,0,0,30003,1496,1508,1505,1505,1505,1257,1106,1105,1505,1105,1505,1257,0,0,0,0,0,0,0,0,2
435808547,435808547,12,45,0,0,30003,1496,1509,1505,1504,1505,1257,1105,1105,1506,1105,1505,1257,0,0,0,0,0,0,0,0,2
436023764,436023764,12,45,0,0,30003,1498,1508,1506,1504,1505,1257,1105,1105,1505,1105,1506,1257,0,0,0,0,0,0,0,0,2
436223558,436223558,12,45,0,0,30003,1499,1508,1505,1504,1506,1257,1105,1105,1505,1105,1505,1258,0,0,0,0,0,0,0,0,2
436423555,436423555,12,45,0,0,30004,1498,1509,1505,1504,1505,1257,1105,1105,1506,1105,1505,1257,0,0,0,0,0,0,0,0,2
436623776,436623776,12,45,0,0,30003,1501,1508,1506,1504,1505,1257,1105,1105,1505,1106,1505,1257,0,0,0,0,0,0,0,0,2
436823984,436823984,12,45,0,0,30003,1513,1508,1505,1504,1506,1257,1105,1105,1505,1105,1505,1258,0,0,0,0,0,0,0,0,2
437026977,437026977,12,45,0,0,30004,1535,1509,1505,1504,1505,1257,1105,1105,1506,1105,1505,1257,0,0,0,0,0,0,0,0,2
437242798,437242798,12,45,0,0,30004,1541,1508,1506,1505,1505,1257,1105,1105,1505,1106,1505,1257,0,0,0,0,0,0,0,0,2
437431011,437431011,12,45,0,0,30003,1566,1508,1505,1505,1506,1257,1105,1105,1505,1105,1505,1257,0,0,0,0,0,0,0,0,2
437637955,437637955,12,45,0,0,30003,1581,1508,1505,1505,1505,1257,1105,1106,1505,1105,1505,1257,0,0,0,0,0,0,0,0,2
437849998,437849998,12,45,0,0,30004,1605,1508,1506,1505,1505,1257,1105,1105,1505,1106,1505,1257,0,0,0,0,0,0,0,0,2
438050016,438050016,12,45,0,0,30003,1605,1508,1505,1505,1505,1257,1106,1105,1505,1105,1505,1257,0,0,0,0,0,0,0,0,2
438245983,438245983,12,45,0,0,30004,1604,1508,1506,1505,1505,1257,1105,1105,1505,1106,1505,1257,0,0,0,0,0,0,0,0,2
438457150,438457150,12,45,0,0,30003,1519,1517,1522,1505,1506,1257,1105,1105,1505,1105,1505,1258,0,0,0,0,0,0,0,0,2
438653127,438653127,12,45,0,0,30003,1498,1544,1514,1505,1505,1257,1105,1105,1506,1105,1505,1257,0,0,0,0,0,0,0,0,2
438849402,438849402,12,45,0,0,30003,1499,1553,1509,1506,1505,1257,1105,1105,1505,1105,1506,1257,0,0,0,0,0,0,0,0,2
439049274,439049274,12,45,0,0,30003,1499,1564,1508,1504,1505,1258,1105,1105,1505,1105,1505,1257,0,0,0,0,0,0,0,0,2
439255752,439255752,12,45,0,0,30003,1498,1559,1516,1505,1505,1257,1105,1105,1506,1105,1505,1257,0,0,0,0,0,0,0,0,2
439464401,439464401,12,45,0,0,30003,1499,1526,1554,1505,1506,1257,1105,1105,1505,1105,1506,1257,0,0,0,0,0,0,0,0,2
439676415,439676415,12,45,0,0,30003,1499,1527,1548,1505,1505,1258,1105,1105,1505,1105,1505,1257,0,0,0,0,0,0,0,0,2
439864367,439864367,12,45,0,0,30004,1498,1551,1531,1505,1505,1257,1105,1105,1505,1106,1505,1257,0,0,0,0,0,0,0,0,2
440062925,440062925,12,45,0,0,30003,1498,1571,1515,1505,1505,1257,1106,1105,1505,1105,1505,1257,0,0,0,0,0,0,0,0,2
440283843,440283843,12,45,0,0,30003,1499,1564,1509,1505,1505,1257,1106,1105,1505,1105,1505,1257,0,0,0,0,0,0,0,0,2
440487583,440487583,12,45,0,0,30004,1499,1511,1506,1505,1505,1257,1105,1105,1506,1105,1505,1257,0,0,0,0,0,0,0,0,2
440667613,440667613,12,45,0,0,30003,1499,1513,1506,1505,1505,1258,1105,1105,1505,1105,1505,1257,0,0,0,0,0,0,0,0,2
440887140,440887140,12,45,0,0,30003,1498,1512,1506,1504,1505,1257,1105,1106,1505,1105,1505,1257,0,0,0,0,0,0,0,0,2
441086927,441086927,12,45,0,0,30003,1499,1543,1506,1505,1505,1257,1105,1105,1505,1106,1505,1257,0,0,0,0,0,0,0,0,2
441286982,441286982,12,45,0,0,30004,1499,1536,1505,1505,1505,1257,1106,1105,1505,1105,1505,1257,0,0,0,0,0,0,0,0,2
441486940,441486940,12,45,0,0,30003,1499,1511,1506,1505,1505,1257,1105,1105,1506,1105,1505,1257,0,0,0,0,0,0,0,0,2
441690800,441690800,12,45,0,0,30003,1499,1509,1494,1506,1505,1257,1105,1105,1505,1105,1506,1257,0,0,0,0,0,0,0,0,2
441906012,441906012,12,45,0,0,30003,1499,1509,1502,1505,1505,1258,1105,1105,1505,1105,1505,1257,0,0,0,0,0,0,0,0,2
442106343,442106343,12,45,0,0,30003,1543,1508,1506,1504,1505,1257,1105,1106,1505,1105,1505,1257,0,0,0,0,0,0,0,0,2
442294075,442294075,12,45,0,0,30003,1665,1508,1506,1504,1506,1257,1105,1105,1505,1105,1505,1258,0,0,0,0,0,0,0,0,2
442513179,442513179,12,45,0,0,30003,1700,1508,1506,1505,1505,1258,1105,1105,1505,1105,1505,1257,0,0,0,0,0,0,0,0,2
442717523,442717523,12,45,0,0,30003,1718,1509,1506,1505,1505,1257,1105,1105,1506,1105,1505,1257,0,0,0,0,0,0,0,0,2
442921350,442921350,12,45,0,0,30003,1720,1508,1507,1505,1505,1257,1105,1105,1505,1105,1506,1257,0,0,0,0,0,0,0,0,2
443105199,443105199,12,45,0,0,30003,1720,1508,1506,1505,1505,1257,1106,1105,1505,1105,1505,1257,0,0,0,0,0,0,0,0,2
443304552,443304552,12,45,0,0,30003,1724,1508,1506,1506,1505,1257,1105,1105,1505,1105,1506,1257,0,0,0,0,0,0,0,0,2
443508715,443508715,12,45,0,0,30003,1728,1508,1506,1505,1506,1257,1105,1105,1505,1105,1505,1258,0,0,0,0,0,0,0,0,2
443708397,443708397,12,45,0,0,30004,1729,1508,1506,1505,1505,1257,1106,1105,1505,1105,1505,1257,0,0,0,0,0,0,0,0,2
443912550,443912550,12,45,0,0,30004,1728,1509,1506,1505,1505,1257,1105,1105,1506,1105,1505,1257,0,0,0,0,0,0,0,0,2
444115531,444115531,12,45,0,0,30003,1728,1508,1506,1506,1505,1257,1105,1105,1505,1105,1506,1257,0,0,0,0,0,0,0,0,2
444339561,444339561,12,45,0,0,30003,1728,1508,1506,1505,1506,1257,1105,1105,1505,1105,1505,1257,0,0,0,0,0,0,0,0,2
444519531,444519531,12,45,0,0,30003,1726,1509,1506,1505,1505,1257,1105,1105,1506,1105,1505,1257,0,0,0,0,0,0,0,0,2
444723526,444723526,12,45,0,0,30003,1726,1508,1506,1506,1505,1257,1105,1105,1505,1105,1506,1257,0,0,0,0,0,0,0,0,2
444942776,444942776,12,45,0,0,30003,1725,1508,1506,1506,1506,1257,1105,1105,1505,1105,1505,1257,0,0,0,0,0,0,0,0,2
445146958,445146958,12,45,0,0,30003,1724,1508,1506,1506,1505,1257,1106,1105,1505,1105,1505,1257,0,0,0,0,0,0,0,0,2
445326744,445326744,12,45,0,0,30003,1724,1508,1506,1507,1505,1257,1105,1105,1505,1105,1506,1257,0,0,0,0,0,0,0,0,2
445550760,445550760,12,45,0,0,30003,1720,1508,1506,1505,1506,1257,1105,1105,1505,1105,1505,1258,0,0,0,0,0,0,0,0,2
445745932,445745932,12,45,0,0,30003,1692,1508,1506,1505,1505,1257,1106,1105,1505,1105,1505,1257,0,0,0,0,0,0,0,0,2
445945967,445945967,12,45,0,0,30004,1498,1508,1507,1505,1505,1257,1105,1105,1505,1106,1505,1257,0,0,0,0,0,0,0,0,2
446145980,446145980,12,45,0,0,30003,1498,1508,1506,1504,1505,1257,1106,1105,1505,1105,1505,1257,0,0,0,0,0,0,0,0,2
446342132,446342132,12,45,0,0,30004,1498,1509,1506,1504,1505,1257,1105,1105,1506,1105,1505,1257,0,0,0,0,0,0,0,0,2
446557201,446557201,12,45,0,0,30003,1498,1508,1506,1505,1505,1257,1105,1105,1505,1105,1505,1258,0,0,0,0,0,0,0,0,2
446753137,446753137,12,45,0,0,30003,1497,1509,1506,1504,1505,1257,1105,1105,1506,1105,1505,1257,0,0,0,0,0,0,0,0,2
446957137,446957137,12,45,0,0,30003,1497,1508,1506,1505,1505,1257,1105,1105,1505,1105,1506,1257,0,0,0,0,0,0,0,0,2
447169507,447169507,12,45,0,0,30003,1457,1508,1506,1504,1505,1258,1105,1105,1505,1105,1505,1257,0,0,0,0,0,0,0,0,2
447368338,447368338,12,45,0,0,30003,1408,1509,1506,1504,1505,1257,1105,1105,1506,1105,1505,1257,0,0,0,0,0,0,0,0,2
447568470,447568470,12,45,0,0,30003,1367,1508,1506,1505,1505,1257,1105,1105,1505,1105,1506,1257,0,0,0,0,0,0,0,0,2
447760575,447760575,12,45,0,0,30003,1352,1508,1506,1503,1505,1257,1105,1106,1505,1105,1505,1257,0,0,0,0,0,0,0,0,2
447980327,447980327,12,45,0,0,30004,1346,1508,1507,1504,1505,1257,1105,1105,1505,1106,1505,1257,0,0,0,0,0,0,0,0,2
448175534,448175534,12,45,0,0,30003,1334,1508,1506,1504,1506,1257,1105,1105,1505,1105,1505,1258,0,0,0,0,0,0,0,0,2
448383569,448383569,12,45,0,0,30003,1259,1508,1506,1504,1505,1257,1106,1105,1505,1105,1505,1257,0,0,0,0,0,0,0,0,2
448583577,448583577,12,45,0,0,30003,1200,1509,1506,1505,1505,1207,1105,1105,1505,1105,1506,1257,0,0,0,0,0,0,0,0,2
448791588,448791588,12,45,0,0,30003,1131,1508,1506,1504,1505,1139,1105,1105,1505,1105,1505,1257,0,0,0,0,0,0,0,0,2
448986789,448986789,12,45,0,0,30003,1121,1509,1506,1504,1505,1129,1105,1105,1506,1105,1505,1257,0,0,0,0,0,0,0,0,2
449182767,449182767,12,45,0,0,30003,1116,1508,1506,1504,1506,1123,1105,1105,1505,1105,1505,1257,0,0,0,0,0,0,0,0,2
449378763,449378763,12,45,0,0,30003,1112,1508,1506,1504,1505,1119,1105,1106,1505,1105,1505,1257,0,0,0,0,0,0,0,0,2
449594742,449594742,12,45,0,0,30004,1101,1508,1507,1504,1505,1108,1105,1105,1505,1106,1505,1257,0,0,0,0,0,0,0,0,2
449809963,449809963,12,45,0,0,30003,1098,1508,1506,1504,1506,1105,1105,1105,1505,1105,1505,1258,0,0,0,0,0,0,0,0,2
450009948,450009948,12,45,0,0,30003,1098,1508,1506,1504,1505,1105,1106,1105,1505,1105,1505,1257,0,0,0,0,0,0,0,0,2
450213969,450213969,12,45,0,0,30003,1097,1509,1506,1505,1505,1105,1105,1105,1506,1105,1505,1257,0,0,0,0,0,0,0,0,2
450409965,450409965,12,45,0,0,30003,1098,1508,1506,1504,1506,1105,1105,1105,1505,1105,1505,1257,0,0,0,0,0,0,0,0,2
450609173,450609173,12,45,0,0,30004,1098,1508,1506,1504,1505,1105,1106,1105,1505,1105,1505,1257,0,0,0,0,0,0,0,0,2
450809454,450809454,12,45,0,0,30004,1098,1508,1507,1504,1505,1105,1105,1105,1506,1105,1505,1257,0,0,0,0,0,0,0,0,2
451009289,451009289,12,45,0,0,30003,1098,1508,1506,1504,1505,1106,1105,1105,1505,1105,1505,1257,0,0,0,0,0,0,0,0,2
451213157,451213157,12,45,0,0,30004,1098,1508,1506,1504,1505,1105,1105,1106,1505,1105,1505,1257,0,0,0,0,0,0,0,0,2
451428399,451428399,12,45,0,0,30003,1098,1508,1507,1504,1505,1105,1105,1105,1505,1106,1505,1257,0,0,0,0,0,0,0,0,2
451624454,451624454,12,45,0,0,30003,1098,1508,1506,1504,1506,1105,1105,1105,1505,1105,1505,1258,0,0,0,0,0,0,0,0,2
451820348,451820348,12,45,0,0,30004,1097,1509,1506,1504,1505,1105,1105,1105,1506,1105,1505,1257,0,0,0,0,0,0,0,0,2
452020594,452020594,12,45,0,0,30004,1098,1508,1507,1503,1505,1105,1105,1105,1505,1106,1505,1257,0,0,0,0,0,0,0,0,2
452223573,452223573,12,45,0,0,30003,1098,1508,1506,1500,1506,1105,1105,1105,1505,1105,1505,1258,0,0,0,0,0,0,0,0,2
452431663,452431663,12,45,0,0,30003,1098,1508,1506,1498,1505,1105,1106,1105,1505,1105,1505,1257,0,0,0,0,0,0,0,0,2
452635537,452635537,12,45,0,0,30003,1097,1509,1506,1496,1505,1105,1105,1105,1506,1105,1505,1257,0,0,0,0,0,0,0,0,2
452827679,452827679,12,45,0,0,30003,1098,1508,1506,1493,1506,1105,1105,1105,1505,1105,1505,1258,0,0,0,0,0,0,0,0,2
453030806,453030806,12,45,0,0,30003,1098,1508,1506,1491,1505,1105,1106,1105,1505,1105,1505,1257,0,0,0,0,0,0,0,0,2
453234765,453234765,12,45,0,0,30004,1098,1508,1507,1491,1505,1105,1105,1105,1505,1105,1506,1257,0,0,0,0,0,0,0,0,2
453434814,453434814,12,45,0,0,30003,1098,1508,1506,1492,1506,1105,1105,1105,1505,1105,1505,1258,0,0,0,0,0,0,0,0,2
453638949,453638949,12,45,0,0,30003,1144,1508,1506,1503,1505,1152,1105,1105,1505,1105,1505,1257,0,0,0,0,0,0,0,0,2
453841966,453841966,12,45,0,0,30003,1498,1508,1506,1505,1505,1257,1105,1106,1505,1105,1505,1257,0,0,0,0,0,0,0,0,2
454049964,454049964,12,45,0,0,30004,1498,1508,1507,1504,1505,1257,1105,1105,1505,1106,1505,1257,0,0,0,0,0,0,0,0,2
454262176,454262176,12,45,0,0,30003,1498,1508,1506,1504,1506,1257,1105,1105,1505,1105,1505,1258,0,0,0,0,0,0,0,0,2
454453966,454453966,12,45,0,0,30003,1498,1509,1506,1504,1505,1257,1105,1105,1506,1105,1505,1257,0,0,0,0,0,0,0,0,2
454653516,454653516,12,45,0,0,30003,1498,1509,1506,1505,1505,1257,1105,1105,1505,1105,1506,1257,0,0,0,0,0,0,0,0,2
454869516,454869516,12,45,0,0,30003,1498,1508,1506,1504,1505,1257,1106,1105,1505,1105,1505,1257,0,0,0,0,0,0,0,0,2
455065212,455065212,12,45,0,0,30003,1498,1508,1506,1505,1505,1257,1105,1105,1505,1105,1506,1257,0,0,0,0,0,0,0,0,2
455257403,455257403,12,45,0,0,30003,1498,1508,1506,1504,1505,1258,1105,1105,1505,1105,1505,1257,0,0,0,0,0,0,0,0,2
455460525,455460525,12,45,0,0,30003,1499,1509,1506,1504,1505,1257,1105,1105,1506,1105,1505,1257,0,0,0,0,0,0,0,0,2
455656404,455656404,12,45,0,0,30003,1500,1508,1506,1504,1506,1257,1105,1105,1505,1105,1505,1258,0,0,0,0,0,0,0,0,2
455864380,455864380,12,45,0,0,30003,1500,1508,1506,1504,1505,1257,1105,1106,1505,1105,1505,1257,0,0,0,0,0,0,0,0,2
456080588,456080588,12,45,0,0,30004,1500,1508,1507,1504,1505,1257,1105,1105,1505,1106,1505,1257,0,0,0,0,0,0,0,0,2
456283533,456283533,12,45,0,0,30003,1498,1508,1506,1504,1506,1257,1105,1105,1505,1105,1505,1258,0,0,0,0,0,0,0,0,2
456463539,456463539,12,45,0,0,30003,1413,1509,1506,1504,1505,1257,1105,1105,1506,1105,1505,1257,0,0,0,0,0,0,0,0,2
456683802,456683802,12,45,0,0,30003,1347,1508,1506,1505,1505,1257,1105,1105,1505,1105,1506,1257,0,0,0,0,0,0,0,0,2
456879789,456879789,12,45,0,0,30003,1283,1508,1506,1503,1505,1258,1105,1105,1505,1105,1505,1257,0,0,0,0,0,0,0,0,2
