timestamp,x,y,z,r,flaps,aux1,aux2,aux3,aux4,aux5,aux6,mode_switch,return_switch,rattitude_switch,posctl_switch,loiter_switch,acro_switch,offboard_switch,kill_switch,arm_switch,transition_switch,gear_switch,mode_slot,data_source,stab_switch,man_switch
349475531,0.0,0.0,0.49369434,0.0,0.0,0.0,0.0,0.0,0.0,0.0,0.0,0,0,0,0,0,0,0,3,3,0,0,3,1,0,0
349702974,0.0,0.0,0.49322766,0.0,0.0,0.0,0.0,0.0,0.0,0.0,0.0,0,0,0,0,0,0,0,3,3,0,0,3,1,0,0
349882798,0.0,0.0,0.4934738,0.0,0.0,0.0,0.0,0.0,0.0,0.0,0.0,0,0,0,0,0,0,0,3,3,0,0,3,1,0,0
350098745,0.0,0.0,0.49261317,0.0,0.0,0.0,0.0,0.0,0.0,0.0,0.0,0,0,0,0,0,0,0,3,3,0,0,3,1,0,0
350294316,0.0,0.0,0.49370155,0.0,0.0,0.0,0.0,0.0,0.0,0.0,0.0,0,0,0,0,0,0,0,3,3,0,0,3,1,0,0
350510183,0.0,0.0,0.49298918,0.0,0.0,0.0,0.0,0.0,0.0,0.0,0.0,0,0,0,0,0,0,0,3,3,0,0,3,1,0,0
350714195,0.0,0.0,0.49322978,0.0,0.0,0.0,0.0,0.0,0.0,0.0,0.0,0,0,0,0,0,0,0,3,3,0,0,3,1,0,0
350906337,0.0,0.0,0.49302357,0.0,0.0,0.0,0.0,0.0,0.0,0.0,0.0,0,0,0,0,0,0,0,3,3,0,0,3,1,0,0
351101934,0.0,0.0,0.49277955,0.0,0.0,0.0,0.0,0.0,0.0,0.0,0.0,0,0,0,0,0,0,0,3,3,0,0,3,1,0,0
351321384,0.0,0.0,0.4934696,0.0,0.0,0.0,0.0,0.0,0.0,0.0,0.0,0,0,0,0,0,0,0,3,3,0,0,3,1,0,0
351513514,0.0,0.0,0.49252817,0.0,0.0,0.0,0.0,0.0,0.0,0.0,0.0,0,0,0,0,0,0,0,3,3,0,0,3,1,0,0
351717356,0.0,0.0,0.49234045,0.0,0.0,0.0,0.0,0.0,0.0,0.0,0.0,0,0,0,0,0,0,0,3,3,0,0,3,1,0,0
351916379,0.0,0.0,0.49276453,0.0,0.0,0.0,0.0,0.0,0.0,0.0,0.0,0,0,0,0,0,0,0,3,3,0,0,3,1,0,0
352116368,0.0,0.0,0.49369022,0.0,0.0,0.0,0.0,0.0,0.0,0.0,0.0,0,0,0,0,0,0,0,3,3,0,0,3,1,0,0
352336366,0.0,0.0,0.49321532,0.0,0.0,0.0,0.0,0.0,0.0,0.0,0.0,0,0,0,0,0,0,0,3,3,0,0,3,1,0,0
352536349,0.0,0.0,0.49353918,0.0,0.0,0.0,0.0,0.0,0.0,0.0,0.0,0,0,0,0,0,0,0,3,3,0,0,3,1,0,0
352739562,0.0,0.0,0.4937314,0.0,0.0,0.0,0.0,0.0,0.0,0.0,0.0,0,0,0,0,0,0,0,3,3,0,0,3,1,0,0
352943745,0.0,0.0,0.49263707,0.0,0.0,0.0,0.0,0.0,0.0,0.0,0.0,0,0,0,0,0,0,0,3,3,0,0,3,1,0,0
353147570,0.0,0.0,0.4923902,0.0,0.0,0.0,0.0,0.0,0.0,0.0,0.0,0,0,0,0,0,0,0,3,3,0,0,3,1,0,0
353351550,0.0,0.0,0.5062096,0.0,0.0,0.0,0.0,0.0,0.0,0.0,0.0,0,0,0,0,0,0,0,3,3,0,0,3,1,0,0
353542767,0.0,0.0,0.4925328,0.0,0.0,0.0,0.0,0.0,0.0,0.0,0.0,0,0,0,0,0,0,0,3,3,0,0,3,1,0,0
353738812,0.0,0.0,0.49278992,0.0,0.0,0.0,0.0,0.0,0.0,0.0,0.0,0,0,0,0,0,0,0,3,3,0,0,3,1,0,0
353938928,0.0,0.0,0.4940044,0.0,0.0,0.0,0.0,0.0,0.0,0.0,0.0,0,0,0,0,0,0,0,3,3,0,0,3,1,0,0
354158734,0.0,0.0,0.493328,0.0,0.0,0.0,0.0,0.0,0.0,0.0,0.0,0,0,0,0,0,0,0,3,3,0,0,3,1,0,0
354365923,-0.00034195153,0.0,0.5173819,0.0,0.0,0.0,0.0,0.0,0.0,0.0,0.0,0,0,0,0,0,0,0,3,3,0,0,3,1,0,0
354570362,-7.203564e-08,0.0,0.5464462,0.0,0.0,0.0,0.0,0.0,0.0,0.0,0.0,0,0,0,0,0,0,0,3,3,0,0,3,1,0,0
354769977,2.0759604e-10,0.0,0.5641371,0.0,0.0,0.0,0.0,0.0,0.0,0.0,0.0,0,0,0,0,0,0,0,3,3,0,0,3,1,0,0
354969966,-1.5064698e-13,0.0,0.5708864,0.0,0.0,0.0,0.0,0.0,0.0,0.0,0.0,0,0,0,0,0,0,0,3,3,0,0,3,1,0,0
355165193,4.3575977e-17,0.0,0.574178,0.0,0.0,0.0,0.0,0.0,0.0,0.0,0.0,0,0,0,0,0,0,0,3,3,0,0,3,1,0,0
355377134,2.947985e-20,0.0,0.5652235,0.0,0.0,0.0,0.0,0.0,0.0,0.0,0.0,0,0,0,0,0,0,0,3,3,0,0,3,1,0,0
355577127,-1.3348443e-23,0.0,0.59208155,0.0,0.0,0.0,0.0,0.0,0.0,0.0,0.0,0,0,0,0,0,0,0,3,3,0,0,3,1,0,0
355777237,-8.310268e-28,0.0,0.6063566,0.0,0.0,0.0,0.0,0.0,0.0,0.0,0.0,0,0,0,0,0,0,0,3,3,0,0,3,1,0,0
355976357,6.375245e-30,0.0,0.6289656,0.0,0.0,0.0,0.0,0.0,0.0,0.0,0.0,0,0,0,0,0,0,0,3,3,0,0,3,1,0,0
356184647,-5.2109716e-33,0.0,0.6309871,0.0,0.0,0.0,0.0,0.0,0.0,0.0,0.0,0,0,0,0,0,0,0,3,3,0,0,3,1,0,0
356392556,1.8483268e-36,0.0,0.6493466,0.0,0.0,0.0,0.0,0.0,0.0,0.0,0.0,0,0,0,0,0,0,0,3,3,0,0,3,1,0,0
356596557,5.9294e-40,0.0,0.6493743,0.0,0.0,0.0,0.0,0.0,0.0,0.0,0.0,0,0,0,0,0,0,0,3,3,0,0,3,1,0,0
356795921,-1.299e-42,0.0,0.6469417,0.0,0.0,0.0,0.0,0.0,0.0,0.0,0.0,0,0,0,0,0,0,0,3,3,0,0,3,1,0,0
356991601,0.0,0.0,0.62742436,0.0,0.0,0.0,0.0,0.0,0.0,0.0,0.0,0,0,0,0,0,0,0,3,3,0,0,3,1,0,0
357191923,0.041810576,0.0,0.5997678,0.0,0.0,0.0,0.0,0.0,0.0,0.0,0.0,0,0,0,0,0,0,0,3,3,0,0,3,1,0,0
357394791,0.08314444,0.0,0.5617489,0.0,0.0,0.0,0.0,0.0,0.0,0.0,0.0,0,0,0,0,0,0,0,3,3,0,0,3,1,0,0
357594789,0.055795033,0.0,0.49518886,0.0,0.0,0.0,0.0,0.0,0.0,0.0,0.0,0,0,0,0,0,0,0,3,3,0,0,3,1,0,0
357810741,-1.9487454e-05,0.0,0.49234992,0.0,0.0,0.0,0.0,0.0,0.0,0.0,0.0,0,0,0,0,0,0,0,3,3,0,0,3,1,0,0
358014754,0.0021132838,0.0,0.4634793,0.0,0.0,0.0,0.0,0.0,0.0,0.0,0.0,0,0,0,0,0,0,0,3,3,0,0,3,1,0,0
358209972,0.13875535,0.0,0.43690962,0.0,0.0,0.0,0.0,0.0,0.0,0.0,0.0,0,0,0,0,0,0,0,3,3,0,0,3,1,0,0
358417970,-0.00056005263,0.0,0.439675,0.0,0.0,0.0,0.0,0.0,0.0,0.0,0.0,0,0,0,0,0,0,0,3,3,0,0,3,1,0,0
358613965,1.2297015e-06,0.0,0.4224367,0.0,0.0,0.0,0.0,0.0,0.0,0.0,0.0,0,0,0,0,0,0,0,3,3,0,0,3,1,0,0
358825968,-2.463523e-11,0.0,0.41772175,0.0,0.0,0.0,0.0,0.0,0.0,0.0,0.0,0,0,0,0,0,0,0,3,3,0,0,3,1,0,0
359025550,0.013348722,0.0,0.42941886,0.0,0.0,0.0,0.0,0.0,0.0,0.0,0.0,0,0,0,0,0,0,0,3,3,0,0,3,1,0,0
359225157,0.105369866,0.0,0.43033972,0.0,0.0,0.0,0.0,0.0,0.0,0.0,0.0,0,0,0,0,0,0,0,3,3,0,0,3,1,0,0
359421518,0.14180316,0.0,0.4306411,0.0,0.0,0.0,0.0,0.0,0.0,0.0,0.0,0,0,0,0,0,0,0,3,3,0,0,3,1,0,0
359625367,-0.0027065375,0.0,0.44658628,0.0,0.0,0.0,0.0,0.0,0.0,0.0,0.0,0,0,0,0,0,0,0,3,3,0,0,3,1,0,0
359828361,2.7184042e-06,0.0,0.49092087,0.0,0.0,0.0,0.0,0.0,0.0,0.0,0.0,0,0,0,0,0,0,0,3,3,0,0,3,1,0,0
360032714,-1.226324e-09,0.0,0.4922716,0.0,0.0,0.0,0.0,0.0,0.0,0.0,0.0,0,0,0,0,0,0,0,3,3,0,0,3,1,0,0
360232362,-8.061531e-14,0.0,0.503032,-0.028793823,0.0,0.0,0.0,0.0,0.0,0.0,0.0,0,0,0,0,0,0,0,3,3,0,0,3,1,0,0
360428755,5.894197e-16,0.0,0.5331538,-0.1974023,0.0,0.0,0.0,0.0,0.0,0.0,0.0,0,0,0,0,0,0,0,3,3,0,0,3,1,0,0
360635569,-4.801762e-19,0.0,0.5326293,-0.22533543,0.0,0.0,0.0,0.0,0.0,0.0,0.0,0,0,0,0,0,0,0,3,3,0,0,3,1,0,0
360843783,1.6948886e-22,0.0,0.5329829,-0.23247664,0.0,0.0,0.0,0.0,0.0,0.0,0.0,0,0,0,0,0,0,0,3,3,0,0,3,1,0,0
361055564,0.043047115,0.0,0.53531015,-0.14679964,0.0,0.0,0.0,0.0,0.0,0.0,0.0,0,0,0,0,0,0,0,3,3,0,0,3,1,0,0
361254853,0.039556943,0.0,0.54169345,-0.14797866,0.0,0.0,0.0,0.0,0.0,0.0,0.0,0,0,0,0,0,0,0,3,3,0,0,3,1,0,0
361446745,3.4974422e-05,0.0,0.60210675,-0.14503452,0.0,0.0,0.0,0.0,0.0,0.0,0.0,0,0,0,0,0,0,0,3,3,0,0,3,1,0,0
361651016,-1.6269214e-08,0.0,0.61446106,-0.14669153,0.0,0.0,0.0,0.0,0.0,0.0,0.0,0,0,0,0,0,0,0,3,3,0,0,3,1,0,0
361846801,-6.082505e-13,0.0,0.58574265,-0.12060775,0.0,0.0,0.0,0.0,0.0,0.0,0.0,0,0,0,0,0,0,0,3,3,0,0,3,1,0,0
362050735,7.417164e-15,0.0,0.5758948,-0.20104702,0.0,0.0,0.0,0.0,0.0,0.0,0.0,0,0,0,0,0,0,0,3,3,0,0,3,1,0,0
362258315,-6.214398e-18,0.0,0.58476037,-0.25747082,0.0,0.0,0.0,0.0,0.0,0.0,0.0,0,0,0,0,0,0,0,3,3,0,0,3,1,0,0
362477967,-9.399095e-22,0.0,0.5861618,-0.24101926,0.0,0.0,0.0,0.0,0.0,0.0,0.0,0,0,0,0,0,0,0,3,3,0,0,3,1,0,0
362677962,1.1550765e-24,0.0,0.5934169,-0.23211998,0.0,0.0,0.0,0.0,0.0,0.0,0.0,0,0,0,0,0,0,0,3,3,0,0,3,1,0,0
362877365,0.045651753,0.0,0.5988267,-0.21532173,0.0,0.0,0.0,0.0,0.0,0.0,0.0,0,0,0,0,0,0,0,3,3,0,0,3,1,0,0
363073143,0.07756652,0.0,0.5935819,-0.20660043,0.0,0.0,0.0,0.0,0.0,0.0,0.0,0,0,0,0,0,0,0,3,3,0,0,3,1,0,0
363285364,0.09390285,0.0,0.58796257,-0.19026755,0.0,0.0,0.0,0.0,0.0,0.0,0.0,0,0,0,0,0,0,0,3,3,0,0,3,1,0,0
363465173,0.09450451,0.0,0.57495666,-0.15871988,0.0,0.0,0.0,0.0,0.0,0.0,0.0,0,0,0,0,0,0,0,3,3,0,0,3,1,0,0
363688350,0.06428697,0.0,0.5259116,0.0006398124,0.0,0.0,0.0,0.0,0.0,0.0,0.0,0,0,0,0,0,0,0,3,3,0,0,3,1,0,0
363888384,0.023107264,0.0,0.53747195,6.1861044e-07,0.0,0.0,0.0,0.0,0.0,0.0,0.0,0,0,0,0,0,0,0,3,3,0,0,3,1,0,0
364088405,0.016866589,0.0,0.59317654,-8.105893e-10,0.0,0.0,0.0,0.0,0.0,0.0,0.0,0,0,0,0,0,0,0,3,3,0,0,3,1,0,0
364296476,0.009715171,0.0,0.5949379,4.4543546e-13,0.0,0.0,0.0,0.0,0.0,0.0,0.0,0,0,0,0,0,0,0,3,3,0,0,3,1,0,0
364503844,-0.000224602,0.0,0.5949367,-4.5559073e-17,0.0,0.0,0.0,0.0,0.0,0.0,0.0,0,0,0,0,0,0,0,3,3,0,0,3,1,0,0
364699815,0.0014986506,0.0,0.5901369,-1.4879131e-19,0.0,0.0,0.0,0.0,0.0,0.0,0.0,0,0,0,0,0,0,0,3,3,0,0,3,1,0,0
364903558,0.0007810912,0.0,0.5877772,1.4911233e-22,0.0,0.0,0.0,0.0,0.0,0.0,0.0,0,0,0,0,0,0,0,3,3,0,0,3,1,0,0
365111563,-5.310674e-08,0.0,0.57009286,-6.712779e-26,0.0,0.0,0.0,0.0,0.0,0.0,0.0,0,0,0,0,0,0,0,3,3,0,0,3,1,0,0
365316346,0.012382969,0.0,0.55266887,-4.5438262e-30,0.0,0.0,0.0,0.0,0.0,0.0,0.0,0,0,0,0,0,0,0,3,3,0,0,3,1,0,0
365514822,0.020839961,0.0,0.5417652,3.237858e-32,0.0,0.0,0.0,0.0,0.0,0.0,0.0,0,0,0,0,0,0,0,3,3,0,0,3,1,0,0
365707166,0.042503063,0.0,0.5392242,-2.632867e-35,0.0,0.0,0.0,0.0,0.0,0.0,0.0,0,0,0,0,0,0,0,3,3,0,0,3,1,0,0
365906924,0.062327977,0.0,0.6070458,9.267912e-39,0.0,0.0,0.0,0.0,0.0,0.0,0.0,0,0,0,0,0,0,0,3,3,0,0,3,1,0,0
366102315,0.06469778,0.0,0.56842345,3.058e-42,0.0,0.0,0.0,0.0,0.0,0.0,0.0,0,0,0,0,0,0,0,3,3,0,0,3,1,0,0
366314212,0.0596036,0.0,0.5509855,-4e-45,0.0,0.0,0.0,0.0,0.0,0.0,0.0,0,0,0,0,0,0,0,3,3,0,0,3,1,0,0
366525960,0.066834465,0.0,0.5493665,0.0,0.0,0.0,0.0,0.0,0.0,0.0,0.0,0,0,0,0,0,0,0,3,3,0,0,3,1,0,0
366710154,0.08699496,0.0,0.5859589,0.0,0.0,0.0,0.0,0.0,0.0,0.0,0.0,0,0,0,0,0,0,0,3,3,0,0,3,1,0,0
366913388,0.08679072,0.0,0.5887563,0.0,0.0,0.0,0.0,0.0,0.0,0.0,0.0,0,0,0,0,0,0,0,3,3,0,0,3,1,0,0
367117152,0.08642521,0.0,0.5924288,0.0,0.0,0.0,0.0,0.0,0.0,0.0,0.0,0,0,0,0,0,0,0,3,3,0,0,3,1,0,0
367337393,0.0792618,0.0,0.5902036,0.0,0.0,0.0,0.0,0.0,0.0,0.0,0.0,0,0,0,0,0,0,0,3,3,0,0,3,1,0,0
367533381,0.059960667,0.0,0.59145534,0.0,0.0,0.0,0.0,0.0,0.0,0.0,0.0,0,0,0,0,0,0,0,3,3,0,0,3,1,0,0
367732366,0.058352787,0.0,0.5902576,0.0,0.0,0.0,0.0,0.0,0.0,0.0,0.0,0,0,0,0,0,0,0,3,3,0,0,3,1,0,0
367944395,0.048201278,0.0,0.59114057,0.0,0.0,0.0,0.0,0.0,0.0,0.0,0.0,0,0,0,0,0,0,0,3,3,0,0,3,1,0,0
368136355,0.03261139,0.0,0.5963743,0.0,0.0,0.0,0.0,0.0,0.0,0.0,0.0,0,0,0,0,0,0,0,3,3,0,0,3,1,0,0
368332539,0.018111924,0.0,0.5964639,0.0,0.0,0.0,0.0,0.0,0.0,0.0,0.0,0,0,0,0,0,0,0,3,3,0,0,3,1,0,0
368539555,0.0041576535,0.0,0.599683,0.0,0.0,0.0,0.0,0.0,0.0,0.0,0.0,0,0,0,0,0,0,0,3,3,0,0,3,1,0,0
368751635,-0.00010494724,0.0,0.5943141,0.0,0.0,0.0,0.0,0.0,0.0,0.0,0.0,0,0,0,0,0,0,0,3,3,0,0,3,1,0,0
368955787,0.061497893,0.0,0.5860639,0.0,0.0,0.0,0.0,0.0,0.0,0.0,0.0,0,0,0,0,0,0,0,3,3,0,0,3,1,0,0
369158726,0.07231601,0.0,0.587092,0.0,0.0,0.0,0.0,0.0,0.0,0.0,0.0,0,0,0,0,0,0,0,3,3,0,0,3,1,0,0
369354768,0.05983926,0.0,0.5854237,0.0,0.0,0.0,0.0,0.0,0.0,0.0,0.0,0,0,0,0,0,0,0,3,3,0,0,3,1,0,0
369566724,0.040173206,0.0,0.5858146,0.0,0.0,0.0,0.0,0.0,0.0,0.0,0.0,0,0,0,0,0,0,0,3,3,0,0,3,1,0,0
369767113,0.052526776,0.0,0.57227755,0.0,0.0,0.0,0.0,0.0,0.0,0.0,0.0,0,0,0,0,0,0,0,3,3,0,0,3,1,0,0
369970737,0.051586315,0.0,0.5800262,0.0,0.0,0.0,0.0,0.0,0.0,0.0,0.0,0,0,0,0,0,0,0,3,3,0,0,3,1,0,0
370157953,0.045272533,0.0,0.5845095,0.0,0.0,0.0,0.0,0.0,0.0,0.0,0.0,0,0,0,0,0,0,0,3,3,0,0,3,1,0,0
370374051,0.026114136,0.0,0.5873612,0.0,0.0,0.0,0.0,0.0,0.0,0.0,0.0,0,0,0,0,0,0,0,3,3,0,0,3,1,0,0
370574171,0.037577372,0.0,0.5818117,0.0,0.0,0.0,0.0,0.0,0.0,0.0,0.0,0,0,0,0,0,0,0,3,3,0,0,3,1,0,0
370774726,-0.00011555089,0.0,0.5751596,0.0,0.0,0.0,0.0,0.0,0.0,0.0,0.0,0,0,0,0,0,0,0,3,3,0,0,3,1,0,0
370977360,-6.826651e-08,0.0,0.4957553,0.0,0.0,0.0,0.0,0.0,0.0,0.0,0.0,0,0,0,0,0,0,0,3,3,0,0,3,1,0,0
371173418,1.0847644e-10,0.0,0.49322474,0.0,0.0,0.0,0.0,0.0,0.0,0.0,0.0,0,0,0,0,0,0,0,3,3,0,0,3,1,0,0
371389148,-0.002078527,0.0,0.4932017,-0.0038951735,0.0,0.0,0.0,0.0,0.0,0.0,0.0,0,0,0,0,0,0,0,3,3,0,0,3,1,0,0
371592341,3.186001e-07,0.0,0.49374175,1.0758918e-05,0.0,0.0,0.0,0.0,0.0,0.0,0.0,0,0,0,0,0,0,0,3,3,0,0,3,1,0,0
371792590,6.0180405e-10,0.0,0.55958873,0.01837501,0.0,0.0,0.0,0.0,0.0,0.0,0.0,0,0,0,0,0,0,0,3,3,0,0,3,1,0,0
371988380,-6.599621e-13,0.0,0.5685017,-1.1921588e-05,0.0,0.0,0.0,0.0,0.0,0.0,0.0,0,0,0,0,0,0,0,3,3,0,0,3,1,0,0
372184361,3.2111927e-16,0.0,0.5696106,2.6244247e-09,0.0,0.0,0.0,0.0,0.0,0.0,0.0,0,0,0,0,0,0,0,3,3,0,0,3,1,0,0
372391572,1.1277575e-19,0.0,0.62217104,2.4365087e-12,0.0,0.0,0.0,0.0,0.0,0.0,0.0,0,0,0,0,0,0,0,3,3,0,0,3,1,0,0
372591564,-0.017111506,0.0,0.6232974,-9.555194e-16,0.0,0.0,0.0,0.0,0.0,0.0,0.0,0,0,0,0,0,0,0,3,3,0,0,3,1,0,0
372795601,-0.014302117,0.0,0.5772443,-1.9758548e-19,0.0,0.0,0.0,0.0,0.0,0.0,0.0,0,0,0,0,0,0,0,3,3,0,0,3,1,0,0
373015535,-0.050961614,0.0,0.5400268,2.4657232e-22,0.0,0.0,0.0,0.0,0.0,0.0,0.0,0,0,0,0,0,0,0,3,3,0,0,3,1,0,0
373202757,-0.0965402,0.0,0.5761586,-4.197025e-25,0.0,0.0,0.0,0.0,0.0,0.0,0.0,0,0,0,0,0,0,0,3,3,0,0,3,1,0,0
373402772,-0.12553078,0.0,0.58994013,1.2204043e-28,0.0,0.0,0.0,0.0,0.0,0.0,0.0,0,0,0,0,0,0,0,3,3,0,0,3,1,0,0
373618738,-0.11238933,0.0,0.59658194,8.2050687e-32,0.0,0.0,0.0,0.0,0.0,0.0,0.0,0,0,0,0,0,0,0,3,3,0,0,3,1,0,0
373822759,-0.0060461853,0.0,0.5970202,-3.7266807e-35,0.0,0.0,0.0,0.0,0.0,0.0,0.0,0,0,0,0,0,0,0,3,3,0,0,3,1,0,0
374021925,-3.2994734e-07,0.0,0.5844263,-2.213216e-39,0.0,0.0,0.0,0.0,0.0,0.0,0.0,0,0,0,0,0,0,0,3,3,0,0,3,1,0,0
374229981,1.4445214e-09,0.08814768,0.53897315,8.925e-42,0.0,0.0,0.0,0.0,0.0,0.0,0.0,0,0,0,0,0,0,0,3,3,0,0,3,1,0,0
374418002,-2.8137405e-13,0.116099544,0.51642394,-0.0,0.0,0.0,0.0,0.0,0.0,0.0,0.0,0,0,0,0,0,0,0,3,3,0,0,3,1,0,0
374614052,-3.6592377e-16,0.11945585,0.538753,0.0,0.0,0.0,0.0,0.0,0.0,0.0,0.0,0,0,0,0,0,0,0,3,3,0,0,3,1,0,0
374821252,-0.02226329,0.030151675,0.5985461,0.0,0.0,0.0,0.0,0.0,0.0,0.0,0.0,0,0,0,0,0,0,0,3,3,0,0,3,1,0,0
375033129,-0.032959573,-0.00078493095,0.5833424,0.0,0.0,0.0,0.0,0.0,0.0,0.0,0.0,0,0,0,0,0,0,0,3,3,0,0,3,1,0,0
375241178,-0.09406758,8.000451e-07,0.5683679,0.0,0.0,0.0,0.0,0.0,0.0,0.0,0.0,0,0,0,0,0,0,0,3,3,0,0,3,1,0,0
375437134,-0.13522902,-3.6583492e-10,0.57439935,0.0,0.0,0.0,0.0,0.0,0.0,0.0,0.0,0,0,0,0,0,0,0,3,3,0,0,3,1,0,0
375632346,-0.14712404,-1.9433372e-14,0.59974194,0.0,0.0,0.0,0.0,0.0,0.0,0.0,0.0,0,0,0,0,0,0,0,3,3,0,0,3,1,0,0
375848335,0.0024419394,0.031139,0.59566075,0.0,0.0,0.0,0.0,0.0,0.0,0.0,0.0,0,0,0,0,0,0,0,3,3,0,0,3,1,0,0
376040552,-2.860862e-06,0.111682564,0.57501984,0.0,0.0,0.0,0.0,0.0,0.0,0.0,0.0,0,0,0,0,0,0,0,3,3,0,0,3,1,0,0
376252553,1.4626249e-09,0.082514934,0.57207704,0.0,0.0,0.0,0.0,0.0,0.0,0.0,0.0,0,0,0,0,0,0,0,3,3,0,0,3,1,0,0
376447556,-6.5269486e-14,0.00027024862,0.5801413,0.0,0.0,0.0,0.0,0.0,0.0,0.0,0.0,0,0,0,0,0,0,0,3,3,0,0,3,1,0,0
376659617,-3.3120198e-16,5.5914867e-08,0.5898607,0.0,0.0,0.0,0.0,0.0,0.0,0.0,0.0,0,0,0,0,0,0,0,3,3,0,0,3,1,0,0
376847841,8.5819207e-20,-5.368048e-11,0.58924526,0.0,0.0,0.0,0.0,0.0,0.0,0.0,0.0,0,0,0,0,0,0,0,3,3,0,0,3,1,0,0
377050752,6.5309517e-23,2.3171337e-14,0.5898741,0.0,0.0,0.0,0.0,0.0,0.0,0.0,0.0,0,0,0,0,0,0,0,3,3,0,0,3,1,0,0
377266735,-2.812536e-26,9.543669e-18,0.59827864,0.0,0.0,0.0,0.0,0.0,0.0,0.0,0.0,0,0,0,0,0,0,0,3,3,0,0,3,1,0,0
377462758,-3.424241e-30,-5.6917595e-21,0.62501144,0.0,0.0,0.0,0.0,0.0,0.0,0.0,0.0,0,0,0,0,0,0,0,3,3,0,0,3,1,0,0
377662757,1.4892732e-32,9.267084e-25,0.631353,0.0,0.0,0.0,0.0,0.0,0.0,0.0,0.0,0,0,0,0,0,0,0,3,3,0,0,3,1,0,0
377862776,-1.15452615e-35,1.6006078e-27,0.6329101,0.0,0.0,0.0,0.0,0.0,0.0,0.0,0.0,0,0,0,0,0,0,0,3,3,0,0,3,1,0,0
378066122,3.770038e-39,-1.78887e-30,0.63291144,0.0,0.0,0.0,0.0,0.0,0.0,0.0,0.0,0,0,0,0,0,0,0,3,3,0,0,3,1,0,0
378266021,1.599e-42,8.833758e-34,0.6342018,0.0,0.0,0.0,0.0,0.0,0.0,0.0,0.0,0,0,0,0,0,0,0,3,3,0,0,3,1,0,0
378470059,-3e-45,-1.359791e-38,0.63417727,0.0,0.0,0.0,0.0,0.0,0.0,0.0,0.0,0,0,0,0,0,0,0,3,3,0,0,3,1,0,0
378673163,0.0,-3.6205e-40,0.63502127,0.0,0.0,0.0,0.0,0.0,0.0,0.0,0.0,0,0,0,0,0,0,0,3,3,0,0,3,1,0,0
378869123,0.0,3.21e-43,0.6363585,0.0,0.0,0.0,0.0,0.0,0.0,0.0,0.0,0,0,0,0,0,0,0,3,3,0,0,3,1,0,0
379093327,0.0,0.0,0.64759296,0.0,0.0,0.0,0.0,0.0,0.0,0.0,0.0,0,0,0,0,0,0,0,3,3,0,0,3,1,0,0
379289183,0.0,0.0,0.6510214,0.0,0.0,0.0,0.0,0.0,0.0,0.0,0.0,0,0,0,0,0,0,0,3,3,0,0,3,1,0,0
379491718,0.0,0.0,0.651278,0.0,0.0,0.0,0.0,0.0,0.0,0.0,0.0,0,0,0,0,0,0,0,3,3,0,0,3,1,0,0
379696530,0.0,0.0,0.65288556,0.0,0.0,0.0,0.0,0.0,0.0,0.0,0.0,0,0,0,0,0,0,0,3,3,0,0,3,1,0,0
379888456,0.0,0.0,0.6531645,0.0,0.0,0.0,0.0,0.0,0.0,0.0,0.0,0,0,0,0,0,0,0,3,3,0,0,3,1,0,0
380104388,0.0,0.0,0.6531316,0.0,0.0,0.0,0.0,0.0,0.0,0.0,0.0,0,0,0,0,0,0,0,3,3,0,0,3,1,0,0
380295536,0.0,0.0,0.65312356,0.0,0.0,0.0,0.0,0.0,0.0,0.0,0.0,0,0,0,0,0,0,0,3,3,0,0,3,1,0,0
380503527,0.0,0.0,0.65360373,0.0,0.0,0.0,0.0,0.0,0.0,0.0,0.0,0,0,0,0,0,0,0,3,3,0,0,3,1,0,0
380711564,0.0,0.0,0.6531646,0.0,0.0,0.0,0.0,0.0,0.0,0.0,0.0,0,0,0,0,0,0,0,3,3,0,0,3,1,0,0
380915554,0.0,0.0,0.6531212,0.0,0.0,0.0,0.0,0.0,0.0,0.0,0.0,0,0,0,0,0,0,0,3,3,0,0,3,1,0,0
381114775,0.0,0.0,0.6531645,0.0,0.0,0.0,0.0,0.0,0.0,0.0,0.0,0,0,0,0,0,0,0,3,3,0,0,3,1,0,0
381303119,0.0,0.0,0.65316457,0.0,0.0,0.0,0.0,0.0,0.0,0.0,0.0,0,0,0,0,0,0,0,3,3,0,0,3,1,0,0
381519131,0.0,0.0,0.65272534,0.0,0.0,0.0,0.0,0.0,0.0,0.0,0.0,0,0,0,0,0,0,0,3,3,0,0,3,1,0,0
381722733,0.0,0.0,0.6531977,0.0,0.0,0.0,0.0,0.0,0.0,0.0,0.0,0,0,0,0,0,0,0,3,3,0,0,3,1,0,0
381925957,0.0,0.0,0.65316457,0.0,0.0,0.0,0.0,0.0,0.0,0.0,0.0,0,0,0,0,0,0,0,3,3,0,0,3,1,0,0
382125936,0.0,0.0,0.65316457,0.0,0.0,0.0,0.0,0.0,0.0,0.0,0.0,0,0,0,0,0,0,0,3,3,0,0,3,1,0,0
382318063,0.0,0.0,0.65323544,0.0,0.0,0.0,0.0,0.0,0.0,0.0,0.0,0,0,0,0,0,0,0,3,3,0,0,3,1,0,0
382526317,0.0,0.0,0.65315497,0.0,0.0,0.0,0.0,0.0,0.0,0.0,0.0,0,0,0,0,0,0,0,3,3,0,0,3,1,0,0
382725124,0.0,0.0,0.65048295,0.0,0.0,0.0,0.0,0.0,0.0,0.0,0.0,0,0,0,0,0,0,0,3,3,0,0,3,1,0,0
382945148,0.0,0.0,0.6060481,0.0,0.0,0.0,0.0,0.0,0.0,0.0,0.0,0,0,0,0,0,0,0,3,3,0,0,3,1,0,0
383141138,0.0,0.0,0.5430923,0.0,0.0,0.0,0.0,0.0,0.0,0.0,0.0,0,0,0,0,0,0,0,3,3,0,0,3,1,0,0
383345350,0.0,0.0,0.49432296,0.0,0.0,0.0,0.0,0.0,0.0,0.0,0.0,0,0,0,0,0,0,0,3,3,0,0,3,1,0,0
383544336,0.0,0.0,0.49264172,0.0,0.0,0.0,0.0,0.0,0.0,0.0,0.0,0,0,0,0,0,0,0,3,3,0,0,3,1,0,0
383744451,0.0,0.0,0.49240696,0.0,0.0,0.0,0.0,0.0,0.0,0.0,0.0,0,0,0,0,0,0,0,3,3,0,0,3,1,0,0
383944554,0.0,0.0,0.49078226,0.0,0.0,0.0,0.0,0.0,0.0,0.0,0.0,0,0,0,0,0,0,0,3,3,0,0,3,1,0,0
384140598,0.0,0.0,0.47509104,0.0,0.0,0.0,0.0,0.0,0.0,0.0,0.0,0,0,0,0,0,0,0,3,3,0,0,3,1,0,0
384347567,0.0,0.0,0.4572756,0.0,0.0,0.0,0.0,0.0,0.0,0.0,0.0,0,0,0,0,0,0,0,3,3,0,0,3,1,0,0
384543591,0.0,0.0,0.42667612,0.0,0.0,0.0,0.0,0.0,0.0,0.0,0.0,0,0,0,0,0,0,0,3,3,0,0,3,1,0,0
384751556,0.0,0.0,0.40915748,0.0,0.0,0.0,0.0,0.0,0.0,0.0,0.0,0,0,0,0,0,0,0,3,3,0,0,3,1,0,0
384951568,0.0,0.0,0.3893106,0.0,0.0,0.0,0.0,0.0,0.0,0.0,0.0,0,0,0,0,0,0,0,3,3,0,0,3,1,0,0
385151155,0.0,0.0,0.381875,0.0,0.0,0.0,0.0,0.0,0.0,0.0,0.0,0,0,0,0,0,0,0,3,3,0,0,3,1,0,0
385354952,0.0,0.0,0.36494252,0.0,0.0,0.0,0.0,0.0,0.0,0.0,0.0,0,0,0,0,0,0,0,3,3,0,0,3,1,0,0
385570987,0.0,0.0,0.3457381,0.0,0.0,0.0,0.0,0.0,0.0,0.0,0.0,0,0,0,0,0,0,0,3,3,0,0,3,1,0,0
385777236,0.0,0.0,0.32722345,0.003682742,0.0,0.0,0.0,0.0,0.0,0.0,0.0,0,0,0,0,0,0,0,3,3,0,0,3,1,0,0
385970153,0.0,0.0,0.30915487,0.007253291,0.0,0.0,0.0,0.0,0.0,0.0,0.0,0,0,0,0,0,0,0,3,3,0,0,3,1,0,0
386185970,0.0,0.0,0.29781386,0.01062299,0.0,0.0,0.0,0.0,0.0,0.0,0.0,0,0,0,0,0,0,0,3,3,0,0,3,1,0,0
386369932,0.0,0.0,0.28727892,0.016429784,0.0,0.0,0.0,0.0,0.0,0.0,0.0,0,0,0,0,0,0,0,3,3,0,0,3,1,0,0
386581168,0.0,0.0,0.26969877,0.020101583,0.0,0.0,0.0,0.0,0.0,0.0,0.0,0,0,0,0,0,0,0,3,3,0,0,3,1,0,0
386785417,0.0,0.0,0.25610453,0.022944875,0.0,0.0,0.0,0.0,0.0,0.0,0.0,0,0,0,0,0,0,0,3,3,0,0,3,1,0,0
386985515,0.0,0.0,0.24614488,0.031822823,0.0,0.0,0.0,0.0,0.0,0.0,0.0,0,0,0,0,0,0,0,3,3,0,0,3,1,0,0
387189375,0.0,0.0,0.23522381,0.040650092,0.0,0.0,0.0,0.0,0.0,0.0,0.0,0,0,0,0,0,0,0,3,3,0,0,3,1,0,0
387384414,0.0,0.0,0.22397906,0.04994387,0.0,0.0,0.0,0.0,0.0,0.0,0.0,0,0,0,0,0,0,0,3,3,0,0,3,1,0,0
387580528,0.0,0.0,0.21927722,0.047950927,0.0,0.0,0.0,0.0,0.0,0.0,0.0,0,0,0,0,0,0,0,3,3,0,0,3,1,0,0
387796356,0.0,0.0,0.18360734,0.055261724,0.0,0.0,0.0,0.0,0.0,0.0,0.0,0,0,0,0,0,0,0,3,3,0,0,3,1,0,0
388004422,0.0,0.0,0.15432136,0.06988968,0.0,0.0,0.0,0.0,0.0,0.0,0.0,0,0,0,0,0,0,0,3,3,0,0,3,1,0,0
388207916,0.0,0.0,0.13799031,0.07253256,0.0,0.0,0.0,0.0,0.0,0.0,0.0,0,0,0,0,0,0,0,3,3,0,0,3,1,0,0
388403727,0.0,0.0,0.1227514,0.0849937,0.0,0.0,0.0,0.0,0.0,0.0,0.0,0,0,0,0,0,0,0,3,3,0,0,3,1,0,0
388607564,0.0,0.0,0.121512994,0.08731783,0.0,0.0,0.0,0.0,0.0,0.0,0.0,0,0,0,0,0,0,0,3,3,0,0,3,1,0,0
388811667,0.0,0.0,0.12151899,0.08255723,0.0,0.0,0.0,0.0,0.0,0.0,0.0,0,0,0,0,0,0,0,3,3,0,0,3,1,0,0
389012589,0.0,0.0,0.121036366,0.08614961,0.0,0.0,0.0,0.0,0.0,0.0,0.0,0,0,0,0,0,0,0,3,3,0,0,3,1,0,0
389214807,0.0,0.0,0.12151066,0.08603769,0.0,0.0,0.0,0.0,0.0,0.0,0.0,0,0,0,0,0,0,0,3,3,0,0,3,1,0,0
389418761,0.0,0.0,0.121519,0.08303971,0.0,0.0,0.0,0.0,0.0,0.0,0.0,0,0,0,0,0,0,0,3,3,0,0,3,1,0,0
389622766,0.0,0.0,0.12046015,0.087089874,0.0,0.0,0.0,0.0,0.0,0.0,0.0,0,0,0,0,0,0,0,3,3,0,0,3,1,0,0
389814177,0.0,0.0,0.12129252,0.08410321,0.0,0.0,0.0,0.0,0.0,0.0,0.0,0,0,0,0,0,0,0,3,3,0,0,3,1,0,0
390025940,0.0,0.0,0.12152017,0.085344516,0.0,0.0,0.0,0.0,0.0,0.0,0.0,0,0,0,0,0,0,0,3,3,0,0,3,1,0,0
390221935,0.0,0.0,0.12151899,0.08702705,0.0,0.0,0.0,0.0,0.0,0.0,0.0,0,0,0,0,0,0,0,3,3,0,0,3,1,0,0
390441939,0.0,0.0,0.12114207,0.086355954,0.0,0.0,0.0,0.0,0.0,0.0,0.0,0,0,0,0,0,0,0,3,3,0,0,3,1,0,0
390641200,0.0,0.0,0.12147423,0.087618224,0.0,0.0,0.0,0.0,0.0,0.0,0.0,0,0,0,0,0,0,0,3,3,0,0,3,1,0,0
390845162,0.0,0.0,0.1237283,0.08642333,0.0,0.0,0.0,0.0,0.0,0.0,0.0,0,0,0,0,0,0,0,3,3,0,0,3,1,0,0
391041150,0.0,0.0,0.13203308,0.08454983,0.0,0.0,0.0,0.0,0.0,0.0,0.0,0,0,0,0,0,0,0,3,3,0,0,3,1,0,0
391237135,0.0,0.0,0.15332967,0.07476317,0.0,0.0,0.0,0.0,0.0,0.0,0.0,0,0,0,0,0,0,0,3,3,0,0,3,1,0,0
391456483,0.0,0.0,0.16239467,0.07276081,0.0,0.0,0.0,0.0,0.0,0.0,0.0,0,0,0,0,0,0,0,3,3,0,0,3,1,0,0
391660327,0.0,0.0,0.48387054,-6.764231e-05,0.0,0.0,0.0,0.0,0.0,0.0,0.0,0,0,0,0,0,0,0,3,3,0,0,3,1,0,0
391852582,0.0,0.0,0.49140367,-1.092483e-07,0.0,0.0,0.0,0.0,0.0,0.0,0.0,0,0,0,0,0,0,0,3,3,0,0,3,1,0,0
392044509,0.0,0.0,0.49250242,1.2395639e-10,0.0,0.0,0.0,0.0,0.0,0.0,0.0,0,0,0,0,0,0,0,3,3,0,0,3,1,0,0
392267932,0.0,0.0,0.4924051,9.767733e-15,0.0,0.0,0.0,0.0,0.0,0.0,0.0,0,0,0,0,0,0,0,3,3,0,0,3,1,0,0
392451612,0.0,0.0,0.49178547,1.5563783e-18,0.0,0.0,0.0,0.0,0.0,0.0,0.0,0,0,0,0,0,0,0,3,3,0,0,3,1,0,0
392675569,0.06329722,0.0,0.4921743,1.4172108e-20,0.0,0.0,0.0,0.0,0.0,0.0,0.0,0,0,0,0,0,0,0,3,3,0,0,3,1,0,0
392859595,0.14348306,0.0,0.49236163,-2.2341399e-23,0.0,0.0,0.0,0.0,0.0,0.0,0.0,0,0,0,0,0,0,0,3,3,0,0,3,1,0,0
393066762,0.17900027,0.0,0.491777,8.975652e-27,0.0,0.0,0.0,0.0,0.0,0.0,0.0,0,0,0,0,0,0,0,3,3,0,0,3,1,0,0
393282765,0.1733856,0.0,0.4924052,4.055992e-30,0.0,0.0,0.0,0.0,0.0,0.0,0.0,0,0,0,0,0,0,0,3,3,0,0,3,1,0,0
393482734,0.10657635,0.0,0.49240506,-2.2871224e-33,0.0,0.0,0.0,0.0,0.0,0.0,0.0,0,0,0,0,0,0,0,3,3,0,0,3,1,0,0
393685937,0.00026401944,0.0,0.49240506,2.788117e-37,0.0,0.0,0.0,0.0,0.0,0.0,0.0,0,0,0,0,0,0,0,3,3,0,0,3,1,0,0
393890957,-1.11801796e-07,0.0,0.49247342,7.24816e-40,0.0,0.0,0.0,0.0,0.0,0.0,0.0,0,0,0,0,0,0,0,3,3,0,0,3,1,0,0
394077933,2.1429976e-10,0.0,0.49240494,-6.21e-43,0.0,0.0,0.0,0.0,0.0,0.0,0.0,0,0,0,0,0,0,0,3,3,0,0,3,1,0,0
394294158,5.971489e-14,0.0,0.49240506,0.0,0.0,0.0,0.0,0.0,0.0,0.0,0.0,0,0,0,0,0,0,0,3,3,0,0,3,1,0,0
394497373,0.03483518,0.0,0.49240506,0.0,0.0,0.0,0.0,0.0,0.0,0.0,0.0,0,0,0,0,0,0,0,3,3,0,0,3,1,0,0
394693396,0.040840693,0.0,0.49261522,0.0,0.0,0.0,0.0,0.0,0.0,0.0,0.0,0,0,0,0,0,0,0,3,3,0,0,3,1,0,0
394897355,0.042957798,0.0,0.4924049,0.0,0.0,0.0,0.0,0.0,0.0,0.0,0.0,0,0,0,0,0,0,0,3,3,0,0,3,1,0,0
395109208,-0.00022698431,0.0,0.49240506,0.0,0.0,0.0,0.0,0.0,0.0,0.0,0.0,0,0,0,0,0,0,0,3,3,0,0,3,1,0,0
395301388,9.2577466e-08,0.0,0.49239668,0.0,0.0,0.0,0.0,0.0,0.0,0.0,0.0,0,0,0,0,0,0,0,3,3,0,0,3,1,0,0
395504339,1.5299331e-11,0.0,0.49240506,0.0,0.0,0.0,0.0,0.0,0.0,0.0,0.0,0,0,0,0,0,0,0,3,3,0,0,3,1,0,0
395720525,-2.3406378e-14,0.0,0.49240506,0.0,0.0,0.0,0.0,0.0,0.0,0.0,0.0,0,0,0,0,0,0,0,3,3,0,0,3,1,0,0
395920554,3.0544922e-18,0.0,0.4967476,0.0,0.0,0.0,0.0,0.0,0.0,0.0,0.0,0,0,0,0,0,0,0,3,3,0,0,3,1,0,0
396112715,7.242252e-21,0.0,0.53251094,0.0,0.0,0.0,0.0,0.0,0.0,0.0,0.0,0,0,0,0,0,0,0,3,3,0,0,3,1,0,0
396315614,-7.612145e-24,0.0,0.60136503,0.0,0.0,0.0,0.0,0.0,0.0,0.0,0.0,0,0,0,0,0,0,0,3,3,0,0,3,1,0,0
396515749,3.5764873e-27,0.0,0.6981901,0.0,0.0,0.0,0.0,0.0,0.0,0.0,0.0,0,0,0,0,0,0,0,3,3,0,0,3,1,0,0
396739578,1.3167927e-30,0.0,0.71481305,0.0,0.0,0.0,0.0,0.0,0.0,0.0,0.0,0,0,0,0,0,0,0,3,3,0,0,3,1,0,0
396914788,-1.6023329e-33,0.0,0.7091508,0.0,0.0,0.0,0.0,0.0,0.0,0.0,0.0,0,0,0,0,0,0,0,3,3,0,0,3,1,0,0
397138745,1.7791428e-37,0.0,0.7101274,0.0,0.0,0.0,0.0,0.0,0.0,0.0,0.0,0,0,0,0,0,0,0,3,3,0,0,3,1,0,0
397335117,2.01453e-40,0.0,0.7272386,0.0,0.0,0.0,0.0,0.0,0.0,0.0,0.0,0,0,0,0,0,0,0,3,3,0,0,3,1,0,0
397546821,-6.6e-44,0.0,0.7630663,0.0,0.0,0.0,0.0,0.0,0.0,0.0,0.0,0,0,0,0,0,0,0,3,3,0,0,3,1,0,0
397741950,0.0,0.0,0.77656645,0.0,0.0,0.0,0.0,0.0,0.0,0.0,0.0,0,0,0,0,0,0,0,3,3,0,0,3,1,0,0
398553420,0.0,0.0,0.7572247,0.0,0.0,0.0,0.0,0.0,0.0,0.0,0.0,0,0,0,0,0,0,0,3,3,0,0,3,1,0,0
398753133,0.0,0.0,0.7545867,0.0,0.0,0.0,0.0,0.0,0.0,0.0,0.0,0,0,0,0,0,0,0,3,3,0,0,3,1,0,0
398953251,0.0,0.0,0.7495201,0.0,0.0,0.0,0.0,0.0,0.0,0.0,0.0,0,0,0,0,0,0,0,3,3,0,0,3,1,0,0
399153158,0.0,0.0,0.68952614,0.0,0.0,0.0,0.0,0.0,0.0,0.0,0.0,0,0,0,0,0,0,0,3,3,0,0,3,1,0,0
399356349,0.0,0.0,0.69537807,0.0,0.0,0.0,0.0,0.0,0.0,0.0,0.0,0,0,0,0,0,0,0,3,3,0,0,3,1,0,0
399556380,0.0,0.0,0.6999898,0.0,0.0,0.0,0.0,0.0,0.0,0.0,0.0,0,0,0,0,0,0,0,3,3,0,0,3,1,0,0
399764338,0.0,0.0,0.6682787,0.0,0.0,0.0,0.0,0.0,0.0,0.0,0.0,0,0,0,0,0,0,0,3,3,0,0,3,1,0,0
399968625,0.0,0.0,0.5408706,0.0,0.0,0.0,0.0,0.0,0.0,0.0,0.0,0,0,0,0,0,0,0,3,3,0,0,3,1,0,0
400167522,0.0,0.0,0.512094,0.0,0.0,0.0,0.0,0.0,0.0,0.0,0.0,0,0,0,0,0,0,0,3,3,0,0,3,1,0,0
400367594,0.0,0.0,0.49599162,0.0,0.0,0.0,0.0,0.0,0.0,0.0,0.0,0,0,0,0,0,0,0,3,3,0,0,3,1,0,0
400583553,0.0,0.0,0.49493617,0.0,0.0,0.0,0.0,0.0,0.0,0.0,0.0,0,0,0,0,0,0,0,3,3,0,0,3,1,0,0
400779552,0.0,0.0,0.49335366,0.0,0.0,0.0,0.0,0.0,0.0,0.0,0.0,0,0,0,0,0,0,0,3,3,0,0,3,1,0,0
400978938,0.0,0.0,0.49219045,0.0,0.0,0.0,0.0,0.0,0.0,0.0,0.0,0,0,0,0,0,0,0,3,3,0,0,3,1,0,0
401190765,0.0,0.0,0.4290647,0.0,0.0,0.0,0.0,0.0,0.0,0.0,0.0,0,0,0,0,0,0,0,3,3,0,0,3,1,0,0
401382818,0.0,0.0,0.40975583,0.0,0.0,0.0,0.0,0.0,0.0,0.0,0.0,0,0,0,0,0,0,0,3,3,0,0,3,1,0,0
401586849,0.0,0.0,0.37712756,0.0,0.0,0.0,0.0,0.0,0.0,0.0,0.0,0,0,0,0,0,0,0,3,3,0,0,3,1,0,0
401786077,0.0,0.0,0.31951144,0.0,0.0,0.0,0.0,0.0,0.0,0.0,0.0,0,0,0,0,0,0,0,3,3,0,0,3,1,0,0
402001996,0.0,0.0,0.21497396,0.0,0.0,0.0,0.0,0.0,0.0,0.0,0.0,0,0,0,0,0,0,0,3,3,0,0,3,1,0,0
402202189,0.0,0.0,0.19060619,0.0,0.0,0.0,0.0,0.0,0.0,0.0,0.0,0,0,0,0,0,0,0,3,3,0,0,3,1,0,0
402405237,0.0,0.0,0.15249056,0.0,0.0,0.0,0.0,0.0,0.0,0.0,0.0,0,0,0,0,0,0,0,3,3,0,0,3,1,0,0
402609161,0.0,0.0,0.10965835,0.0,0.0,0.0,0.0,0.0,0.0,0.0,0.0,0,0,0,0,0,0,0,3,3,0,0,3,1,0,0
402805202,0.0,0.0,0.08096679,0.0,0.0,0.0,0.0,0.0,0.0,0.0,0.0,0,0,0,0,0,0,0,3,3,0,0,3,1,0,0
403017163,0.0,0.0,0.04003965,0.0,0.0,0.0,0.0,0.0,0.0,0.0,0.0,0,0,0,0,0,0,0,3,3,0,0,3,1,0,0
403197387,0.0,0.0,0.022376383,0.0,0.0,0.0,0.0,0.0,0.0,0.0,0.0,0,0,0,0,0,0,0,3,3,0,0,3,1,0,0
403420593,0.0,0.0,0.022890696,0.0,0.0,0.0,0.0,0.0,0.0,0.0,0.0,0,0,0,0,0,0,0,3,3,0,0,3,1,0,0
403628398,0.0,0.0,0.0012426269,0.0,0.0,0.0,0.0,0.0,0.0,0.0,0.0,0,0,0,0,0,0,0,3,3,0,0,3,1,0,0
403808339,0.0,0.0,0.0,0.0,0.0,0.0,0.0,0.0,0.0,0.0,0.0,0,0,0,0,0,0,0,3,3,0,0,3,1,0,0
404028337,0.0,0.0,2.5688662e-10,0.0,0.0,0.0,0.0,0.0,0.0,0.0,0.0,0,0,0,0,0,0,0,3,3,0,0,3,1,0,0
404215728,0.0,0.0,1.5562619e-13,0.0,0.0,0.0,0.0,0.0,0.0,0.0,0.0,0,0,0,0,0,0,0,3,3,0,0,3,1,0,0
404435556,0.0,0.0,0.0,0.0,0.0,0.0,0.0,0.0,0.0,0.0,0.0,0,0,0,0,0,0,0,3,3,0,0,3,1,0,0
404635533,0.0,0.0,0.0,0.0,0.0,0.0,0.0,0.0,0.0,0.0,0.0,0,0,0,0,0,0,0,3,3,0,0,3,1,0,0
404834166,0.0,0.0,3.820116e-23,0.0,0.0,0.0,0.0,0.0,0.0,0.0,0.0,0,0,0,0,0,0,0,3,3,0,0,3,1,0,0
405030763,0.0,0.0,0.0,0.0,0.0,0.0,0.0,0.0,0.0,0.0,0.0,0,0,0,0,0,0,0,3,3,0,0,3,1,0,0
405246767,0.0,0.0,0.0,0.0,0.0,0.0,0.0,0.0,0.0,0.0,0.0,0,0,0,0,0,0,0,3,3,0,0,3,1,0,0
405446773,0.0,0.0,5.833107e-33,0.0,0.0,0.0,0.0,0.0,0.0,0.0,0.0,0,0,0,0,0,0,0,3,3,0,0,3,1,0,0
405641943,0.0,0.0,0.0,0.0,0.0,0.0,0.0,0.0,0.0,0.0,0.0,0,0,0,0,0,0,0,3,3,0,0,3,1,0,0
405834153,0.0,0.0,1.40065e-40,0.0,0.0,0.0,0.0,0.0,0.0,0.0,0.0,0,0,0,0,0,0,0,3,3,0,0,3,1,0,0
406046144,0.0,0.0,6.77e-43,0.0,0.0,0.0,0.0,0.0,0.0,0.0,0.0,0,0,0,0,0,0,0,3,3,0,0,3,1,0,0
406257940,0.0,0.0,0.0,0.0,0.0,0.0,0.0,0.0,0.0,0.0,0.0,0,0,0,0,0,0,0,3,3,0,0,3,1,0,0
406462759,0.0,0.0,0.0,0.0,0.0,0.0,0.0,0.0,0.0,0.0,0.0,0,0,0,0,0,0,0,3,3,0,0,3,1,0,0
406657202,0.0,0.0,0.0,0.0,0.0,0.0,0.0,0.0,0.0,0.0,0.0,0,0,0,0,0,0,0,3,3,0,0,3,1,0,0
406861141,0.0,0.0,0.0044452227,0.0,0.0,0.0,0.0,0.0,0.0,0.0,0.0,0,0,0,0,0,0,0,3,3,0,0,3,1,0,0
407061281,0.0,0.0,0.4909226,0.0,0.0,0.0,0.0,0.0,0.0,0.0,0.0,0,0,0,0,0,0,0,3,3,0,0,3,1,0,0
407276623,0.0,0.0,0.49243203,0.0,0.0,0.0,0.0,0.0,0.0,0.0,0.0,0,0,0,0,0,0,0,3,3,0,0,3,1,0,0
407460870,0.0,0.0,0.49367192,0.0,0.0,0.0,0.0,0.0,0.0,0.0,0.0,0,0,0,0,0,0,0,3,3,0,0,3,1,0,0
407660550,0.0,0.0,0.4936709,0.0,0.0,0.0,0.0,0.0,0.0,0.0,0.0,0,0,0,0,0,0,0,3,3,0,0,3,1,0,0
407884371,0.0,0.0,0.49305132,0.0,0.0,0.0,0.0,0.0,0.0,0.0,0.0,0,0,0,0,0,0,0,3,3,0,0,3,1,0,0
408067535,0.0,0.0,0.49374226,0.0,0.0,0.0,0.0,0.0,0.0,0.0,0.0,0,0,0,0,0,0,0,3,3,0,0,3,1,0,0
408287915,0.0,0.0,0.493628,0.0,0.0,0.0,0.0,0.0,0.0,0.0,0.0,0,0,0,0,0,0,0,3,3,0,0,3,1,0,0
408487591,0.0,0.0,0.49367082,0.0,0.0,0.0,0.0,0.0,0.0,0.0,0.0,0,0,0,0,0,0,0,3,3,0,0,3,1,0,0
408679572,0.0,0.0,0.49496132,0.0,0.0,0.0,0.0,0.0,0.0,0.0,0.0,0,0,0,0,0,0,0,3,3,0,0,3,1,0,0
408878763,0.0,0.0,0.49484244,0.0,0.0,0.0,0.0,0.0,0.0,0.0,0.0,0,0,0,0,0,0,0,3,3,0,0,3,1,0,0
409079151,0.0,0.0,0.4979525,0.0,0.0,0.0,0.0,0.0,0.0,0.0,0.0,0,0,0,0,0,0,0,3,3,0,0,3,1,0,0
409295118,0.0,0.0,0.73746574,0.0,0.0,0.0,0.0,0.0,0.0,0.0,0.0,0,0,0,0,0,0,0,3,3,0,0,3,1,0,0
409486796,0.0,0.0,0.8105219,0.0,0.0,0.0,0.0,0.0,0.0,0.0,0.0,0,0,0,0,0,0,0,3,3,0,0,3,1,0,0
409714157,0.0,0.0,0.85657686,0.0,0.0,0.0,0.0,0.0,0.0,0.0,0.0,0,0,0,0,0,0,0,3,3,0,0,3,1,0,0
409909968,0.0,0.0,0.8544394,0.0,0.0,0.0,0.0,0.0,0.0,0.0,0.0,0,0,0,0,0,0,0,3,3,0,0,3,1,0,0
410109990,0.0,0.0,0.858262,0.0,0.0,0.0,0.0,0.0,0.0,0.0,0.0,0,0,0,0,0,0,0,3,3,0,0,3,1,0,0
410306168,0.0,0.0,0.85450226,0.0,0.0,0.0,0.0,0.0,0.0,0.0,0.0,0,0,0,0,0,0,0,3,3,0,0,3,1,0,0
410506773,0.0,0.0,0.85321754,0.0,0.0,0.0,0.0,0.0,0.0,0.0,0.0,0,0,0,0,0,0,0,3,3,0,0,3,1,0,0
410709367,0.0,0.0,0.8543778,0.0,0.0,0.0,0.0,0.0,0.0,0.0,0.0,0,0,0,0,0,0,0,3,3,0,0,3,1,0,0
410905516,0.0,0.0,0.8525375,0.0,0.0,0.0,0.0,0.0,0.0,0.0,0.0,0,0,0,0,0,0,0,3,3,0,0,3,1,0,0
411117143,0.0,0.0,0.8491495,0.0,0.0,0.0,0.0,0.0,0.0,0.0,0.0,0,0,0,0,0,0,0,3,3,0,0,3,1,0,0
411320528,0.0,0.0,0.84674764,0.0,0.0,0.0,0.0,0.0,0.0,0.0,0.0,0,0,0,0,0,0,0,3,3,0,0,3,1,0,0
411520550,0.0,0.0,0.8398828,0.0,0.0,0.0,0.0,0.0,0.0,0.0,0.0,0,0,0,0,0,0,0,3,3,0,0,3,1,0,0
411736560,0.0,0.0,0.7931481,0.0,0.0,0.0,0.0,0.0,0.0,0.0,0.0,0,0,0,0,0,0,0,3,3,0,0,3,1,0,0
411924343,0.0,0.0,0.8073257,0.0,0.0,0.0,0.0,0.0,0.0,0.0,0.0,0,0,0,0,0,0,0,3,3,0,0,3,1,0,0
412127842,0.0,0.0,0.774611,0.0,0.0,0.0,0.0,0.0,0.0,0.0,0.0,0,0,0,0,0,0,0,3,3,0,0,3,1,0,0
412323584,0.0,0.0,0.4956463,0.0,0.0,0.0,0.0,0.0,0.0,0.0,0.0,0,0,0,0,0,0,0,3,3,0,0,3,1,0,0
412527604,0.0,0.0,0.4936738,0.0,0.0,0.0,0.0,0.0,0.0,0.0,0.0,0,0,0,0,0,0,0,3,3,0,0,3,1,0,0
412747579,0.0,0.0,0.49371183,0.0,0.0,0.0,0.0,0.0,0.0,0.0,0.0,0,0,0,0,0,0,0,3,3,0,0,3,1,0,0
412954995,0.0,0.0,0.49432477,0.0,0.0,0.0,0.0,0.0,0.0,0.0,0.0,0,0,0,0,0,0,0,3,3,0,0,3,1,0,0
413150989,0.0,0.0,0.4936403,0.0,0.0,0.0,0.0,0.0,0.0,0.0,0.0,0,0,0,0,0,0,0,3,3,0,0,3,1,0,0
413354759,0.0,0.0,0.49330443,0.0,0.0,0.0,0.0,0.0,0.0,0.0,0.0,0,0,0,0,0,0,0,3,3,0,0,3,1,0,0
413557185,0.0,0.0,0.49370807,0.0,0.0,0.0,0.0,0.0,0.0,0.0,0.0,0,0,0,0,0,0,0,3,3,0,0,3,1,0,0
413750178,0.0,0.0,0.49411005,0.0,0.0,0.0,0.0,0.0,0.0,0.0,0.0,0,0,0,0,0,0,0,3,3,0,0,3,1,0,0
413969940,0.0,0.0,0.4923097,0.0,0.0,0.0,0.0,0.0,0.0,0.0,0.0,0,0,0,0,0,0,0,3,3,0,0,3,1,0,0
414157967,0.0,0.0,0.45798072,0.0,0.0,0.0,0.0,0.0,0.0,0.0,0.0,0,0,0,0,0,0,0,3,3,0,0,3,1,0,0
414354357,0.0,0.0,0.31101444,0.0,0.0,0.0,0.0,0.0,0.0,0.0,0.0,0,0,0,0,0,0,0,3,3,0,0,3,1,0,0
414553169,0.0,0.0,0.26303655,0.0,0.0,0.0,0.0,0.0,0.0,0.0,0.0,0,0,0,0,0,0,0,3,3,0,0,3,1,0,0
414761356,0.0,0.0,0.09740417,0.0,0.0,0.0,0.0,0.0,0.0,0.0,0.0,0,0,0,0,0,0,0,3,3,0,0,3,1,0,0
414961358,0.0,0.0,2.9531395e-05,0.0,0.0,0.0,0.0,0.0,0.0,0.0,0.0,0,0,0,0,0,0,0,3,3,0,0,3,1,0,0
415181517,0.0,0.0,2.7675211e-08,0.0,0.0,0.0,0.0,0.0,0.0,0.0,0.0,0,0,0,0,0,0,0,3,3,0,0,3,1,0,0
415376391,0.0,0.0,0.0,0.0,0.0,0.0,0.0,0.0,0.0,0.0,0.0,0,0,0,0,0,0,0,3,3,0,0,3,1,0,0
415584366,0.0,0.0,0.0,0.0,0.0,0.0,0.0,0.0,0.0,0.0,0.0,0,0,0,0,0,0,0,3,3,0,0,3,1,0,0
415776566,0.0,0.0,6.566473e-18,0.0,0.0,0.0,0.0,0.0,0.0,0.0,0.0,0,0,0,0,0,0,0,3,3,0,0,3,1,0,0
415975538,0.0,0.0,0.0,0.0,0.0,0.0,0.0,0.0,0.0,0.0,0.0,0,0,0,0,0,0,0,3,3,0,0,3,1,0,0
416179601,0.0,0.0,1.3774521e-24,0.0,0.0,0.0,0.0,0.0,0.0,0.0,0.0,0,0,0,0,0,0,0,3,3,0,0,3,1,0,0
416391597,0.0,0.0,9.323514e-28,0.0,0.0,0.0,0.0,0.0,0.0,0.0,0.0,0,0,0,0,0,0,0,3,3,0,0,3,1,0,0
416583936,0.0,0.0,0.0,0.0,0.0,0.0,0.0,0.0,0.0,0.0,0.0,0,0,0,0,0,0,0,3,3,0,0,3,1,0,0
416802758,0.0,0.0,0.0,0.0,0.0,0.0,0.0,0.0,0.0,0.0,0.0,0,0,0,0,0,0,0,3,3,0,0,3,1,0,0
417002724,0.0,0.0,1.0125666e-37,0.0,0.0,0.0,0.0,0.0,0.0,0.0,0.0,0,0,0,0,0,0,0,3,3,0,0,3,1,0,0
417198786,0.0,0.0,0.0,0.0,0.0,0.0,0.0,0.0,0.0,0.0,0.0,0,0,0,0,0,0,0,3,3,0,0,3,1,0,0
417398789,0.0,0.0,0.0,0.0,0.0,0.0,0.0,0.0,0.0,0.0,0.0,0,0,0,0,0,0,0,3,3,0,0,3,1,0,0
417614729,0.0,0.0,0.0,0.0,0.0,0.0,0.0,0.0,0.0,0.0,0.0,0,0,0,0,0,0,0,3,3,0,0,3,1,0,0
417810176,0.0,0.0,0.0,0.0,0.0,0.0,0.0,0.0,0.0,0.0,0.0,0,0,0,0,0,0,0,3,3,0,0,3,1,0,0
418010005,0.0,0.0,0.0,0.0,0.0,0.0,0.0,0.0,0.0,0.0,0.0,0,0,0,0,0,0,0,3,3,0,0,3,1,0,0
418213960,0.0,0.0,0.0,0.0,0.0,0.0,0.0,0.0,0.0,0.0,0.0,0,0,0,0,0,0,0,3,3,0,0,3,1,0,0
418409151,0.0,0.0,0.0,0.0,0.0,0.0,0.0,0.0,0.0,0.0,0.0,0,0,0,0,0,0,0,3,3,0,0,3,1,0,0
418625325,0.0,0.0,0.0,0.0,0.0,0.0,0.0,0.0,0.0,0.0,0.0,0,0,0,0,0,0,0,3,3,0,0,3,1,0,0
418809136,0.0,0.0,0.0,0.0,0.0,0.0,0.0,0.0,0.0,0.0,0.0,0,0,0,0,0,0,0,3,3,0,0,3,1,0,0
419029516,0.0,0.0,0.0,0.0,0.0,0.0,0.0,0.0,0.0,0.0,0.0,0,0,0,0,0,0,0,3,3,0,0,3,1,0,0
419230747,0.0,0.0,0.0,0.0,0.0,0.0,0.0,0.0,0.0,0.0,0.0,0,0,0,0,0,0,0,3,3,0,0,3,1,0,0
419432332,0.0,0.0,0.0,0.0,0.0,0.0,0.0,0.0,0.0,0.0,0.0,0,0,0,0,0,0,0,3,3,0,0,3,1,0,0
419632365,0.0,0.0,0.0,0.0,0.0,0.0,0.0,0.0,0.0,0.0,0.0,0,0,0,0,0,0,0,3,3,0,0,3,1,0,0
419828392,0.0,0.0,0.0,0.0,0.0,0.0,0.0,0.0,0.0,0.0,0.0,0,0,0,0,0,0,0,3,3,0,0,3,1,0,0
420035595,0.0,0.0,0.0,0.0,0.0,0.0,0.0,0.0,0.0,0.0,0.0,0,0,0,0,0,0,0,3,3,0,0,3,1,0,0
420231753,0.0,0.0,0.0,0.0,0.0,0.0,0.0,0.0,0.0,0.0,0.0,0,0,0,0,0,0,0,3,3,0,0,3,1,0,0
420443565,0.0,0.0,0.5169624,0.0,0.0,0.0,0.0,0.0,0.0,0.0,0.0,0,0,0,0,0,0,0,3,3,0,0,3,1,0,0
420643920,0.0,0.0,0.49365035,0.0,0.0,0.0,0.0,0.0,0.0,0.0,0.0,0,0,0,0,0,0,0,3,3,0,0,3,1,0,0
420854781,0.0,0.0,0.49367088,0.0,0.0,0.0,0.0,0.0,0.0,0.0,0.0,0,0,0,0,0,0,0,3,3,0,0,3,1,0,0
421054857,0.0,0.0,0.4934436,0.0,0.0,0.0,0.0,0.0,0.0,0.0,0.0,0,0,0,0,0,0,0,3,3,0,0,3,1,0,0
421258737,0.0,0.0,0.49455243,0.0,0.0,0.0,0.0,0.0,0.0,0.0,0.0,0,0,0,0,0,0,0,3,3,0,0,3,1,0,0
421458974,0.0,0.0,0.49493673,0.0,0.0,0.0,0.0,0.0,0.0,0.0,0.0,0,0,0,0,0,0,0,3,3,0,0,3,1,0,0
421657982,0.0,0.0,0.5676848,0.0,0.0,0.0,0.0,0.0,0.0,0.0,0.0,0,0,0,0,0,0,0,3,3,0,0,3,1,0,0
421861963,0.0,0.0,0.78782856,0.0,0.0,0.0,0.0,0.0,0.0,0.0,0.0,0,0,0,0,0,0,0,3,3,0,0,3,1,0,0
422057985,0.0,0.0,0.8113926,0.0,0.0,0.0,0.0,0.0,0.0,0.0,0.0,0,0,0,0,0,0,0,3,3,0,0,3,1,0,0
422257954,0.0,0.0,0.81268215,0.0,0.0,0.0,0.0,0.0,0.0,0.0,0.0,0,0,0,0,0,0,0,3,3,0,0,3,1,0,0
422473219,0.0,0.0,0.8140822,0.0,0.0,0.0,0.0,0.0,0.0,0.0,0.0,0,0,0,0,0,0,0,3,3,0,0,3,1,0,0
422677138,0.0,0.0,0.8189808,0.0,0.0,0.0,0.0,0.0,0.0,0.0,0.0,0,0,0,0,0,0,0,3,3,0,0,3,1,0,0
422869396,0.0,0.0,0.8097725,0.0,0.0,0.0,0.0,0.0,0.0,0.0,0.0,0,0,0,0,0,0,0,3,3,0,0,3,1,0,0
423065205,0.0,0.0,0.81018865,0.0,0.0,0.0,0.0,0.0,0.0,0.0,0.0,0,0,0,0,0,0,0,3,3,0,0,3,1,0,0
423692547,0.0,0.0,0.8172481,0.0,0.0,0.0,0.0,0.0,0.0,0.0,0.0,0,0,0,0,0,0,0,3,3,0,0,3,1,0,0
424503765,0.0,0.0,0.80506384,0.0,0.0,0.0,0.0,0.0,0.0,0.0,0.0,0,0,0,0,0,0,0,3,3,0,0,3,1,0,0
424683741,0.0,0.0,0.80374295,0.0,0.0,0.0,0.0,0.0,0.0,0.0,0.0,0,0,0,0,0,0,0,3,3,0,0,3,1,0,0
424906770,0.0,0.0,0.7969194,0.0,0.0,0.0,0.0,0.0,0.0,0.0,0.0,0,0,0,0,0,0,0,3,3,0,0,3,1,0,0
425103117,0.0,0.0,0.77893937,0.0,0.0,0.0,0.0,0.0,0.0,0.0,0.0,0,0,0,0,0,0,0,3,3,0,0,3,1,0,0
425306760,0.0,0.0,0.72043985,0.0,0.0,0.0,0.0,0.0,0.0,0.0,0.0,0,0,0,0,0,0,0,3,3,0,0,3,1,0,0
425506929,0.0,0.0,0.75703686,0.0,0.0,0.0,0.0,0.0,0.0,0.0,0.0,0,0,0,0,0,0,0,3,3,0,0,3,1,0,0
425705941,0.0,0.0,0.61969817,0.0,0.0,0.0,0.0,0.0,0.0,0.0,0.0,0,0,0,0,0,0,0,3,3,0,0,3,1,0,0
425906148,0.0,0.0,0.49373707,0.0,0.0,0.0,0.0,0.0,0.0,0.0,0.0,0,0,0,0,0,0,0,3,3,0,0,3,1,0,0
426105972,0.0,0.0,0.49366367,0.0,0.0,0.0,0.0,0.0,0.0,0.0,0.0,0,0,0,0,0,0,0,3,3,0,0,3,1,0,0
426313365,0.0,0.0,0.4936709,0.0,0.0,0.0,0.0,0.0,0.0,0.0,0.0,0,0,0,0,0,0,0,3,3,0,0,3,1,0,0
426517186,0.0,0.0,0.49419385,0.0,0.0,0.0,0.0,0.0,0.0,0.0,0.0,0,0,0,0,0,0,0,3,3,0,0,3,1,0,0
426725164,0.0,0.0,0.49366984,0.0,0.0,0.0,0.0,0.0,0.0,0.0,0.0,0,0,0,0,0,0,0,3,3,0,0,3,1,0,0
426929124,0.0,0.0,0.49240628,0.0,0.0,0.0,0.0,0.0,0.0,0.0,0.0,0,0,0,0,0,0,0,3,3,0,0,3,1,0,0
427128386,0.0,0.0,0.49240506,0.0,0.0,0.0,0.0,0.0,0.0,0.0,0.0,0,0,0,0,0,0,0,3,3,0,0,3,1,0,0
427328760,0.0,0.0,0.49240506,0.0,0.0,0.0,0.0,0.0,0.0,0.0,0.0,0,0,0,0,0,0,0,3,3,0,0,3,1,0,0
427532565,0.0,0.0,0.36868176,0.0,0.0,0.0,0.0,0.0,0.0,0.0,0.0,0,0,0,0,0,0,0,3,3,0,0,3,1,0,0
427732346,0.0,0.0,0.21150778,0.0,0.0,0.0,0.0,0.0,0.0,0.0,0.0,0,0,0,0,0,0,0,3,3,0,0,3,1,0,0
427935605,-0.046421055,0.0,0.123797625,0.0,0.0,0.0,0.0,0.0,0.0,0.0,0.0,0,0,0,0,0,0,0,3,3,0,0,3,1,0,0
428135529,0.003301364,0.6643087,0.1306615,0.0,0.0,0.0,0.0,0.0,0.0,0.0,0.0,0,0,0,0,0,0,0,3,3,0,0,3,1,0,0
428347576,6.065308e-07,0.74982196,0.15467145,0.0,0.0,0.0,0.0,0.0,0.0,0.0,0.0,0,0,0,0,0,0,0,3,3,0,0,3,1,0,0
428539529,-6.382131e-10,-0.02250726,0.15619221,0.0,0.0,0.0,0.0,0.0,0.0,0.0,0.0,0,0,0,0,0,0,0,3,3,0,0,3,1,0,0
428739735,3.001414e-13,1.0919929e-05,0.15696205,0.0,0.0,0.0,0.0,0.0,0.0,0.0,0.0,0,0,0,0,0,0,0,3,3,0,0,3,1,0,0
428958799,1.1036612e-16,3.8500456e-09,0.15519987,0.0,0.0,0.0,0.0,0.0,0.0,0.0,0.0,0,0,0,0,0,0,0,3,3,0,0,3,1,0,0
429138933,-1.3424597e-19,-4.62103e-12,0.12092118,0.0,0.0,0.0,0.0,0.0,0.0,0.0,0.0,0,0,0,0,0,0,0,3,3,0,0,3,1,0,0
429366731,1.4961967e-23,5.8126207e-16,0.11872533,0.0,0.0,0.0,0.0,0.0,0.0,0.0,0.0,0,0,0,0,0,0,0,3,3,0,0,3,1,0,0
429550987,-4.2335505e-26,-1.5627036e-18,0.08230474,0.0,0.0,0.0,0.0,0.0,0.0,0.0,0.0,0,0,0,0,0,0,0,3,3,0,0,3,1,0,0
429769977,-2.1048827e-29,-7.3932907e-22,0.05065517,0.0,0.0,0.0,0.0,0.0,0.0,0.0,0.0,0,0,0,0,0,0,0,3,3,0,0,3,1,0,0
429969941,1.1227499e-32,4.0580353e-25,0.005805334,0.0,0.0,0.0,0.0,0.0,0.0,0.0,0.0,0,0,0,0,0,0,0,3,3,0,0,3,1,0,0
430170344,-8.870227e-37,-4.11412e-29,0.0,0.0,0.0,0.0,0.0,0.0,0.0,0.0,0.0,0,0,0,0,0,0,0,3,3,0,0,3,1,0,0
430369132,-3.978405e-39,-1.3587075e-31,0.0024930418,0.0,0.0,0.0,0.0,0.0,0.0,0.0,0.0,0,0,0,0,0,0,0,3,3,0,0,3,1,0,0
430577146,3.847e-42,1.3596846e-34,0.002524412,0.0,0.0,0.0,0.0,0.0,0.0,0.0,0.0,0,0,0,0,0,0,0,3,3,0,0,3,1,0,0
430773134,-1e-45,-6.112811e-38,0.0030546174,0.0,0.0,0.0,0.0,0.0,0.0,0.0,0.0,0,0,0,0,0,0,0,3,3,0,0,3,1,0,0
430977215,0.0,-4.215e-42,0.057679866,0.0,0.0,0.0,0.0,0.0,0.0,0.0,0.0,0,0,0,0,0,0,0,3,3,0,0,3,1,0,0
431177543,0.0,2.8e-44,0.05673393,0.0,0.0,0.0,0.0,0.0,0.0,0.0,0.0,0,0,0,0,0,0,0,3,3,0,0,3,1,0,0
431380547,0.0,0.0,0.05722404,0.0,0.0,0.0,0.0,0.0,0.0,0.0,0.0,0,0,0,0,0,0,0,3,3,0,0,3,1,0,0
431580324,0.0,-0.04340027,0.09025949,0.0,0.0,0.0,0.0,0.0,0.0,0.0,0.0,0,0,0,0,0,0,0,3,3,0,0,3,1,0,0
431800366,0.0,-0.0527309,0.093724735,0.0,0.0,0.0,0.0,0.0,0.0,0.0,0.0,0,0,0,0,0,0,0,3,3,0,0,3,1,0,0
431995545,0.0,-0.025581865,0.10241246,0.0,0.0,0.0,0.0,0.0,0.0,0.0,0.0,0,0,0,0,0,0,0,3,3,0,0,3,1,0,0
432187572,0.0,-0.0062401374,0.12206389,0.0,0.0,0.0,0.0,0.0,0.0,0.0,0.0,0,0,0,0,0,0,0,3,3,0,0,3,1,0,0
432391561,0.0,3.0826422e-07,0.12755509,0.0,0.0,0.0,0.0,0.0,0.0,0.0,0.0,0,0,0,0,0,0,0,3,3,0,0,3,1,0,0
432591600,0.0,-4.582103e-09,0.13764334,0.0,0.0,0.0,0.0,0.0,0.0,0.0,0.0,0,0,0,0,0,0,0,3,3,0,0,3,1,0,0
432794377,0.0,3.867638e-12,0.121679135,0.0,0.0,0.0,0.0,0.0,0.0,0.0,0.0,0,0,0,0,0,0,0,3,3,0,0,3,1,0,0
433014742,0.0,5.7705655e-16,0.11630457,0.0,0.0,0.0,0.0,0.0,0.0,0.0,0.0,0,0,0,0,0,0,0,3,3,0,0,3,1,0,0
433214762,0.0,-7.1706726e-19,0.11379228,0.0,0.0,0.0,0.0,0.0,0.0,0.0,0.0,0,0,0,0,0,0,0,3,3,0,0,3,1,0,0
433414732,0.0,3.8142157e-22,0.08976536,0.0,0.0,0.0,0.0,0.0,0.0,0.0,0.0,0,0,0,0,0,0,0,3,3,0,0,3,1,0,0
433609983,0.0,-2.9289675e-26,0.08135851,0.0,0.0,0.0,0.0,0.0,0.0,0.0,0.0,0,0,0,0,0,0,0,3,3,0,0,3,1,0,0
433825962,0.0,-8.482804e-29,0.04921507,0.0,0.0,0.0,0.0,0.0,0.0,0.0,0.0,0,0,0,0,0,0,0,3,3,0,0,3,1,0,0
434018330,0.0,2.3880995e-32,0.038416777,0.0,0.0,0.0,0.0,0.0,0.0,0.0,0.0,0,0,0,0,0,0,0,3,3,0,0,3,1,0,0
434209970,0.0,1.5068624e-35,0.033251774,0.0,0.0,0.0,0.0,0.0,0.0,0.0,0.0,0,0,0,0,0,0,0,3,3,0,0,3,1,0,0
434433147,0.0,-7.436097e-39,0.033688184,0.0,0.0,0.0,0.0,0.0,0.0,0.0,0.0,0,0,0,0,0,0,0,3,3,0,0,3,1,0,0
434629570,0.0,-5.75e-43,0.03581821,0.0,0.0,0.0,0.0,0.0,0.0,0.0,0.0,0,0,0,0,0,0,0,3,3,0,0,3,1,0,0
434837355,0.0,4e-45,0.04838837,0.0,0.0,0.0,0.0,0.0,0.0,0.0,0.0,0,0,0,0,0,0,0,3,3,0,0,3,1,0,0
435025518,0.0,0.0,0.054900005,0.0,0.0,0.0,0.0,0.0,0.0,0.0,0.0,0,0,0,0,0,0,0,3,3,0,0,3,1,0,0
435228328,0.0,0.0,0.18279406,0.0,0.0,0.0,0.0,0.0,0.0,0.0,0.0,0,0,0,0,0,0,0,3,3,0,0,3,1,0,0
435432595,0.0,0.0,0.24438015,0.0,0.0,0.0,0.0,0.0,0.0,0.0,0.0,0,0,0,0,0,0,0,3,3,0,0,3,1,0,0
435632326,0.0,0.0,0.4775321,0.0,0.0,0.0,0.0,0.0,0.0,0.0,0.0,0,0,0,0,0,0,0,3,3,0,0,3,1,0,0
435828547,0.0,0.0,0.49157622,0.0,0.0,0.0,0.0,0.0,0.0,0.0,0.0,0,0,0,0,0,0,0,3,3,0,0,3,1,0,0
436047532,0.0,0.0,0.49370706,0.0,0.0,0.0,0.0,0.0,0.0,0.0,0.0,0,0,0,0,0,0,0,3,3,0,0,3,1,0,0
436243556,0.0,0.0,0.4948945,0.0,0.0,0.0,0.0,0.0,0.0,0.0,0.0,0,0,0,0,0,0,0,3,3,0,0,3,1,0,0
436443575,0.0,0.0,0.49430865,0.0,0.0,0.0,0.0,0.0,0.0,0.0,0.0,0,0,0,0,0,0,0,3,3,0,0,3,1,0,0
436643918,0.0,0.0,0.49699524,0.0,0.0,0.0,0.0,0.0,0.0,0.0,0.0,0,0,0,0,0,0,0,3,3,0,0,3,1,0,0
436847570,0.0,0.0,0.5112315,0.0,0.0,0.0,0.0,0.0,0.0,0.0,0.0,0,0,0,0,0,0,0,3,3,0,0,3,1,0,0
437046767,0.0,0.0,0.541081,0.0,0.0,0.0,0.0,0.0,0.0,0.0,0.0,0,0,0,0,0,0,0,3,3,0,0,3,1,0,0
437266763,0.0,0.0,0.54950696,0.0,0.0,0.0,0.0,0.0,0.0,0.0,0.0,0,0,0,0,0,0,0,3,3,0,0,3,1,0,0
437454763,0.0,0.0,0.57944244,0.0,0.0,0.0,0.0,0.0,0.0,0.0,0.0,0,0,0,0,0,0,0,3,3,0,0,3,1,0,0
437657958,0.0,0.0,0.59726673,0.0,0.0,0.0,0.0,0.0,0.0,0.0,0.0,0,0,0,0,0,0,0,3,3,0,0,3,1,0,0
437869969,0.0,0.0,0.62890095,0.0,0.0,0.0,0.0,0.0,0.0,0.0,0.0,0,0,0,0,0,0,0,3,3,0,0,3,1,0,0
438070192,0.0,0.0,0.6291113,0.0,0.0,0.0,0.0,0.0,0.0,0.0,0.0,0,0,0,0,0,0,0,3,3,0,0,3,1,0,0
438265975,0.0,0.0,0.62700236,0.0,0.0,0.0,0.0,0.0,0.0,0.0,0.0,0,0,0,0,0,0,0,3,3,0,0,3,1,0,0
438477523,0.018960321,-0.0027324352,0.52177435,0.0,0.0,0.0,0.0,0.0,0.0,0.0,0.0,0,0,0,0,0,0,0,3,3,0,0,3,1,0,0
438673192,0.00012892025,-0.0657849,0.49397454,0.0,0.0,0.0,0.0,0.0,0.0,0.0,0.0,0,0,0,0,0,0,0,3,3,0,0,3,1,0,0
438869291,-9.719181e-08,-0.09064933,0.49493745,0.0,0.0,0.0,0.0,0.0,0.0,0.0,0.0,0,0,0,0,0,0,0,3,3,0,0,3,1,0,0
439093386,-1.7697519e-11,-0.119385876,0.49496728,0.0,0.0,0.0,0.0,0.0,0.0,0.0,0.0,0,0,0,0,0,0,0,3,3,0,0,3,1,0,0
439276388,0.0017801799,-0.10814061,0.49405435,0.0,0.0,0.0,0.0,0.0,0.0,0.0,0.0,0,0,0,0,0,0,0,3,3,0,0,3,1,0,0
439484714,0.10115785,-0.016344279,0.49493787,0.0,0.0,0.0,0.0,0.0,0.0,0.0,0.0,0,0,0,0,0,0,0,3,3,0,0,3,1,0,0
439696364,0.08704957,-0.019128956,0.49493673,0.0,0.0,0.0,0.0,0.0,0.0,0.0,0.0,0,0,0,0,0,0,0,3,3,0,0,3,1,0,0
439888389,0.040113945,-0.08571161,0.49408746,0.0,0.0,0.0,0.0,0.0,0.0,0.0,0.0,0,0,0,0,0,0,0,3,3,0,0,3,1,0,0
440103624,0.0003849562,-0.13810979,0.49453706,0.0,0.0,0.0,0.0,0.0,0.0,0.0,0.0,0,0,0,0,0,0,0,3,3,0,0,3,1,0,0
440283843,5.131795e-06,-0.13572909,0.49492902,0.0,0.0,0.0,0.0,0.0,0.0,0.0,0.0,0,0,0,0,0,0,0,3,3,0,0,3,1,0,0
440487583,1.701495e-10,-0.0006422949,0.49493673,0.0,0.0,0.0,0.0,0.0,0.0,0.0,0.0,0,0,0,0,0,0,0,3,3,0,0,3,1,0,0
440691527,-2.3206508e-12,5.5466427e-07,0.49493673,0.0,0.0,0.0,0.0,0.0,0.0,0.0,0.0,0,0,0,0,0,0,0,3,3,0,0,3,1,0,0
440910847,2.5226748e-16,7.931479e-11,0.49383745,0.0,0.0,0.0,0.0,0.0,0.0,0.0,0.0,0,0,0,0,0,0,0,3,3,0,0,3,1,0,0
441110926,2.9300224e-19,-0.06308913,0.4950425,0.0,0.0,0.0,0.0,0.0,0.0,0.0,0.0,0,0,0,0,0,0,0,3,3,0,0,3,1,0,0
441306995,-3.6243935e-22,-0.04257183,0.49493423,0.0,0.0,0.0,0.0,0.0,0.0,0.0,0.0,0,0,0,0,0,0,0,3,3,0,0,3,1,0,0
441510941,1.9222498e-25,-3.0163852e-05,0.49493673,0.0,0.0,0.0,0.0,0.0,0.0,0.0,0.0,0,0,0,0,0,0,0,3,3,0,0,3,1,0,0
441714162,-0.002674482,3.9813894e-08,0.49493673,0.0,0.0,0.0,0.0,0.0,0.0,0.0,0.0,0,0,0,0,0,0,0,3,3,0,0,3,1,0,0
441906012,-1.4326602e-05,-2.1971912e-11,0.4950076,0.0,0.0,0.0,0.0,0.0,0.0,0.0,0.0,0,0,0,0,0,0,0,3,3,0,0,3,1,0,0
442125940,8.403395e-09,-6.4766642e-15,0.5466469,0.0,0.0,0.0,0.0,0.0,0.0,0.0,0.0,0,0,0,0,0,0,0,3,3,0,0,3,1,0,0
442314137,2.389283e-13,4.8070977e-18,0.700332,0.0,0.0,0.0,0.0,0.0,0.0,0.0,0.0,0,0,0,0,0,0,0,3,3,0,0,3,1,0,0
442513179,-3.7654676e-15,-1.4529973e-21,0.74099815,0.0,0.0,0.0,0.0,0.0,0.0,0.0,0.0,0,0,0,0,0,0,0,3,3,0,0,3,1,0,0
442717523,3.1844305e-18,-7.6693353e-25,0.7743086,0.0,0.0,0.0,0.0,0.0,0.0,0.0,0.0,0,0,0,0,0,0,0,3,3,0,0,3,1,0,0
442921350,-1.1847322e-21,1.2842139e-27,0.77367467,0.0,0.0,0.0,0.0,0.0,0.0,0.0,0.0,0,0,0,0,0,0,0,3,3,0,0,3,1,0,0
443125213,-3.1416632e-25,-7.959152e-31,0.77494556,0.0,0.0,0.0,0.0,0.0,0.0,0.0,0.0,0,0,0,0,0,0,0,3,3,0,0,3,1,0,0
443327916,7.7559977e-28,1.5089489e-34,0.77982503,0.0,0.0,0.0,0.0,0.0,0.0,0.0,0.0,0,0,0,0,0,0,0,3,3,0,0,3,1,0,0
443532335,-5.4377033e-31,2.0523153e-37,0.7850866,0.0,0.0,0.0,0.0,0.0,0.0,0.0,0.0,0,0,0,0,0,0,0,3,3,0,0,3,1,0,0
443732350,1.4617161e-34,-2.42946e-40,0.7858127,0.0,0.0,0.0,0.0,0.0,0.0,0.0,0.0,0,0,0,0,0,0,0,3,3,0,0,3,1,0,0
443936391,1.0262486e-37,1.25e-43,0.7847056,0.0,0.0,0.0,0.0,0.0,0.0,0.0,0.0,0,0,0,0,0,0,0,3,3,0,0,3,1,0,0
444136369,-1.51417e-40,0.0,0.7843625,0.0,0.0,0.0,0.0,0.0,0.0,0.0,0.0,0,0,0,0,0,0,0,3,3,0,0,3,1,0,0
444339561,9e-44,0.0,0.7848433,0.0,0.0,0.0,0.0,0.0,0.0,0.0,0.0,0,0,0,0,0,0,0,3,3,0,0,3,1,0,0
444543762,0.0,0.0,0.78293425,0.0,0.0,0.0,0.0,0.0,0.0,0.0,0.0,0,0,0,0,0,0,0,3,3,0,0,3,1,0,0
444747549,0.0,0.0,0.7822874,0.0,0.0,0.0,0.0,0.0,0.0,0.0,0.0,0,0,0,0,0,0,0,3,3,0,0,3,1,0,0
444942776,0.0,0.0,0.78098804,0.0,0.0,0.0,0.0,0.0,0.0,0.0,0.0,0,0,0,0,0,0,0,3,3,0,0,3,1,0,0
445170765,0.0,0.0,0.7801316,0.0,0.0,0.0,0.0,0.0,0.0,0.0,0.0,0,0,0,0,0,0,0,3,3,0,0,3,1,0,0
445370953,0.0,0.0,0.77974683,0.0,0.0,0.0,0.0,0.0,0.0,0.0,0.0,0,0,0,0,0,0,0,3,3,0,0,3,1,0,0
445550760,0.0,0.0,0.7748937,0.0,0.0,0.0,0.0,0.0,0.0,0.0,0.0,0,0,0,0,0,0,0,3,3,0,0,3,1,0,0
445769999,0.0,0.0,0.7389432,0.0,0.0,0.0,0.0,0.0,0.0,0.0,0.0,0,0,0,0,0,0,0,3,3,0,0,3,1,0,0
445965947,0.0,0.0,0.48751032,0.0,0.0,0.0,0.0,0.0,0.0,0.0,0.0,0,0,0,0,0,0,0,3,3,0,0,3,1,0,0
446165987,0.0,0.0,0.4929321,0.0,0.0,0.0,0.0,0.0,0.0,0.0,0.0,0,0,0,0,0,0,0,3,3,0,0,3,1,0,0
446362151,0.0,0.0,0.49318045,0.0,0.0,0.0,0.0,0.0,0.0,0.0,0.0,0,0,0,0,0,0,0,3,3,0,0,3,1,0,0
446577357,0.0,0.0,0.49367076,0.0,0.0,0.0,0.0,0.0,0.0,0.0,0.0,0,0,0,0,0,0,0,3,3,0,0,3,1,0,0
446777158,0.0,0.0,0.49260488,0.0,0.0,0.0,0.0,0.0,0.0,0.0,0.0,0,0,0,0,0,0,0,3,3,0,0,3,1,0,0
446977169,0.0,0.0,0.49166295,0.0,0.0,0.0,0.0,0.0,0.0,0.0,0.0,0,0,0,0,0,0,0,3,3,0,0,3,1,0,0
447193129,0.0,0.0,0.4390315,0.0,0.0,0.0,0.0,0.0,0.0,0.0,0.0,0,0,0,0,0,0,0,3,3,0,0,3,1,0,0
447392618,0.0,0.0,0.38190562,0.0,0.0,0.0,0.0,0.0,0.0,0.0,0.0,0,0,0,0,0,0,0,3,3,0,0,3,1,0,0
447592565,0.0,0.0,0.32932034,0.0,0.0,0.0,0.0,0.0,0.0,0.0,0.0,0,0,0,0,0,0,0,3,3,0,0,3,1,0,0
447780584,0.0,0.0,0.30848515,0.0,0.0,0.0,0.0,0.0,0.0,0.0,0.0,0,0,0,0,0,0,0,3,3,0,0,3,1,0,0
448000528,0.0,0.0,0.30071956,0.0,0.0,0.0,0.0,0.0,0.0,0.0,0.0,0,0,0,0,0,0,0,3,3,0,0,3,1,0,0
448198799,0.0,0.0,0.28519216,0.0,0.0,0.0,0.0,0.0,0.0,0.0,0.0,0,0,0,0,0,0,0,3,3,0,0,3,1,0,0
448403540,0.0,0.0,0.19533817,0.0,0.0,0.0,0.0,0.0,0.0,0.0,0.0,0,0,0,0,0,0,0,3,3,0,0,3,1,0,0
448603554,0.0,0.0,0.11079117,0.0,0.0,0.0,0.0,0.0,0.0,0.0,0.0,0,0,0,0,0,0,0,3,3,0,0,3,1,0,0
448811680,0.0,0.0,0.026671955,0.0,0.0,0.0,0.0,0.0,0.0,0.0,0.0,0,0,0,0,0,0,0,3,3,0,0,3,1,0,0
449011155,0.0,0.0,0.01747528,0.0,0.0,0.0,0.0,0.0,0.0,0.0,0.0,0,0,0,0,0,0,0,3,3,0,0,3,1,0,0
449206794,0.0,0.0,0.009950354,0.0,0.0,0.0,0.0,0.0,0.0,0.0,0.0,0,0,0,0,0,0,0,3,3,0,0,3,1,0,0
449402825,0.0,0.0,0.004722216,0.0,0.0,0.0,0.0,0.0,0.0,0.0,0.0,0,0,0,0,0,0,0,3,3,0,0,3,1,0,0
449614755,0.0,0.0,1.6026299e-05,0.0,0.0,0.0,0.0,0.0,0.0,0.0,0.0,0,0,0,0,0,0,0,3,3,0,0,3,1,0,0
449809963,0.0,0.0,0.0,0.0,0.0,0.0,0.0,0.0,0.0,0.0,0.0,0,0,0,0,0,0,0,3,3,0,0,3,1,0,0
450009948,0.0,0.0,0.0,0.0,0.0,0.0,0.0,0.0,0.0,0.0,0.0,0,0,0,0,0,0,0,3,3,0,0,3,1,0,0
450213969,0.0,0.0,3.7332926e-15,0.0,0.0,0.0,0.0,0.0,0.0,0.0,0.0,0,0,0,0,0,0,0,3,3,0,0,3,1,0,0
450433970,0.0,0.0,0.0,0.0,0.0,0.0,0.0,0.0,0.0,0.0,0.0,0,0,0,0,0,0,0,3,3,0,0,3,1,0,0
450629517,0.0,0.0,0.0,0.0,0.0,0.0,0.0,0.0,0.0,0.0,0.0,0,0,0,0,0,0,0,3,3,0,0,3,1,0,0
450833152,0.0,0.0,5.3808898e-25,0.0,0.0,0.0,0.0,0.0,0.0,0.0,0.0,0,0,0,0,0,0,0,3,3,0,0,3,1,0,0
451033153,0.0,0.0,0.0,0.0,0.0,0.0,0.0,0.0,0.0,0.0,0.0,0,0,0,0,0,0,0,3,3,0,0,3,1,0,0
451233199,0.0,0.0,0.0,0.0,0.0,0.0,0.0,0.0,0.0,0.0,0.0,0,0,0,0,0,0,0,3,3,0,0,3,1,0,0
451428399,0.0,0.0,1.1407185e-34,0.0,0.0,0.0,0.0,0.0,0.0,0.0,0.0,0,0,0,0,0,0,0,3,3,0,0,3,1,0,0
451644543,0.0,0.0,0.0,0.0,0.0,0.0,0.0,0.0,0.0,0.0,0.0,0,0,0,0,0,0,0,3,3,0,0,3,1,0,0
451840350,0.0,0.0,0.0,0.0,0.0,0.0,0.0,0.0,0.0,0.0,0.0,0,0,0,0,0,0,0,3,3,0,0,3,1,0,0
452044371,0.0,0.0,1.8e-44,0.0,0.0,0.0,0.0,0.0,0.0,0.0,0.0,0,0,0,0,0,0,0,3,3,0,0,3,1,0,0
452243938,0.0,0.0,0.0,0.0,0.0,0.0,0.0,0.0,0.0,0.0,0.0,0,0,0,0,0,0,0,3,3,0,0,3,1,0,0
452455555,0.0,0.0,0.0,0.0,0.0,0.0,0.0,0.0,0.0,0.0,0.0,0,0,0,0,0,0,0,3,3,0,0,3,1,0,0
452655749,0.0,0.0,0.0,0.0,0.0,0.0,0.0,0.0,0.0,0.0,0.0,0,0,0,0,0,0,0,3,3,0,0,3,1,0,0
452851573,0.0,0.0,0.0,0.0026206744,0.0,0.0,0.0,0.0,0.0,0.0,0.0,0,0,0,0,0,0,0,3,3,0,0,3,1,0,0
453050951,0.0,0.0,0.0,0.0076294523,0.0,0.0,0.0,0.0,0.0,0.0,0.0,0,0,0,0,0,0,0,3,3,0,0,3,1,0,0
453258777,0.0,0.0,0.0,0.007712374,0.0,0.0,0.0,0.0,0.0,0.0,0.0,0,0,0,0,0,0,0,3,3,0,0,3,1,0,0
453458732,0.0,0.0,0.0,0.004860682,0.0,0.0,0.0,0.0,0.0,0.0,0.0,0,0,0,0,0,0,0,3,3,0,0,3,1,0,0
453662779,0.0,0.0,0.048192225,-2.7855583e-06,0.0,0.0,0.0,0.0,0.0,0.0,0.0,0,0,0,0,0,0,0,3,3,0,0,3,1,0,0
453881966,0.0,0.0,0.49311042,-7.777405e-10,0.0,0.0,0.0,0.0,0.0,0.0,0.0,0,0,0,0,0,0,0,3,3,0,0,3,1,0,0
454074024,0.0,0.0,0.49367085,5.9949186e-13,0.0,0.0,0.0,0.0,0.0,0.0,0.0,0,0,0,0,0,0,0,3,3,0,0,3,1,0,0
454282191,0.0,0.0,0.49370077,1.05109774e-16,0.0,0.0,0.0,0.0,0.0,0.0,0.0,0,0,0,0,0,0,0,3,3,0,0,3,1,0,0
454474331,0.0,0.0,0.4936636,-1.1473917e-19,0.0,0.0,0.0,0.0,0.0,0.0,0.0,0,0,0,0,0,0,0,3,3,0,0,3,1,0,0
454693189,0.0,0.0,0.4936709,-9.966164e-24,0.0,0.0,0.0,0.0,0.0,0.0,0.0,0,0,0,0,0,0,0,3,3,0,0,3,1,0,0
454889170,0.0,0.0,0.49319068,1.9632514e-26,0.0,0.0,0.0,0.0,0.0,0.0,0.0,0,0,0,0,0,0,0,3,3,0,0,3,1,0,0
455085514,0.0,0.0,0.49356467,-1.29119e-29,0.0,0.0,0.0,0.0,0.0,0.0,0.0,0,0,0,0,0,0,0,3,3,0,0,3,1,0,0
455277215,0.0,0.0,0.49367097,2.9562473e-33,0.0,0.0,0.0,0.0,0.0,0.0,0.0,0,0,0,0,0,0,0,3,3,0,0,3,1,0,0
455480722,0.0,0.0,0.49531066,2.8858722e-36,0.0,0.0,0.0,0.0,0.0,0.0,0.0,0,0,0,0,0,0,0,3,3,0,0,3,1,0,0
455700709,0.0,0.0,0.49623993,-1.048819e-39,0.0,0.0,0.0,0.0,0.0,0.0,0.0,0,0,0,0,0,0,0,3,3,0,0,3,1,0,0
455888408,0.0,0.0,0.49620247,2.067e-42,0.0,0.0,0.0,0.0,0.0,0.0,0.0,0,0,0,0,0,0,0,3,3,0,0,3,1,0,0
456100581,0.0,0.0,0.49599674,0.0,0.0,0.0,0.0,0.0,0.0,0.0,0.0,0,0,0,0,0,0,0,3,3,0,0,3,1,0,0
456307915,0.0,0.0,0.49338397,0.0,0.0,0.0,0.0,0.0,0.0,0.0,0.0,0,0,0,0,0,0,0,3,3,0,0,3,1,0,0
456511534,0.0,0.0,0.3758899,0.0,0.0,0.0,0.0,0.0,0.0,0.0,0.0,0,0,0,0,0,0,0,3,3,0,0,3,1,0,0
456707572,0.0,0.0,0.29763046,0.0,0.0,0.0,0.0,0.0,0.0,0.0,0.0,0,0,0,0,0,0,0,3,3,0,0,3,1,0,0
456922950,0.0,0.0,0.21613915,0.0,0.0,0.0,0.0,0.0,0.0,0.0,0.0,0,0,0,0,0,0,0,3,3,0,0,3,1,0,0
457106763,0.0,0.0,0.14327107,0.0,0.0,0.0,0.0,0.0,0.0,0.0,0.0,0,0,0,0,0,0,0,3,3,0,0,3,1,0,0
457322973,0.0,0.0,0.019592568,0.0,0.0,0.0,0.0,0.0,0.0,0.0,0.0,0,0,0,0,0,0,0,3,3,0,0,3,1,0,0
457522758,0.0,0.0,0.0,0.0,0.0,0.0,0.0,0.0,0.0,0.0,0.0,0,0,0,0,0,0,0,3,3,0,0,3,1,0,0
457718960,0.0,0.0,4.406923e-09,0.0,0.0,0.0,0.0,0.0,0.0,0.0,0.0,0,0,0,0,0,0,0,3,3,0,0,3,1,0,0
457917931,0.0,0.0,0.0,0.0,0.0,0.0,0.0,0.0,0.0,0.0,0.0,0,0,0,0,0,0,0,3,3,0,0,3,1,0,0
458133967,0.0,0.0,0.0,0.0,0.0,0.0,0.0,0.0,0.0,0.0,0.0,0,0,0,0,0,0,0,3,3,0,0,3,1,0,0
458326189,0.0,0.0,6.0702923e-19,0.0,0.0,0.0,0.0,0.0,0.0,0.0,0.0,0,0,0,0,0,0,0,3,3,0,0,3,1,0,0
458545953,0.0,0.0,7.2173206e-23,-0.17903458,0.0,0.0,0.0,0.0,0.0,0.0,0.0,0,0,0,0,0,0,0,3,3,0,0,3,1,0,0
458745132,0.0,0.0,0.0,-0.5165918,0.0,0.0,0.0,0.0,0.0,0.0,0.0,0,0,0,0,0,0,0,3,3,0,0,3,1,0,0
458941133,0.0,0.0,6.397028e-29,-0.99258065,0.0,0.0,0.0,0.0,0.0,0.0,0.0,0,0,0,0,0,0,0,3,3,0,0,3,1,0,0
459137128,0.0,0.0,0.0,-0.99797344,0.0,0.0,0.0,0.0,0.0,0.0,0.0,0,0,0,0,0,0,0,3,3,0,0,3,1,0,0
459337331,0.0,0.0,0.0,-0.9973051,0.0,0.0,0.0,0.0,0.0,0.0,0.0,0,0,0,0,0,0,0,3,3,0,0,3,1,0,0
459544717,0.0,0.0,2.0257463e-38,-0.9974491,0.0,0.0,0.0,0.0,0.0,0.0,0.0,0,0,0,0,0,0,0,3,3,0,0,3,1,0,0
459748546,0.0,0.0,0.0,-0.997976,0.0,0.0,0.0,0.0,0.0,0.0,0.0,0,0,0,0,0,0,0,3,3,0,0,3,1,0,0
459948535,0.0,0.0,0.0,-0.9975354,0.0,0.0,0.0,0.0,0.0,0.0,0.0,0,0,0,0,0,0,0,3,3,0,0,3,1,0,0
460150781,0.0,0.0,0.0,-0.9995974,0.0,0.0,0.0,0.0,0.0,0.0,0.0,0,0,0,0,0,0,0,3,3,0,0,3,1,0,0
460367572,0.0,0.0,0.0,-0.999227,0.0,0.0,0.0,0.0,0.0,0.0,0.0,0,0,0,0,0,0,0,3,3,0,0,3,1,0,0
460563528,0.0,0.0,0.0,-0.99738634,0.0,0.0,0.0,0.0,0.0,0.0,0.0,0,0,0,0,0,0,0,3,3,0,0,3,1,0,0
460763575,0.0,0.0,0.0,-0.9983489,0.0,0.0,0.0,0.0,0.0,0.0,0.0,0,0,0,0,0,0,0,3,3,0,0,3,1,0,0
460966810,0.0,0.0,0.0,-0.9979092,0.0,0.0,0.0,0.0,0.0,0.0,0.0,0,0,0,0,0,0,0,3,3,0,0,3,1,0,0
461163127,0.0,0.0,0.0,-0.99738777,0.0,0.0,0.0,0.0,0.0,0.0,0.0,0,0,0,0,0,0,0,3,3,0,0,3,1,0,0
461358761,0.0,0.0,0.0,-0.9983538,0.0,0.0,0.0,0.0,0.0,0.0,0.0,0,0,0,0,0,0,0,3,3,0,0,3,1,0,0
461570783,0.0,0.0,0.0,-0.9992273,0.0,0.0,0.0,0.0,0.0,0.0,0.0,0,0,0,0,0,0,0,3,3,0,0,3,1,0,0
461766721,0.0,0.0,0.0,-0.9973037,0.0,0.0,0.0,0.0,0.0,0.0,0.0,0,0,0,0,0,0,0,3,3,0,0,3,1,0,0
461970020,0.0,0.0,0.0,-0.99835354,0.0,0.0,0.0,0.0,0.0,0.0,0.0,0,0,0,0,0,0,0,3,3,0,0,3,1,0,0
462169961,0.0,0.0,0.0,-0.99922687,0.0,0.0,0.0,0.0,0.0,0.0,0.0,0,0,0,0,0,0,0,3,3,0,0,3,1,0,0
462390004,0.0,0.0,0.0,-0.9979054,0.0,0.0,0.0,0.0,0.0,0.0,0.0,0,0,0,0,0,0,0,3,3,0,0,3,1,0,0
462582191,0.0,0.0,0.0,-0.99753535,0.0,0.0,0.0,0.0,0.0,0.0,0.0,0,0,0,0,0,0,0,3,3,0,0,3,1,0,0
462801162,0.0,0.0,0.0,-0.9983487,0.0,0.0,0.0,0.0,0.0,0.0,0.0,0,0,0,0,0,0,0,3,3,0,0,3,1,0,0
462985131,0.0,0.0,0.0,-0.9974476,0.0,0.0,0.0,0.0,0.0,0.0,0.0,0,0,0,0,0,0,0,3,3,0,0,3,1,0,0
463201212,0.0,0.0,0.0,-0.97610873,0.0,0.0,0.0,0.0,0.0,0.0,0.0,0,0,0,0,0,0,0,3,3,0,0,3,1,0,0
463401225,0.0,0.0,0.0,-0.9723898,0.0,0.0,0.0,0.0,0.0,0.0,0.0,0,0,0,0,0,0,0,3,3,0,0,3,1,0,0
463596382,0.0,0.0,0.0,-0.64998657,0.0,0.0,0.0,0.0,0.0,0.0,0.0,0,0,0,0,0,0,0,3,3,0,0,3,1,0,0
463800487,0.0,0.0,0.0,-0.33327603,0.0,0.0,0.0,0.0,0.0,0.0,0.0,0,0,0,0,0,0,0,3,3,0,0,3,1,0,0
464000586,0.0,0.0,0.0,0.0019027682,0.0,0.0,0.0,0.0,0.0,0.0,0.0,0,0,0,0,0,0,0,3,3,0,0,3,1,0,0
464224353,0.0,0.0,0.0,3.3566522e-07,0.0,0.0,0.0,0.0,0.0,0.0,0.0,0,0,0,0,0,0,0,3,3,0,0,3,1,0,0
464404366,0.0,0.0,0.0,-2.717106e-10,0.0,0.0,0.0,0.0,0.0,0.0,0.0,0,0,0,0,0,0,0,3,3,0,0,3,1,0,0
464611667,0.0,0.0,0.0,4.959794e-13,0.0,0.0,0.0,0.0,0.0,0.0,0.0,0,0,0,0,0,0,0,3,3,0,0,3,1,0,0
464815535,0.0,0.0,0.0,-3.1775785e-16,0.0,0.0,0.0,0.0,0.0,0.0,0.0,0,0,0,0,0,0,0,3,3,0,0,3,1,0,0
465011536,0.0,0.0,0.0,6.732187e-20,0.0,0.0,0.0,0.0,0.0,0.0,0.0,0,0,0,0,0,0,0,3,3,0,0,3,1,0,0
465230754,0.0,0.0,0.0,6.5273235e-23,0.0,0.0,0.0,0.0,0.0,0.0,0.0,0,0,0,0,0,0,0,3,3,0,0,3,1,0,0
465414742,0.0,0.0,0.0,-9.4599423e-26,0.0,0.0,0.0,0.0,0.0,0.0,0.0,0,0,0,0,0,0,0,3,3,0,0,3,1,0,0
465634955,0.0,0.0,0.0,-5.6871045e-30,0.0,0.0,0.0,0.0,0.0,0.0,0.0,0,0,0,0,0,0,0,3,3,0,0,3,1,0,0
465822781,0.0,0.0,0.0,-4.0005923e-33,0.0,0.0,0.0,0.0,0.0,0.0,0.0,0,0,0,0,0,0,0,3,3,0,0,3,1,0,0
466030002,0.0,0.0,0.0,-1.7874631e-35,0.0,0.0,0.0,0.0,0.0,0.0,0.0,0,0,0,0,0,0,0,3,3,0,0,3,1,0,0
466229989,0.0,0.0,0.0,1.728991e-38,0.0,0.0,0.0,0.0,0.0,0.0,0.0,0,0,0,0,0,0,0,3,3,0,0,3,1,0,0
466450150,0.0,0.0,0.0,1.974e-42,0.0,0.0,0.0,0.0,0.0,0.0,0.0,0,0,0,0,0,0,0,3,3,0,0,3,1,0,0
466649165,0.0,0.0,0.0,-3e-45,0.0,0.0,0.0,0.0,0.0,0.0,0.0,0,0,0,0,0,0,0,3,3,0,0,3,1,0,0
466845198,0.0,0.0,0.0,0.0,0.0,0.0,0.0,0.0,0.0,0.0,0.0,0,0,0,0,0,0,0,3,3,0,0,3,1,0,0
467053528,0.0,0.0,0.0,0.0,0.0,0.0,0.0,0.0,0.0,0.0,0.0,0,0,0,0,0,0,0,3,3,0,0,3,1,0,0
467253167,0.0,0.0,0.0,0.0,0.0,0.0,0.0,0.0,0.0,0.0,0.0,0,0,0,0,0,0,0,3,3,0,0,3,1,0,0
467448715,0.0,0.0,0.0,0.0,0.0,0.0,0.0,0.0,0.0,0.0,0.0,0,0,0,0,0,0,0,3,3,0,0,3,1,0,0
467660559,0.0,0.0,0.0,0.0,0.0,0.0,0.0,0.0,0.0,0.0,0.0,0,0,0,0,0,0,0,3,3,0,0,3,1,0,0
467856377,0.0,0.0,0.0,0.0,0.0,0.0,0.0,0.0,0.0,0.0,0.0,0,0,0,0,0,0,0,3,3,0,0,3,1,0,0
468056621,0.0,0.0,0.0,0.0,0.0,0.0,0.0,0.0,0.0,0.0,0.0,0,0,0,0,0,0,0,3,3,0,0,3,1,0,0
468255552,0.0,0.0,0.0,-0.00798251,0.0,0.0,0.0,0.0,0.0,0.0,0.0,0,0,0,0,0,0,0,3,3,0,0,3,1,0,0
468455934,0.0,0.0,0.0,-0.0086372895,0.0,0.0,0.0,0.0,0.0,0.0,0.0,0,0,0,0,0,0,0,3,3,0,0,3,1,0,0
469071747,0.0,0.0,0.0,-0.009431079,0.0,0.0,0.0,0.0,0.0,0.0,0.0,0,0,0,0,0,0,0,3,3,0,0,3,1,0,0
469278723,0.0,0.0,0.0,-0.010108482,0.0,0.0,0.0,0.0,0.0,0.0,0.0,0,0,0,0,0,0,0,3,3,0,0,3,1,0,0
469474745,0.0,0.0,0.0,-0.011176847,0.0,0.0,0.0,0.0,0.0,0.0,0.0,0,0,0,0,0,0,0,3,3,0,0,3,1,0,0
469674863,0.0,0.0,0.0,-0.013757711,0.0,0.0,0.0,0.0,0.0,0.0,0.0,0,0,0,0,0,0,0,3,3,0,0,3,1,0,0
469878936,0.0,0.0,0.0,-0.012082969,0.0,0.0,0.0,0.0,0.0,0.0,0.0,0,0,0,0,0,0,0,3,3,0,0,3,1,0,0
470094151,0.0,0.0,0.0,-0.012674478,0.0,0.0,0.0,0.0,0.0,0.0,0.0,0,0,0,0,0,0,0,3,3,0,0,3,1,0,0
470290349,0.0,0.0,0.0,-0.014018484,0.0,0.0,0.0,0.0,0.0,0.0,0.0,0,0,0,0,0,0,0,3,3,0,0,3,1,0,0
470489973,0.0,0.0,0.0,-0.010611166,0.0,0.0,0.0,0.0,0.0,0.0,0.0,0,0,0,0,0,0,0,3,3,0,0,3,1,0,0
470702128,0.0,0.0,0.0,-0.011112675,0.0,0.0,0.0,0.0,0.0,0.0,0.0,0,0,0,0,0,0,0,3,3,0,0,3,1,0,0
470897340,0.0,0.0,0.0,-0.012351252,0.0,0.0,0.0,0.0,0.0,0.0,0.0,0,0,0,0,0,0,0,3,3,0,0,3,1,0,0
471093133,0.0,0.0,0.0,-0.011032352,0.0,0.0,0.0,0.0,0.0,0.0,0.0,0,0,0,0,0,0,0,3,3,0,0,3,1,0,0
471309126,0.0,0.0,0.0,-0.012804931,0.0,0.0,0.0,0.0,0.0,0.0,0.0,0,0,0,0,0,0,0,3,3,0,0,3,1,0,0
471505252,0.0,0.0,0.0,-0.014450644,0.0,0.0,0.0,0.0,0.0,0.0,0.0,0,0,0,0,0,0,0,3,3,0,0,3,1,0,0
471704490,0.0,0.0,0.0,-0.012609752,0.0,0.0,0.0,0.0,0.0,0.0,0.0,0,0,0,0,0,0,0,3,3,0,0,3,1,0,0
