timestamp,timestamp_sample,control[0],control[1],control[2],control[3],control[4],control[5],control[6],control[7]
128105863,128104855,0.056015678,-9.937184e-05,-0.065211296,-0.0,0.0,0.0,0.0,0.0
128165785,128164857,0.055812944,-0.0005526535,-0.06578543,-0.0,0.0,0.0,0.0,0.0
128170834,128169848,0.055908073,-0.0005840089,-0.065768406,-0.0,0.0,0.0,0.0,0.0
128175888,128174886,0.055880457,-0.00055725867,-0.065717004,-0.0,0.0,0.0,0.0,0.0
128180804,128179872,0.05584318,-0.00049736624,-0.065801695,-0.0,0.0,0.0,0.0,0.0
128185843,128184879,0.05567232,-0.0004722277,-0.06590608,-0.0,0.0,0.0,0.0,0.0
128190847,128189870,0.055493604,-0.00049128075,-0.06602593,-0.0,0.0,0.0,0.0,0.0
128195849,128194892,0.055466797,-0.00030580087,-0.06606359,-0.0,0.0,0.0,0.0,0.0
128200902,128199878,0.055520516,1.385789e-06,-0.06613743,-0.0,0.0,0.0,0.0,0.0
128205859,128204875,0.055568993,0.0002048829,-0.06624115,-0.0,0.0,0.0,0.0,0.0
128210946,128209892,0.05559611,0.0003195972,-0.06623238,-0.0,0.0,0.0,0.0,0.0
128215830,128214898,0.055562824,0.00028270745,-0.06614348,-0.0,0.0,0.0,0.0,0.0
128221027,128219898,0.0555801,0.00024142413,-0.066006154,-0.0,0.0,0.0,0.0,0.0
128225849,128224892,0.055650737,0.00021280466,-0.06594561,-0.0,0.0,0.0,0.0,0.0
128230917,128229879,0.05564874,0.00026595895,-0.06588141,-0.0,0.0,0.0,0.0,0.0
128235825,128234854,0.055547927,0.0003716316,-0.065905385,-0.0,0.0,0.0,0.0,0.0
128240893,128239852,0.055447668,0.00033319247,-0.06584988,-0.0,0.0,0.0,0.0,0.0
128245825,128244853,0.05544835,0.00018300477,-0.06583707,-0.0,0.0,0.0,0.0,0.0
128250869,128249849,0.055392157,-4.0554096e-05,-0.06587838,-0.0,0.0,0.0,0.0,0.0
128255798,128254851,0.055343878,-0.0002500139,-0.06588291,-0.0,0.0,0.0,0.0,0.0
128260976,128259854,0.055379823,-0.0002551128,-0.06584396,-0.0,0.0,0.0,0.0,0.0
128266054,128264879,0.055530664,-8.2605e-05,-0.06576387,-0.0,0.0,0.0,0.0,0.0
128271093,128269859,0.05561525,-6.7808e-05,-0.065790825,-0.0,0.0,0.0,0.0,0.0
128275866,128274851,0.055559643,-0.00019981935,-0.065685846,-0.0,0.0,0.0,0.0,0.0
128281110,128279857,0.05547825,-0.0003014864,-0.06557399,-0.0,0.0,0.0,0.0,0.0
128285911,128284849,0.055318825,-0.00033920785,-0.06559049,-0.0,0.0,0.0,0.0,0.0
128290860,128289848,0.05521888,-0.00048573344,-0.06561129,-0.0,0.0,0.0,0.0,0.0
128295889,128294851,0.055248484,-0.00060220365,-0.06561057,-0.0,0.0,0.0,0.0,0.0
128300862,128299849,0.055344682,-0.0007020819,-0.065544024,-0.0,0.0,0.0,0.0,0.0
128305847,128304852,0.055380944,-0.0007388875,-0.06546234,-0.0,0.0,0.0,0.0,0.0
128310867,128309851,0.05542769,-0.0007130943,-0.06540107,-0.0,0.0,0.0,0.0,0.0
128315900,128314854,0.05535629,-0.0006303712,-0.06539499,-0.0,0.0,0.0,0.0,0.0
128320868,128319851,0.05515091,-0.0005631851,-0.06536689,-0.0,0.0,0.0,0.0,0.0
128325976,128324851,0.055172525,-0.00042514212,-0.06539653,-0.0,0.0,0.0,0.0,0.0
128330899,128329851,0.05525307,-0.00038779617,-0.0654419,-0.0,0.0,0.0,0.0,0.0
128335896,128334854,0.055228714,-0.0004725472,-0.0653732,-0.0,0.0,0.0,0.0,0.0
128340790,128339852,0.055182192,-0.0005402707,-0.06527561,-0.0,0.0,0.0,0.0,0.0
128346005,128344851,0.05520968,-0.00057218067,-0.0652704,-0.0,0.0,0.0,0.0,0.0
128350814,128349848,0.055300813,-0.0005525973,-0.06532191,-0.0,0.0,0.0,0.0,0.0
128355930,128354851,0.05536025,-0.0003641565,-0.065421544,-0.0,0.0,0.0,0.0,0.0
128360879,128359848,0.05540066,-0.00028641525,-0.06546842,-0.0,0.0,0.0,0.0,0.0
128365880,128364848,0.05544041,-0.00030864112,-0.06545873,-0.0,0.0,0.0,0.0,0.0
128370939,128369878,0.05545803,-0.00011856238,-0.06550506,-0.0,0.0,0.0,0.0,0.0
128375908,128374866,0.0552552,5.2851774e-05,-0.06553831,-0.0,0.0,0.0,0.0,0.0
128380890,128379848,0.055168938,8.828713e-05,-0.06561644,-0.0,0.0,0.0,0.0,0.0
128385986,128384849,0.05529321,0.0003000569,-0.06568348,-0.0,0.0,0.0,0.0,0.0
128390784,128389848,0.055354238,0.0004163968,-0.065674335,-0.0,0.0,0.0,0.0,0.0
128395814,128394855,0.055366304,0.00038950407,-0.0656358,-0.0,0.0,0.0,0.0,0.0
128400815,128399848,0.055462737,0.00037779,-0.06567315,-0.0,0.0,0.0,0.0,0.0
128405956,128404848,0.055501793,0.00039854,-0.06571532,-0.0,0.0,0.0,0.0,0.0
128410907,128409848,0.055572286,0.00049651234,-0.06576232,-0.0,0.0,0.0,0.0,0.0
128415885,128414851,0.055709288,0.00066739897,-0.06593021,-0.0,0.0,0.0,0.0,0.0
128420918,128419848,0.055772714,0.0008974223,-0.06616033,-0.0,0.0,0.0,0.0,0.0
128425853,128424848,0.05580957,0.0010074362,-0.06629625,-0.0,0.0,0.0,0.0,0.0
128430864,128429848,0.055928726,0.00078611623,-0.06642946,-0.0,0.0,0.0,0.0,0.0
128435745,128434851,0.056109987,0.0004431617,-0.06659542,-0.0,0.0,0.0,0.0,0.0
128440738,128439848,0.0561381,0.00015551645,-0.06665902,-0.0,0.0,0.0,0.0,0.0
128445835,128444848,0.056013536,-9.554529e-05,-0.06660073,-0.0,0.0,0.0,0.0,0.0
128450786,128449848,0.056110658,-0.0002752273,-0.066573516,-0.0,0.0,0.0,0.0,0.0
128455770,128454851,0.056112584,-0.00023874357,-0.06654942,-0.0,0.0,0.0,0.0,0.0
128460759,128459848,0.056075584,-0.00017848042,-0.066616096,-0.0,0.0,0.0,0.0,0.0
128465759,128464848,0.056099083,-0.0003354733,-0.06665801,-0.0,0.0,0.0,0.0,0.0
128470781,128469848,0.056053396,-0.0004331268,-0.06668547,-0.0,0.0,0.0,0.0,0.0
128475923,128474895,0.05602305,-0.00053862244,-0.06675633,-0.0,0.0,0.0,0.0,0.0
128480772,128479848,0.056080315,-0.0007613175,-0.066680424,-0.0,0.0,0.0,0.0,0.0
128485769,128484851,0.05620296,-0.0010324495,-0.06648601,-0.0,0.0,0.0,0.0,0.0
128490798,128489848,0.056274496,-0.0014712928,-0.06628751,-0.0,0.0,0.0,0.0,0.0
128495958,128494900,0.05632345,-0.0018180067,-0.06608369,-0.0,0.0,0.0,0.0,0.0
128500735,128499848,0.056266066,-0.0020666125,-0.06593015,-0.0,0.0,0.0,0.0,0.0
128505807,128504848,0.056272656,-0.0023761762,-0.06588021,-0.0,0.0,0.0,0.0,0.0
128510795,128509859,0.056120917,-0.002506732,-0.06576157,-0.0,0.0,0.0,0.0,0.0
128515733,128514856,0.05596768,-0.0026135,-0.06568802,-0.0,0.0,0.0,0.0,0.0
128520771,128519864,0.055886973,-0.0026035341,-0.06569552,-0.0,0.0,0.0,0.0,0.0
128525764,128524848,0.055911593,-0.0025658011,-0.06562454,-0.0,0.0,0.0,0.0,0.0
128530815,128529906,0.05615387,-0.0030719982,-0.06558357,-0.0,0.0,0.0,0.0,0.0
128535636,128534851,0.056549847,-0.0033766532,-0.065593295,-0.0,0.0,0.0,0.0,0.0
128540667,128539848,0.056566622,-0.0033223762,-0.06565128,-0.0,0.0,0.0,0.0,0.0
128545663,128544848,0.056582294,-0.0031743993,-0.06578679,-0.0,0.0,0.0,0.0,0.0
128550794,128549848,0.056785837,-0.0029723456,-0.065797165,-0.0,0.0,0.0,0.0,0.0
128555636,128554851,0.056845833,-0.00296047,-0.06575545,-0.0,0.0,0.0,0.0,0.0
128560756,128559848,0.05675067,-0.002889728,-0.06568297,-0.0,0.0,0.0,0.0,0.0
128565772,128564848,0.05657783,-0.0028709795,-0.065585315,-0.0,0.0,0.0,0.0,0.0
128570811,128569848,0.056243986,-0.0030560927,-0.06555085,-0.0,0.0,0.0,0.0,0.0
128575753,128574851,0.05613508,-0.0033897914,-0.06557689,-0.0,0.0,0.0,0.0,0.0
128580795,128579889,0.056074053,-0.003524608,-0.06538898,-0.0,0.0,0.0,0.0,0.0
128585787,128584848,0.05613893,-0.0032036207,-0.06530343,-0.0,0.0,0.0,0.0,0.0
128590756,128589848,0.056228068,-0.002694829,-0.06544667,-0.0,0.0,0.0,0.0,0.0
128595803,128594851,0.056338377,-0.0022247084,-0.06550741,-0.0,0.0,0.0,0.0,0.0
128600748,128599849,0.056567725,-0.0019267235,-0.06536264,-0.0,0.0,0.0,0.0,0.0
128605769,128604848,0.056646157,-0.0016959881,-0.065216966,-0.0,0.0,0.0,0.0,0.0
128610809,128609848,0.056661014,-0.00151429,-0.065237835,-0.0,0.0,0.0,0.0,0.0
128615773,128614851,0.05664239,-0.0011347813,-0.065194055,-0.0,0.0,0.0,0.0,0.0
128620757,128619848,0.056565687,-0.00071846874,-0.06499306,-0.0,0.0,0.0,0.0,0.0
128625762,128624848,0.05652832,-0.00055960775,-0.064800575,-0.0,0.0,0.0,0.0,0.0
128630849,128629849,0.056460116,-0.0004623543,-0.06467492,-0.0,0.0,0.0,0.0,0.0
128635703,128634851,0.056420177,-0.00039945406,-0.06459535,-0.0,0.0,0.0,0.0,0.0
128640860,128639851,0.056343377,-0.00026126736,-0.06451398,-0.0,0.0,0.0,0.0,0.0
128645707,128644851,0.056340367,0.00010954862,-0.06451396,-0.0,0.0,0.0,0.0,0.0
128650867,128649851,0.056363914,0.00049224356,-0.06454028,-0.0,0.0,0.0,0.0,0.0
128655780,128654854,0.05623906,0.0006476868,-0.064622454,-0.0,0.0,0.0,0.0,0.0
128660859,128659860,0.0560506,0.00071196735,-0.06463629,-0.0,0.0,0.0,0.0,0.0
128665783,128664851,0.05589022,0.00070874667,-0.06457643,-0.0,0.0,0.0,0.0,0.0
128670871,128669851,0.055795774,0.00081556424,-0.06448109,-0.0,0.0,0.0,0.0,0.0
128675714,128674854,0.055792473,0.0008519229,-0.06449141,-0.0,0.0,0.0,0.0,0.0
128680851,128679854,0.055905912,0.0008252972,-0.06455056,-0.0,0.0,0.0,0.0,0.0
128685708,128684882,0.056113273,0.00075810385,-0.0646756,-0.0,0.0,0.0,0.0,0.0
128690897,128689848,0.05627298,0.00059400283,-0.06486651,-0.0,0.0,0.0,0.0,0.0
128695691,128694851,0.056517374,0.00042174594,-0.0650534,-0.0,0.0,0.0,0.0,0.0
128700889,128699848,0.056698482,0.00034942786,-0.06515268,-0.0,0.0,0.0,0.0,0.0
128705697,128704871,0.056576136,0.00017801294,-0.06522343,-0.0,0.0,0.0,0.0,0.0
128710701,128709848,0.056281336,-2.5203266e-05,-0.06532629,-0.0,0.0,0.0,0.0,0.0
128715719,128714851,0.055980884,-0.00032064825,-0.06540579,-0.0,0.0,0.0,0.0,0.0
128720848,128719856,0.05577636,-0.00065126247,-0.0654571,-0.0,0.0,0.0,0.0,0.0
128725707,128724852,0.055508636,-0.0009081617,-0.06549136,-0.0,0.0,0.0,0.0,0.0
128730714,128729849,0.0552939,-0.0009912899,-0.06567216,-0.0,0.0,0.0,0.0,0.0
128735730,128734851,0.055191796,-0.0010241781,-0.06580716,-0.0,0.0,0.0,0.0,0.0
128740712,128739848,0.055164576,-0.0012369561,-0.06589242,-0.0,0.0,0.0,0.0,0.0
128745698,128744848,0.05517793,-0.0013911417,-0.06598641,-0.0,0.0,0.0,0.0,0.0
128750709,128749857,0.055355918,-0.0014239261,-0.06608261,-0.0,0.0,0.0,0.0,0.0
128755717,128754851,0.055521984,-0.0014702969,-0.06626828,-0.0,0.0,0.0,0.0,0.0
128760714,128759848,0.0556862,-0.0015171011,-0.06643786,-0.0,0.0,0.0,0.0,0.0
128765822,128764851,0.05571412,-0.0017410503,-0.066441864,-0.0,0.0,0.0,0.0,0.0
128770701,128769848,0.05561644,-0.0017789251,-0.066487774,-0.0,0.0,0.0,0.0,0.0
128775728,128774851,0.055548675,-0.0018902358,-0.0665602,-0.0,0.0,0.0,0.0,0.0
128780727,128779848,0.055477306,-0.0019044032,-0.06657217,-0.0,0.0,0.0,0.0,0.0
128785817,128784848,0.05543152,-0.0016901324,-0.06658464,-0.0,0.0,0.0,0.0,0.0
128790692,128789892,0.0552281,-0.0012522653,-0.06649234,-0.0,0.0,0.0,0.0,0.0
128795820,128794851,0.055076715,-0.0007491037,-0.066496275,-0.0,0.0,0.0,0.0,0.0
128800730,128799848,0.054917146,-0.0003028867,-0.06658912,-0.0,0.0,0.0,0.0,0.0
128805845,128804850,0.05486384,-7.46267e-06,-0.06657576,-0.0,0.0,0.0,0.0,0.0
128810697,128809853,0.054878842,0.00016399204,-0.066536695,-0.0,0.0,0.0,0.0,0.0
128815717,128814851,0.054676365,0.00020955899,-0.06645675,-0.0,0.0,0.0,0.0,0.0
128820744,128819850,0.054554258,0.0001455918,-0.06625775,-0.0,0.0,0.0,0.0,0.0
128825771,128824864,0.05463475,2.4379586e-05,-0.066053554,-0.0,0.0,0.0,0.0,0.0
128830708,128829850,0.054874115,-9.990544e-05,-0.06591588,-0.0,0.0,0.0,0.0,0.0
128835729,128834862,0.055162553,-0.0001263489,-0.065893725,-0.0,0.0,0.0,0.0,0.0
128840724,128839848,0.055322144,-0.0001248466,-0.06593454,-0.0,0.0,0.0,0.0,0.0
128845894,128844871,0.05533745,-0.00021613762,-0.065889806,-0.0,0.0,0.0,0.0,0.0
128850891,128849848,0.055225298,-0.00055081246,-0.06580319,-0.0,0.0,0.0,0.0,0.0
128855846,128854851,0.055084858,-0.00102896,-0.06571132,-0.0,0.0,0.0,0.0,0.0
128860889,128859848,0.05474952,-0.0014277564,-0.065547235,-0.0,0.0,0.0,0.0,0.0
128865913,128864886,0.05451523,-0.0016468881,-0.065367125,-0.0,0.0,0.0,0.0,0.0
128870864,128869848,0.054590985,-0.0018383607,-0.06520028,-0.0,0.0,0.0,0.0,0.0
128875765,128874893,0.054563064,-0.0018839977,-0.06506606,-0.0,0.0,0.0,0.0,0.0
128880730,128879850,0.05470709,-0.001950209,-0.065027945,-0.0,0.0,0.0,0.0,0.0
128885775,128884857,0.054972813,-0.0019270648,-0.065068305,-0.0,0.0,0.0,0.0,0.0
128890768,128889853,0.055290848,-0.0017792434,-0.06508295,-0.0,0.0,0.0,0.0,0.0
128895798,128894887,0.055709958,-0.0015678534,-0.06519316,-0.0,0.0,0.0,0.0,0.0
128900758,128899863,0.056028683,-0.0013409752,-0.065355904,-0.0,0.0,0.0,0.0,0.0
128905897,128904884,0.056114558,-0.0011461815,-0.065457985,-0.0,0.0,0.0,0.0,0.0
128910803,128909875,0.055852212,-0.0007942762,-0.06542355,-0.0,0.0,0.0,0.0,0.0
128915797,128914888,0.055489816,-0.000385985,-0.06543869,-0.0,0.0,0.0,0.0,0.0
128920737,128919885,0.05512022,-4.6974066e-05,-0.06539922,-0.0,0.0,0.0,0.0,0.0
128925797,128924879,0.05481608,0.00016067171,-0.065383926,-0.0,0.0,0.0,0.0,0.0
128930798,128929897,0.05461233,0.00049383804,-0.06547691,-0.0,0.0,0.0,0.0,0.0
128935960,128934894,0.054595437,0.0009394102,-0.06558227,-0.0,0.0,0.0,0.0,0.0
128940795,128939885,0.054737777,0.0013605277,-0.06561725,-0.0,0.0,0.0,0.0,0.0
128946013,128944875,0.055078972,0.001649528,-0.06567413,-0.0,0.0,0.0,0.0,0.0
128950790,128949858,0.05546015,0.0018379692,-0.06571409,-0.0,0.0,0.0,0.0,0.0
128955962,128954854,0.055666436,0.002000734,-0.065738305,-0.0,0.0,0.0,0.0,0.0
128960816,128959848,0.05570617,0.002029878,-0.065829955,-0.0,0.0,0.0,0.0,0.0
128965992,128964848,0.055696856,0.0020245593,-0.06591091,-0.0,0.0,0.0,0.0,0.0
128970904,128969848,0.0555627,0.0018895441,-0.06591097,-0.0,0.0,0.0,0.0,0.0
128975979,128974852,0.055433627,0.0017119942,-0.06585223,-0.0,0.0,0.0,0.0,0.0
128980828,128979851,0.05540098,0.0013454044,-0.06582274,-0.0,0.0,0.0,0.0,0.0
128985984,128984858,0.055530958,0.0010629657,-0.06588261,-0.0,0.0,0.0,0.0,0.0
128990834,128989851,0.055717353,0.00081763684,-0.065875046,-0.0,0.0,0.0,0.0,0.0
128995833,128994854,0.055859234,0.0006281955,-0.0658597,-0.0,0.0,0.0,0.0,0.0
129000753,128999889,0.055832062,0.00039154614,-0.06590977,-0.0,0.0,0.0,0.0,0.0
129005912,129004851,0.05577179,0.00014965839,-0.065960824,-0.0,0.0,0.0,0.0,0.0
129010933,129009855,0.055712007,-8.7923036e-05,-0.06583963,-0.0,0.0,0.0,0.0,0.0
129015926,129014857,0.055696055,-0.00032093178,-0.06573301,-0.0,0.0,0.0,0.0,0.0
129020938,129019851,0.055652898,-0.0005946465,-0.06573656,-0.0,0.0,0.0,0.0,0.0
129025832,129024848,0.05575595,-0.0006366004,-0.06580476,-0.0,0.0,0.0,0.0,0.0
129030831,129029848,0.055958197,-0.00071614695,-0.06581104,-0.0,0.0,0.0,0.0,0.0
129035923,129034851,0.056247197,-0.0008617007,-0.06585767,-0.0,0.0,0.0,0.0,0.0
129040712,129039848,0.05648069,-0.0009157867,-0.06588532,-0.0,0.0,0.0,0.0,0.0
129045781,129044863,0.056537114,-0.0006785654,-0.06587672,-0.0,0.0,0.0,0.0,0.0
129050824,129049848,0.056442033,-0.0004869971,-0.06589298,-0.0,0.0,0.0,0.0,0.0
129055860,129054851,0.05637653,-0.00024133216,-0.06594587,-0.0,0.0,0.0,0.0,0.0
129060853,129059848,0.05633525,8.165765e-06,-0.06591819,-0.0,0.0,0.0,0.0,0.0
129065846,129064848,0.05625754,0.00020597261,-0.06589063,-0.0,0.0,0.0,0.0,0.0
129070834,129069848,0.056272987,0.00050144235,-0.06597525,-0.0,0.0,0.0,0.0,0.0
129075863,129074851,0.056375224,0.00074347865,-0.06599595,-0.0,0.0,0.0,0.0,0.0
129080866,129079848,0.056359142,0.0006406619,-0.066054486,-0.0,0.0,0.0,0.0,0.0
129085803,129084852,0.0565237,0.00037821013,-0.066085726,-0.0,0.0,0.0,0.0,0.0
129090784,129089851,0.056672327,0.00021359975,-0.066052385,-0.0,0.0,0.0,0.0,0.0
129095960,129094851,0.056731932,0.0003243378,-0.0661399,-0.0,0.0,0.0,0.0,0.0
129100865,129099848,0.056781992,0.0005921286,-0.06620495,-0.0,0.0,0.0,0.0,0.0
129105834,129104886,0.056778476,0.0006634189,-0.06622721,-0.0,0.0,0.0,0.0,0.0
129110934,129109848,0.056652028,0.0005139865,-0.066256076,-0.0,0.0,0.0,0.0,0.0
129135724,129134863,0.056902308,-0.00023179228,-0.0661859,-0.0,0.0,0.0,0.0,0.0
129140860,129139852,0.056994446,-0.0002019944,-0.06617558,-0.0,0.0,0.0,0.0,0.0
129145868,129144852,0.05702253,2.002881e-05,-0.066216454,-0.0,0.0,0.0,0.0,0.0
129150779,129149848,0.056961186,0.00015085476,-0.066151895,-0.0,0.0,0.0,0.0,0.0
129155823,129154851,0.05688433,0.00029750905,-0.065985985,-0.0,0.0,0.0,0.0,0.0
129160897,129159851,0.056798123,0.0003989653,-0.06591901,-0.0,0.0,0.0,0.0,0.0
129165868,129164848,0.056748,0.00048085197,-0.06592418,-0.0,0.0,0.0,0.0,0.0
129170724,129169848,0.05676462,0.00024868778,-0.06582414,-0.0,0.0,0.0,0.0,0.0
129175730,129174851,0.05686916,9.597102e-07,-0.06570104,-0.0,0.0,0.0,0.0,0.0
129180735,129179848,0.05692583,-5.3424814e-05,-0.0657098,-0.0,0.0,0.0,0.0,0.0
129185749,129184848,0.056937896,-8.6543274e-05,-0.06582401,-0.0,0.0,0.0,0.0,0.0
129190694,129189858,0.056929756,-0.00019994,-0.06585907,-0.0,0.0,0.0,0.0,0.0
129195711,129194851,0.056918222,-0.0002691061,-0.06575767,-0.0,0.0,0.0,0.0,0.0
129200688,129199848,0.0568479,-0.00011695343,-0.06556463,-0.0,0.0,0.0,0.0,0.0
129205738,129204848,0.056798752,-1.6887298e-05,-0.06555263,-0.0,0.0,0.0,0.0,0.0
129210688,129209889,0.056747593,5.399076e-05,-0.06558357,-0.0,0.0,0.0,0.0,0.0
129215732,129214851,0.0568779,3.4297245e-05,-0.06565077,-0.0,0.0,0.0,0.0,0.0
129220695,129219848,0.056947555,-9.595067e-05,-0.065623425,-0.0,0.0,0.0,0.0,0.0
129225779,129224856,0.057004396,-2.483259e-05,-0.06555426,-0.0,0.0,0.0,0.0,0.0
129230659,129229849,0.05693257,0.00023078521,-0.065627016,-0.0,0.0,0.0,0.0,0.0
129235760,129234860,0.056847885,0.0003877687,-0.0656197,-0.0,0.0,0.0,0.0,0.0
129240694,129239848,0.056789253,0.0003344377,-0.06557341,-0.0,0.0,0.0,0.0,0.0
129245770,129244851,0.056776788,9.040114e-05,-0.06552766,-0.0,0.0,0.0,0.0,0.0
129250670,129249848,0.05662541,-5.0524e-05,-0.065527394,-0.0,0.0,0.0,0.0,0.0
129255719,129254851,0.056486256,-0.00019492977,-0.06556856,-0.0,0.0,0.0,0.0,0.0
129260704,129259849,0.056360997,-0.00015473721,-0.06554584,-0.0,0.0,0.0,0.0,0.0
129265720,129264853,0.056281712,8.99722e-05,-0.06546092,-0.0,0.0,0.0,0.0,0.0
129270825,129269848,0.056336258,0.00025866693,-0.06537917,-0.0,0.0,0.0,0.0,0.0
129275764,129274853,0.056470815,0.00026431167,-0.0653667,-0.0,0.0,0.0,0.0,0.0
129280762,129279849,0.056555424,0.000203114,-0.06545771,-0.0,0.0,0.0,0.0,0.0
129285847,129284900,0.05659426,-2.4382098e-05,-0.06559007,-0.0,0.0,0.0,0.0,0.0
129290844,129289850,0.056717064,-0.00024678963,-0.06564649,-0.0,0.0,0.0,0.0,0.0
129295768,129294851,0.056664333,-0.00022797039,-0.0656047,-0.0,0.0,0.0,0.0,0.0
129300785,129299849,0.056508202,-0.00013333502,-0.06553965,-0.0,0.0,0.0,0.0,0.0
129305697,129304848,0.05630537,-0.00021034044,-0.065509856,-0.0,0.0,0.0,0.0,0.0
129310790,129309848,0.056185912,-0.00026611006,-0.065546535,-0.0,0.0,0.0,0.0,0.0
129315710,129314895,0.0560412,-0.00029482704,-0.065580525,-0.0,0.0,0.0,0.0,0.0
129320764,129319851,0.055935636,-0.00036630037,-0.06561992,-0.0,0.0,0.0,0.0,0.0
129325735,129324853,0.055849478,-0.0004970494,-0.06563173,-0.0,0.0,0.0,0.0,0.0
129330785,129329852,0.055696044,-0.00044187342,-0.06567563,-0.0,0.0,0.0,0.0,0.0
129335734,129334887,0.055757433,-0.0004151417,-0.06582296,-0.0,0.0,0.0,0.0,0.0
129340711,129339854,0.055869244,-0.00044482265,-0.06595044,-0.0,0.0,0.0,0.0,0.0
129345738,129344863,0.055893812,-0.00043450197,-0.06598082,-0.0,0.0,0.0,0.0,0.0
129350715,129349859,0.055830147,-0.00045456688,-0.06597463,-0.0,0.0,0.0,0.0,0.0
129355750,129354861,0.0558284,-0.0003849273,-0.065949254,-0.0,0.0,0.0,0.0,0.0
129360690,129359848,0.055743985,-0.00021428808,-0.0660086,-0.0,0.0,0.0,0.0,0.0
129365810,129364848,0.05563328,-0.00012551814,-0.06604253,-0.0,0.0,0.0,0.0,0.0
129370726,129369848,0.055587802,-0.00025781433,-0.06606171,-0.0,0.0,0.0,0.0,0.0
129375842,129374859,0.05554148,-0.0003298921,-0.066063724,-0.0,0.0,0.0,0.0,0.0
129380690,129379848,0.055546176,-0.00033981205,-0.06596942,-0.0,0.0,0.0,0.0,0.0
129385847,129384865,0.0555173,-0.00037740375,-0.06591664,-0.0,0.0,0.0,0.0,0.0
129390751,129389859,0.055493046,-0.00041489396,-0.06590914,-0.0,0.0,0.0,0.0,0.0
129395859,129394851,0.055382766,-0.00039140054,-0.065884605,-0.0,0.0,0.0,0.0,0.0
129400712,129399848,0.055256784,-0.0001618097,-0.06592243,-0.0,0.0,0.0,0.0,0.0
129405815,129404871,0.055112664,4.8022954e-05,-0.06589272,-0.0,0.0,0.0,0.0,0.0
129410710,129409848,0.055014122,-7.250067e-05,-0.065771066,-0.0,0.0,0.0,0.0,0.0
129415794,129414851,0.054955058,-0.00014265624,-0.06566056,-0.0,0.0,0.0,0.0,0.0
129420711,129419895,0.055002075,-5.768455e-05,-0.06572146,-0.0,0.0,0.0,0.0,0.0
129425811,129424858,0.05509527,0.00014023962,-0.065750934,-0.0,0.0,0.0,0.0,0.0
129430717,129429848,0.055219546,0.0003780968,-0.06568297,-0.0,0.0,0.0,0.0,0.0
129435806,129434851,0.055202678,0.00033401148,-0.06558692,-0.0,0.0,0.0,0.0,0.0
129440704,129439859,0.05518102,0.0002858182,-0.06556498,-0.0,0.0,0.0,0.0,0.0
129445708,129444848,0.055079274,0.00026939856,-0.06549122,-0.0,0.0,0.0,0.0,0.0
129450708,129449848,0.05498536,0.00017248296,-0.06551338,-0.0,0.0,0.0,0.0,0.0
129455768,129454851,0.054936275,0.00012411778,-0.06552358,-0.0,0.0,0.0,0.0,0.0
129460752,129459851,0.05490729,-9.9116194e-05,-0.065520585,-0.0,0.0,0.0,0.0,0.0
129465731,129464849,0.054857235,-0.00030910096,-0.065542854,-0.0,0.0,0.0,0.0,0.0
129470696,129469848,0.054813866,-0.00037173775,-0.06548848,-0.0,0.0,0.0,0.0,0.0
129475745,129474851,0.05472813,-0.00029861217,-0.065480955,-0.0,0.0,0.0,0.0,0.0
129480686,129479851,0.054744475,-0.00032782188,-0.065470316,-0.0,0.0,0.0,0.0,0.0
129485720,129484848,0.054790076,-0.00037126237,-0.0654995,-0.0,0.0,0.0,0.0,0.0
129490718,129489850,0.0548436,-0.0003425233,-0.06563987,-0.0,0.0,0.0,0.0,0.0
129495770,129494851,0.054810446,-0.00032166598,-0.06585633,-0.0,0.0,0.0,0.0,0.0
129500757,129499848,0.054865118,-0.00031102938,-0.06591809,-0.0,0.0,0.0,0.0,0.0
129505715,129504848,0.054966602,-0.0004770325,-0.065754816,-0.0,0.0,0.0,0.0,0.0
129510718,129509850,0.055030577,-0.0005941943,-0.06561687,-0.0,0.0,0.0,0.0,0.0
129515738,129514851,0.055063922,-0.0005314433,-0.06560364,-0.0,0.0,0.0,0.0,0.0
129520751,129519858,0.055063445,-0.00034397296,-0.06558561,-0.0,0.0,0.0,0.0,0.0
129525724,129524881,0.055016328,-0.00028913058,-0.065584,-0.0,0.0,0.0,0.0,0.0
129530731,129529848,0.05489465,-0.00028561638,-0.06560586,-0.0,0.0,0.0,0.0,0.0
129535732,129534868,0.05473832,-0.000268531,-0.06555301,-0.0,0.0,0.0,0.0,0.0
129540782,129539848,0.054641984,-0.00027672306,-0.06542516,-0.0,0.0,0.0,0.0,0.0
129545711,129544863,0.054689262,-0.00025589962,-0.065429814,-0.0,0.0,0.0,0.0,0.0
129550724,129549848,0.054760944,-0.00032489622,-0.065459915,-0.0,0.0,0.0,0.0,0.0
129555748,129554870,0.054836005,-0.00044314313,-0.065419786,-0.0,0.0,0.0,0.0,0.0
129560763,129559850,0.054927483,-0.00028918186,-0.06535268,-0.0,0.0,0.0,0.0,0.0
129565720,129564862,0.05502324,-8.5441294e-05,-0.06536084,-0.0,0.0,0.0,0.0,0.0
129570721,129569850,0.0552345,5.5818586e-05,-0.06552029,-0.0,0.0,0.0,0.0,0.0
129575732,129574850,0.05536878,0.00020345111,-0.06553833,-0.0,0.0,0.0,0.0,0.0
129580734,129579860,0.0553308,0.00025055322,-0.06552101,-0.0,0.0,0.0,0.0,0.0
129585882,129584909,0.05529888,0.0002963986,-0.06559236,-0.0,0.0,0.0,0.0,0.0
129590818,129589861,0.055235516,0.00030570925,-0.06563544,-0.0,0.0,0.0,0.0,0.0
129595853,129594886,0.055182587,0.00041345585,-0.065596424,-0.0,0.0,0.0,0.0,0.0
129600835,129599852,0.055163637,0.00043474592,-0.06556425,-0.0,0.0,0.0,0.0,0.0
129605827,129604857,0.05514868,0.00044098697,-0.06558108,-0.0,0.0,0.0,0.0,0.0
129610764,129609892,0.05514578,0.00037111665,-0.06546343,-0.0,0.0,0.0,0.0,0.0
129615776,129614887,0.055196133,0.00031683288,-0.065329276,-0.0,0.0,0.0,0.0,0.0
129620739,129619868,0.055278886,0.0003657007,-0.0653509,-0.0,0.0,0.0,0.0,0.0
129625804,129624879,0.055444703,0.00029236992,-0.06544648,-0.0,0.0,0.0,0.0,0.0
129630760,129629911,0.055536956,4.4285116e-05,-0.06552912,-0.0,0.0,0.0,0.0,0.0
129635807,129634889,0.055568423,-8.1602164e-05,-0.06552692,-0.0,0.0,0.0,0.0,0.0
129640793,129639888,0.05583102,-0.0001820386,-0.06543872,-0.0,0.0,0.0,0.0,0.0
129645836,129644878,0.056026556,-0.00023064301,-0.065440774,-0.0,0.0,0.0,0.0,0.0
129650793,129649879,0.056097247,-0.00025288633,-0.06552594,-0.0,0.0,0.0,0.0,0.0
129655774,129654880,0.056134325,-0.0002722356,-0.06561222,-0.0,0.0,0.0,0.0,0.0
129660817,129659882,0.056112256,-0.0003515729,-0.06564502,-0.0,0.0,0.0,0.0,0.0
129665809,129664861,0.056040443,-0.00028681208,-0.06570961,-0.0,0.0,0.0,0.0,0.0
129670866,129669856,0.055907533,-0.00036832588,-0.06575442,-0.0,0.0,0.0,0.0,0.0
129675779,129674860,0.055758525,-0.00035688578,-0.06580848,-0.0,0.0,0.0,0.0,0.0
129680816,129679851,0.055712294,-0.00032308896,-0.06581173,-0.0,0.0,0.0,0.0,0.0
129685787,129684852,0.055728424,-0.00025944103,-0.06580638,-0.0,0.0,0.0,0.0,0.0
129690853,129689851,0.0558522,-0.00018055821,-0.065788575,-0.0,0.0,0.0,0.0,0.0
129695750,129694854,0.05599368,-0.00017948996,-0.06569266,-0.0,0.0,0.0,0.0,0.0
129700826,129699848,0.05620362,6.3904363e-06,-0.06576017,-0.0,0.0,0.0,0.0,0.0
129705772,129704848,0.056438588,0.00014647255,-0.06591581,-0.0,0.0,0.0,0.0,0.0
129710865,129709848,0.056522787,0.00013249379,-0.065996334,-0.0,0.0,0.0,0.0,0.0
129715746,129714851,0.056554057,0.0001181168,-0.0660275,-0.0,0.0,0.0,0.0,0.0
129720769,129719848,0.05663841,0.00022510413,-0.06601661,-0.0,0.0,0.0,0.0,0.0
129725774,129724855,0.056571085,0.000385095,-0.06601477,-0.0,0.0,0.0,0.0,0.0
129730780,129729850,0.056520365,0.00038074038,-0.06598166,-0.0,0.0,0.0,0.0,0.0
129735762,129734895,0.05653218,0.00035791966,-0.06597973,-0.0,0.0,0.0,0.0,0.0
129740892,129739863,0.056455072,0.00039596198,-0.06599321,-0.0,0.0,0.0,0.0,0.0
129745840,129744848,0.05625991,0.00039949614,-0.065960854,-0.0,0.0,0.0,0.0,0.0
129750880,129749863,0.05620868,0.00031274033,-0.06596789,-0.0,0.0,0.0,0.0,0.0
129755875,129754889,0.056283586,0.00034332342,-0.065882824,-0.0,0.0,0.0,0.0,0.0
129760886,129759848,0.056428116,0.000314266,-0.065875985,-0.0,0.0,0.0,0.0,0.0
129765870,129764848,0.05657823,0.00020195192,-0.06592939,-0.0,0.0,0.0,0.0,0.0
129770926,129769850,0.056626577,3.135855e-05,-0.06594309,-0.0,0.0,0.0,0.0,0.0
129775875,129774856,0.056629434,-0.000103847815,-0.06587696,-0.0,0.0,0.0,0.0,0.0
129780737,129779848,0.05669342,-0.00021335784,-0.06589093,-0.0,0.0,0.0,0.0,0.0
129785785,129784848,0.05666123,-0.00038971932,-0.06587764,-0.0,0.0,0.0,0.0,0.0
129790833,129789848,0.05657054,-0.0004479291,-0.06592414,-0.0,0.0,0.0,0.0,0.0
129795873,129794851,0.056556955,-0.00054600084,-0.06593756,-0.0,0.0,0.0,0.0,0.0
129800818,129799848,0.056649774,-0.0005784932,-0.06586873,-0.0,0.0,0.0,0.0,0.0
129805867,129804848,0.056692157,-0.00039903884,-0.065810375,-0.0,0.0,0.0,0.0,0.0
129810868,129809848,0.056749936,-0.00025017073,-0.065780066,-0.0,0.0,0.0,0.0,0.0
129815855,129814851,0.056772873,-0.00020629002,-0.06578681,-0.0,0.0,0.0,0.0,0.0
129820808,129819848,0.056749262,-8.928048e-05,-0.06576795,-0.0,0.0,0.0,0.0,0.0
129825782,129824853,0.056581,3.548497e-05,-0.065736264,-0.0,0.0,0.0,0.0,0.0
129830686,129829848,0.056580212,0.0002165491,-0.065774865,-0.0,0.0,0.0,0.0,0.0
129835849,129834851,0.056685977,0.0003308913,-0.06578095,-0.0,0.0,0.0,0.0,0.0
129840836,129839889,0.056771275,0.00028945718,-0.065773144,-0.0,0.0,0.0,0.0,0.0
129845858,129844848,0.05673696,0.00019501439,-0.065768175,-0.0,0.0,0.0,0.0,0.0
129850859,129849848,0.056654293,0.00029605394,-0.06579516,-0.0,0.0,0.0,0.0,0.0
129855893,129854851,0.05663702,0.00039529538,-0.065861546,-0.0,0.0,0.0,0.0,0.0
129860739,129859848,0.056619816,0.0004090087,-0.065818526,-0.0,0.0,0.0,0.0,0.0
129865818,129864848,0.05652415,0.000275183,-0.06579685,-0.0,0.0,0.0,0.0,0.0
129870682,129869848,0.056515254,0.00017269957,-0.065842085,-0.0,0.0,0.0,0.0,0.0
129875726,129874851,0.056495592,0.00011053432,-0.0657414,-0.0,0.0,0.0,0.0,0.0
129880688,129879848,0.056417946,-2.9717039e-05,-0.065717734,-0.0,0.0,0.0,0.0,0.0
129885834,129884848,0.05635265,-6.286476e-05,-0.06575625,-0.0,0.0,0.0,0.0,0.0
129890782,129889848,0.056287955,0.00010257858,-0.065770075,-0.0,0.0,0.0,0.0,0.0
129895708,129894851,0.056281317,0.00011498818,-0.065678984,-0.0,0.0,0.0,0.0,0.0
129900918,129899851,0.056353375,-5.107515e-05,-0.06566084,-0.0,0.0,0.0,0.0,0.0
129905788,129904861,0.056340396,-8.200253e-05,-0.065614395,-0.0,0.0,0.0,0.0,0.0
129910728,129909848,0.056282632,-0.00022383542,-0.06567895,-0.0,0.0,0.0,0.0,0.0
129915739,129914851,0.056353573,-0.00041066413,-0.065705284,-0.0,0.0,0.0,0.0,0.0
129920734,129919848,0.05638271,-0.00042752954,-0.06575946,-0.0,0.0,0.0,0.0,0.0
129925703,129924849,0.05637448,-0.00034156165,-0.06583233,-0.0,0.0,0.0,0.0,0.0
129930768,129929848,0.05629219,-0.00022678297,-0.06575079,-0.0,0.0,0.0,0.0,0.0
129935788,129934851,0.056040652,-0.00010555662,-0.065650694,-0.0,0.0,0.0,0.0,0.0
129940774,129939848,0.05598492,-3.341628e-05,-0.065665245,-0.0,0.0,0.0,0.0,0.0
129945770,129944880,0.056021947,6.1287346e-06,-0.06574432,-0.0,0.0,0.0,0.0,0.0
129950811,129949848,0.055999145,9.929082e-05,-0.065793484,-0.0,0.0,0.0,0.0,0.0
129955693,129954851,0.055997077,0.00017345956,-0.06583877,-0.0,0.0,0.0,0.0,0.0
129960750,129959850,0.056042243,0.000181653,-0.06585659,-0.0,0.0,0.0,0.0,0.0
129965703,129964868,0.056053307,0.0002443486,-0.06583586,-0.0,0.0,0.0,0.0,0.0
129970683,129969848,0.05597285,0.0003530905,-0.065865815,-0.0,0.0,0.0,0.0,0.0
129975768,129974851,0.055950068,0.00044303338,-0.06587675,-0.0,0.0,0.0,0.0,0.0
129980718,129979851,0.055955335,0.00030817906,-0.06591626,-0.0,0.0,0.0,0.0,0.0
129985744,129984858,0.05590043,0.00017035138,-0.06597688,-0.0,0.0,0.0,0.0,0.0
129990711,129989850,0.05584972,0.00012794536,-0.06601951,-0.0,0.0,0.0,0.0,0.0
129995697,129994854,0.05572105,0.00012519577,-0.065987065,-0.0,0.0,0.0,0.0,0.0
130000731,129999851,0.055643685,0.00026176652,-0.06593696,-0.0,0.0,0.0,0.0,0.0
130005682,130004851,0.055682506,0.00043613266,-0.06599579,-0.0,0.0,0.0,0.0,0.0
130010695,130009851,0.05571391,0.00037942955,-0.065963484,-0.0,0.0,0.0,0.0,0.0
130015709,130014853,0.055671487,0.0003353558,-0.06592898,-0.0,0.0,0.0,0.0,0.0
130020741,130019854,0.055563424,0.00025192337,-0.065900326,-0.0,0.0,0.0,0.0,0.0
130025741,130024851,0.055484574,0.00014746153,-0.065765135,-0.0,0.0,0.0,0.0,0.0
130030696,130029852,0.055569768,0.00014854452,-0.065734744,-0.0,0.0,0.0,0.0,0.0
130035699,130034854,0.055562418,0.00013144244,-0.065739654,-0.0,0.0,0.0,0.0,0.0
130040748,130039894,0.055455692,5.2729476e-05,-0.06575622,-0.0,0.0,0.0,0.0,0.0
130045733,130044848,0.055348184,-4.918117e-05,-0.06576783,-0.0,0.0,0.0,0.0,0.0
130050828,130049960,0.055405524,-0.00020328799,-0.06570269,-0.0,0.0,0.0,0.0,0.0
130055736,130054851,0.05548905,-0.0002072596,-0.06562885,-0.0,0.0,0.0,0.0,0.0
130060740,130059848,0.05549202,-0.00030917488,-0.0656659,-0.0,0.0,0.0,0.0,0.0
130065766,130064848,0.055386245,-0.00016154423,-0.06572624,-0.0,0.0,0.0,0.0,0.0
130070681,130069848,0.055237513,7.2570765e-06,-0.06563057,-0.0,0.0,0.0,0.0,0.0
130075743,130074851,0.05506371,8.1961676e-05,-0.06553423,-0.0,0.0,0.0,0.0,0.0
130080724,130079848,0.054980643,4.135244e-05,-0.06539375,-0.0,0.0,0.0,0.0,0.0
130085751,130084848,0.05501626,7.9521276e-05,-0.06537298,-0.0,0.0,0.0,0.0,0.0
130090664,130089848,0.055038575,7.327388e-05,-0.06533659,-0.0,0.0,0.0,0.0,0.0
130095718,130094851,0.055097617,-8.293699e-06,-0.065388925,-0.0,0.0,0.0,0.0,0.0
130100708,130099848,0.055095155,-8.680947e-05,-0.06545015,-0.0,0.0,0.0,0.0,0.0
130105742,130104849,0.055173986,-6.674156e-05,-0.06552971,-0.0,0.0,0.0,0.0,0.0
130110676,130109848,0.055242863,-9.902459e-05,-0.06557733,-0.0,0.0,0.0,0.0,0.0
130115736,130114854,0.055263665,-8.291047e-05,-0.06553124,-0.0,0.0,0.0,0.0,0.0
130120791,130119848,0.05517892,2.0386628e-06,-0.06549263,-0.0,0.0,0.0,0.0,0.0
130125771,130124851,0.05507051,5.287642e-06,-0.06545383,-0.0,0.0,0.0,0.0,0.0
130130846,130129850,0.0549525,0.000110552166,-0.06550756,-0.0,0.0,0.0,0.0,0.0
130135748,130134851,0.05489459,0.00011971728,-0.065483645,-0.0,0.0,0.0,0.0,0.0
130140819,130139857,0.054927725,0.00014172569,-0.065414585,-0.0,0.0,0.0,0.0,0.0
130145718,130144848,0.0549054,0.00010502009,-0.065372,-0.0,0.0,0.0,0.0,0.0
130150816,130149848,0.054902136,9.718314e-05,-0.06541664,-0.0,0.0,0.0,0.0,0.0
130155705,130154898,0.054850005,4.2283624e-05,-0.06546758,-0.0,0.0,0.0,0.0,0.0
130160836,130159848,0.05494569,-3.0524887e-05,-0.065453835,-0.0,0.0,0.0,0.0,0.0
130165707,130164849,0.054995134,-5.0600964e-05,-0.06545469,-0.0,0.0,0.0,0.0,0.0
130170856,130169848,0.054921437,2.7410731e-05,-0.0655423,-0.0,0.0,0.0,0.0,0.0
130175703,130174887,0.054875568,8.504329e-05,-0.06553256,-0.0,0.0,0.0,0.0,0.0
130180765,130179848,0.05504586,7.109668e-05,-0.06556617,-0.0,0.0,0.0,0.0,0.0
130185708,130184848,0.055107567,-4.0460694e-05,-0.06558955,-0.0,0.0,0.0,0.0,0.0
130190813,130189851,0.055279143,-6.133157e-05,-0.06561863,-0.0,0.0,0.0,0.0,0.0
130195695,130194857,0.055445928,-0.00011471904,-0.06564008,-0.0,0.0,0.0,0.0,0.0
130200809,130199857,0.055440396,-0.0002897793,-0.065674156,-0.0,0.0,0.0,0.0,0.0
130205725,130204849,0.05529924,-0.00039635532,-0.06566212,-0.0,0.0,0.0,0.0,0.0
130210737,130209854,0.05529763,-0.00047754275,-0.06569313,-0.0,0.0,0.0,0.0,0.0
130215773,130214851,0.055218287,-0.000520375,-0.06570511,-0.0,0.0,0.0,0.0,0.0
130220699,130219859,0.055217355,-0.00055932323,-0.065693066,-0.0,0.0,0.0,0.0,0.0
130225738,130224860,0.05533399,-0.00047057503,-0.06565691,-0.0,0.0,0.0,0.0,0.0
130230719,130229848,0.055262372,-0.00028485348,-0.0657262,-0.0,0.0,0.0,0.0,0.0
130235760,130234851,0.055305008,-0.00016505993,-0.06585559,-0.0,0.0,0.0,0.0,0.0
130240732,130239857,0.05534804,-0.00022766466,-0.06591191,-0.0,0.0,0.0,0.0,0.0
130245761,130244848,0.055404875,-0.0002082041,-0.06587415,-0.0,0.0,0.0,0.0,0.0
130250759,130249848,0.055356964,-0.00018477664,-0.06574384,-0.0,0.0,0.0,0.0,0.0
130255800,130254872,0.05537294,-0.00015837987,-0.0656486,-0.0,0.0,0.0,0.0,0.0
130260719,130259889,0.055332065,-5.4236294e-05,-0.06567611,-0.0,0.0,0.0,0.0,0.0
130265765,130264861,0.055362213,6.790454e-05,-0.065737635,-0.0,0.0,0.0,0.0,0.0
130270733,130269852,0.05547909,0.00022291101,-0.06577999,-0.0,0.0,0.0,0.0,0.0
130275791,130274851,0.055621494,0.0003242847,-0.06582013,-0.0,0.0,0.0,0.0,0.0
130280725,130279875,0.055754215,0.00023502657,-0.06579823,-0.0,0.0,0.0,0.0,0.0
130285755,130284886,0.055846997,0.00014711787,-0.06573013,-0.0,0.0,0.0,0.0,0.0
130290731,130289849,0.055839624,0.00011236684,-0.065728106,-0.0,0.0,0.0,0.0,0.0
130295752,130294851,0.05576724,3.8137397e-05,-0.06575343,-0.0,0.0,0.0,0.0,0.0
130300715,130299862,0.05569489,-3.11744e-06,-0.06569706,-0.0,0.0,0.0,0.0,0.0
130305717,130304849,0.0556115,-0.00018545601,-0.06566801,-0.0,0.0,0.0,0.0,0.0
130310752,130309851,0.055626888,-0.00031259144,-0.0656498,-0.0,0.0,0.0,0.0,0.0
130315770,130314890,0.0557683,-0.0001717261,-0.06567923,-0.0,0.0,0.0,0.0,0.0
130320695,130319849,0.055907656,0.00014171992,-0.065742604,-0.0,0.0,0.0,0.0,0.0
130325792,130324850,0.055978373,0.0004397228,-0.06575386,-0.0,0.0,0.0,0.0,0.0
130330844,130329872,0.056017593,0.0005263982,-0.06574434,-0.0,0.0,0.0,0.0,0.0
130335790,130334899,0.05605657,0.0003893709,-0.06578112,-0.0,0.0,0.0,0.0,0.0
130340851,130339873,0.056147277,0.00022962672,-0.06574144,-0.0,0.0,0.0,0.0,0.0
130345842,130344893,0.05619985,4.56627e-05,-0.065667175,-0.0,0.0,0.0,0.0,0.0
130350775,130349883,0.05613452,0.00013299061,-0.06561685,-0.0,0.0,0.0,0.0,0.0
130355773,130354885,0.056103893,0.00013176631,-0.06565037,-0.0,0.0,0.0,0.0,0.0
130360791,130359903,0.056151465,8.171476e-05,-0.06569868,-0.0,0.0,0.0,0.0,0.0
130365799,130364931,0.056160975,4.3514974e-05,-0.06573847,-0.0,0.0,0.0,0.0,0.0
130370776,130369873,0.05621965,5.6820838e-05,-0.06578598,-0.0,0.0,0.0,0.0,0.0
130375806,130374881,0.056340195,-2.6021446e-05,-0.065730356,-0.0,0.0,0.0,0.0,0.0
130380780,130379851,0.056437828,4.9820264e-05,-0.06576747,-0.0,0.0,0.0,0.0,0.0
130385805,130384853,0.056404825,5.7456262e-05,-0.065738395,-0.0,0.0,0.0,0.0,0.0
130390769,130389849,0.05637121,-0.00012829574,-0.06573302,-0.0,0.0,0.0,0.0,0.0
130395816,130394851,0.05636496,-0.00032839153,-0.06579696,-0.0,0.0,0.0,0.0,0.0
130400767,130399848,0.05627092,-0.00030889641,-0.06581842,-0.0,0.0,0.0,0.0,0.0
130405853,130404852,0.056260634,-0.00011392808,-0.065753914,-0.0,0.0,0.0,0.0,0.0
130410738,130409848,0.05633869,6.0388447e-05,-0.06578841,-0.0,0.0,0.0,0.0,0.0
130415837,130414854,0.056468148,-2.9451508e-05,-0.065844916,-0.0,0.0,0.0,0.0,0.0
130420783,130419848,0.05658669,-4.4525346e-05,-0.06578266,-0.0,0.0,0.0,0.0,0.0
130425840,130424852,0.056694742,-0.000113241535,-0.065779045,-0.0,0.0,0.0,0.0,0.0
130430768,130429848,0.056716625,-0.0002310994,-0.06581417,-0.0,0.0,0.0,0.0,0.0
130435953,130434851,0.05665398,-0.00033460176,-0.06587576,-0.0,0.0,0.0,0.0,0.0
130440789,130439848,0.05666544,-0.00014229021,-0.06596026,-0.0,0.0,0.0,0.0,0.0
130445801,130444848,0.056632385,2.262025e-05,-0.065969996,-0.0,0.0,0.0,0.0,0.0
130450774,130449848,0.056580845,0.00017034641,-0.065921925,-0.0,0.0,0.0,0.0,0.0
130455787,130454851,0.056586012,0.00027535856,-0.06594698,-0.0,0.0,0.0,0.0,0.0
130460756,130459848,0.056517117,0.00040404094,-0.06593444,-0.0,0.0,0.0,0.0,0.0
130465830,130464869,0.056545198,0.0005611038,-0.066014305,-0.0,0.0,0.0,0.0,0.0
130470839,130469892,0.056673747,0.00045028262,-0.06606857,-0.0,0.0,0.0,0.0,0.0
130475793,130474851,0.056686796,0.00029151674,-0.066097245,-0.0,0.0,0.0,0.0,0.0
130480846,130479848,0.056598287,0.00019084748,-0.06601841,-0.0,0.0,0.0,0.0,0.0
130485890,130484848,0.056548078,0.00024234585,-0.06592034,-0.0,0.0,0.0,0.0,0.0
130490875,130489852,0.05654502,0.00029950464,-0.06587985,-0.0,0.0,0.0,0.0,0.0
130495839,130494851,0.05652705,0.00042211468,-0.06591787,-0.0,0.0,0.0,0.0,0.0
130500901,130499848,0.056603443,0.00071309606,-0.065987326,-0.0,0.0,0.0,0.0,0.0
130505870,130504848,0.05673757,0.0007820468,-0.065936126,-0.0,0.0,0.0,0.0,0.0
130510904,130509848,0.05663402,0.0006266073,-0.06579423,-0.0,0.0,0.0,0.0,0.0
130515841,130514851,0.056536265,0.0005612805,-0.06577521,-0.0,0.0,0.0,0.0,0.0
130520674,130519848,0.056428805,0.00047189073,-0.06579183,-0.0,0.0,0.0,0.0,0.0
130525797,130524849,0.05643128,0.00037975566,-0.06581911,-0.0,0.0,0.0,0.0,0.0
130530677,130529848,0.056410998,0.00020296725,-0.06580842,-0.0,0.0,0.0,0.0,0.0
130535846,130534851,0.056414213,0.00019032706,-0.06576752,-0.0,0.0,0.0,0.0,0.0
130540840,130539848,0.05644511,0.00023978879,-0.065745294,-0.0,0.0,0.0,0.0,0.0
130545849,130544848,0.056455687,0.00031527202,-0.06573422,-0.0,0.0,0.0,0.0,0.0
130550850,130549848,0.05646678,0.00030247713,-0.065768406,-0.0,0.0,0.0,0.0,0.0
130555826,130554851,0.05644103,0.0002537839,-0.06573994,-0.0,0.0,0.0,0.0,0.0
130560829,130559848,0.056210723,0.00014219021,-0.06568388,-0.0,0.0,0.0,0.0,0.0
130565691,130564851,0.05611655,-1.8004359e-05,-0.06570829,-0.0,0.0,0.0,0.0,0.0
130570721,130569848,0.056148462,-8.148945e-05,-0.06570224,-0.0,0.0,0.0,0.0,0.0
130575719,130574895,0.056178503,4.9293718e-05,-0.065701604,-0.0,0.0,0.0,0.0,0.0
130580869,130579848,0.05616187,0.00011691365,-0.06558435,-0.0,0.0,0.0,0.0,0.0
130585685,130584848,0.056163404,-3.381819e-05,-0.0655306,-0.0,0.0,0.0,0.0,0.0
130590910,130589850,0.056156415,-0.00020074888,-0.06559282,-0.0,0.0,0.0,0.0,0.0
130595828,130594887,0.056098804,-0.00038227162,-0.06558168,-0.0,0.0,0.0,0.0,0.0
130600838,130599848,0.05604611,-0.00027316366,-0.06553769,-0.0,0.0,0.0,0.0,0.0
130605691,130604852,0.055897005,-5.188765e-05,-0.06554437,-0.0,0.0,0.0,0.0,0.0
130610730,130609848,0.055822205,3.9362643e-05,-0.06551873,-0.0,0.0,0.0,0.0,0.0
130615674,130614864,0.05572155,-2.0326765e-05,-0.065559655,-0.0,0.0,0.0,0.0,0.0
130620709,130619858,0.055703502,4.3138545e-05,-0.06556497,-0.0,0.0,0.0,0.0,0.0
130625777,130624848,0.055690728,0.00026603125,-0.06553336,-0.0,0.0,0.0,0.0,0.0
130630788,130629848,0.055660274,0.000314454,-0.06550223,-0.0,0.0,0.0,0.0,0.0
130635801,130634851,0.05574672,0.0002071568,-0.065658405,-0.0,0.0,0.0,0.0,0.0
130640885,130639848,0.055896875,9.6867065e-05,-0.06576155,-0.0,0.0,0.0,0.0,0.0
130645787,130644855,0.055937935,-1.526628e-05,-0.06573376,-0.0,0.0,0.0,0.0,0.0
130650764,130649848,0.055833533,-0.00017673703,-0.06575878,-0.0,0.0,0.0,0.0,0.0
130655744,130654851,0.055710237,-8.419181e-05,-0.06579511,-0.0,0.0,0.0,0.0,0.0
130660692,130659848,0.055658925,1.1317142e-05,-0.06581206,-0.0,0.0,0.0,0.0,0.0
130665750,130664850,0.05571668,-1.34787315e-05,-0.06576337,-0.0,0.0,0.0,0.0,0.0
130670784,130669851,0.055656034,-2.8361535e-05,-0.065829255,-0.0,0.0,0.0,0.0,0.0
130675738,130674854,0.055552736,-2.6634676e-05,-0.065923706,-0.0,0.0,0.0,0.0,0.0
130680751,130679889,0.055482805,4.062391e-05,-0.06598367,-0.0,0.0,0.0,0.0,0.0
130685825,130684851,0.05557027,0.00011291239,-0.066028774,-0.0,0.0,0.0,0.0,0.0
130690769,130689851,0.055596653,0.00013613142,-0.066050805,-0.0,0.0,0.0,0.0,0.0
130700659,130699852,0.055464726,4.7907313e-05,-0.06609437,-0.0,0.0,0.0,0.0,0.0
130705732,130704861,0.055383347,2.0170302e-05,-0.06611819,-0.0,0.0,0.0,0.0,0.0
130710712,130709848,0.055377137,8.184656e-05,-0.06597771,-0.0,0.0,0.0,0.0,0.0
130715790,130714854,0.055448417,5.893236e-05,-0.065837994,-0.0,0.0,0.0,0.0,0.0
130720689,130719855,0.05540518,0.00014098392,-0.06578237,-0.0,0.0,0.0,0.0,0.0
130725755,130724862,0.055389967,0.0001153493,-0.065914586,-0.0,0.0,0.0,0.0,0.0
130730715,130729848,0.05545189,4.2242547e-05,-0.06602559,-0.0,0.0,0.0,0.0,0.0
130735725,130734851,0.055346,8.145545e-05,-0.066043675,-0.0,0.0,0.0,0.0,0.0
130745706,130744850,0.055237763,7.411277e-05,-0.06577179,-0.0,0.0,0.0,0.0,0.0
130750730,130749848,0.05511149,2.5646235e-05,-0.06576767,-0.0,0.0,0.0,0.0,0.0
130755719,130754851,0.054983404,0.0001483152,-0.06577562,-0.0,0.0,0.0,0.0,0.0
130760749,130759848,0.055062328,0.0003051148,-0.065742135,-0.0,0.0,0.0,0.0,0.0
130765699,130764849,0.055277392,0.00026953165,-0.065755814,-0.0,0.0,0.0,0.0,0.0
130770712,130769848,0.055356286,8.142701e-05,-0.06571239,-0.0,0.0,0.0,0.0,0.0
130775702,130774855,0.055292778,-4.701302e-05,-0.06570253,-0.0,0.0,0.0,0.0,0.0
130780735,130779851,0.05523069,-8.558398e-05,-0.06568292,-0.0,0.0,0.0,0.0,0.0
130785694,130784889,0.055364426,4.189414e-05,-0.065620504,-0.0,0.0,0.0,0.0,0.0
130790789,130789848,0.055376735,-4.188433e-05,-0.06555516,-0.0,0.0,0.0,0.0,0.0
130795825,130794883,0.055275105,-0.00014663317,-0.06548963,-0.0,0.0,0.0,0.0,0.0
130800881,130799848,0.05519301,6.9913156e-05,-0.065498315,-0.0,0.0,0.0,0.0,0.0
130805777,130804868,0.055192553,0.0002799864,-0.06556353,-0.0,0.0,0.0,0.0,0.0
130810784,130809848,0.055151284,2.20753e-05,-0.06562111,-0.0,0.0,0.0,0.0,0.0
130815815,130814851,0.05514435,-0.00025731826,-0.06567185,-0.0,0.0,0.0,0.0,0.0
130820811,130819855,0.055142954,-0.0003653605,-0.065686405,-0.0,0.0,0.0,0.0,0.0
130825705,130824863,0.055126574,-0.00016168554,-0.06564102,-0.0,0.0,0.0,0.0,0.0
130830707,130829848,0.05516815,0.00018868854,-0.06550891,-0.0,0.0,0.0,0.0,0.0
130835741,130834851,0.055186413,0.00035284093,-0.06551763,-0.0,0.0,0.0,0.0,0.0
130840729,130839849,0.055193014,0.00019709012,-0.065567724,-0.0,0.0,0.0,0.0,0.0
130845785,130844849,0.055272292,2.9610084e-05,-0.06557265,-0.0,0.0,0.0,0.0,0.0
130850720,130849848,0.055311393,-0.00014360722,-0.06553708,-0.0,0.0,0.0,0.0,0.0
130855747,130854851,0.05535952,-0.00024199224,-0.065436415,-0.0,0.0,0.0,0.0,0.0
130860719,130859848,0.05532406,-0.00036709078,-0.065325946,-0.0,0.0,0.0,0.0,0.0
130865897,130864872,0.0553205,-0.00032542666,-0.06532975,-0.0,0.0,0.0,0.0,0.0
130870696,130869848,0.05523012,-0.0001653408,-0.06535732,-0.0,0.0,0.0,0.0,0.0
130875807,130874851,0.05522391,-6.1458384e-05,-0.065357804,-0.0,0.0,0.0,0.0,0.0
130880697,130879848,0.055359997,-5.8008944e-05,-0.06539778,-0.0,0.0,0.0,0.0,0.0
130885850,130884860,0.05545406,-0.00021429558,-0.065403394,-0.0,0.0,0.0,0.0,0.0
130890722,130889898,0.055533193,-0.0002561675,-0.0655305,-0.0,0.0,0.0,0.0,0.0
130895838,130894851,0.05559501,-0.000105291714,-0.06560123,-0.0,0.0,0.0,0.0,0.0
130900726,130899857,0.05549132,0.00012360097,-0.06560633,-0.0,0.0,0.0,0.0,0.0
130905852,130904848,0.055445142,0.00022068738,-0.0656565,-0.0,0.0,0.0,0.0,0.0
130910685,130909865,0.055404406,7.982452e-05,-0.065757595,-0.0,0.0,0.0,0.0,0.0
130915756,130914851,0.055333275,7.1257506e-07,-0.065847404,-0.0,0.0,0.0,0.0,0.0
130920716,130919851,0.05547161,0.00020229352,-0.06592436,-0.0,0.0,0.0,0.0,0.0
130925830,130924848,0.05561182,0.0003680595,-0.06588326,-0.0,0.0,0.0,0.0,0.0
130930698,130929848,0.055713534,0.0005244458,-0.06582962,-0.0,0.0,0.0,0.0,0.0
130935764,130934851,0.05570315,0.000418571,-0.065885305,-0.0,0.0,0.0,0.0,0.0
130940773,130939855,0.055701394,0.00034776801,-0.06602175,-0.0,0.0,0.0,0.0,0.0
130945823,130944849,0.055732585,0.00036847082,-0.06601389,-0.0,0.0,0.0,0.0,0.0
130950818,130949848,0.055816304,0.0003455131,-0.065978974,-0.0,0.0,0.0,0.0,0.0
130955736,130954851,0.055908598,0.00027116947,-0.065942615,-0.0,0.0,0.0,0.0,0.0
130960722,130959849,0.055843703,0.0002107998,-0.065925516,-0.0,0.0,0.0,0.0,0.0
130965744,130964863,0.055789545,0.00021760773,-0.06591408,-0.0,0.0,0.0,0.0,0.0
130970752,130969848,0.055847805,0.0003370231,-0.06588573,-0.0,0.0,0.0,0.0,0.0
130975756,130974865,0.055926573,0.00025455662,-0.06580632,-0.0,0.0,0.0,0.0,0.0
130980722,130979851,0.055828888,8.168904e-05,-0.06581279,-0.0,0.0,0.0,0.0,0.0
130985759,130984866,0.05585358,-0.00012369402,-0.06592168,-0.0,0.0,0.0,0.0,0.0
130990760,130989849,0.055918217,-0.0003601514,-0.065920256,-0.0,0.0,0.0,0.0,0.0
130995749,130994895,0.0560299,-0.0004375317,-0.065873146,-0.0,0.0,0.0,0.0,0.0
131000761,130999859,0.05610692,-0.0003627553,-0.06586907,-0.0,0.0,0.0,0.0,0.0
131005766,131004886,0.056189068,-0.00030933574,-0.06585769,-0.0,0.0,0.0,0.0,0.0
131010771,131009852,0.05611868,-0.00019941683,-0.0659062,-0.0,0.0,0.0,0.0,0.0
131015799,131014888,0.056042723,1.0823005e-05,-0.06590832,-0.0,0.0,0.0,0.0,0.0
131020739,131019851,0.056117177,0.00018779591,-0.0658434,-0.0,0.0,0.0,0.0,0.0
131025816,131024872,0.05618727,0.00025129333,-0.06574277,-0.0,0.0,0.0,0.0,0.0
131030763,131029851,0.05623749,0.00033325216,-0.065689735,-0.0,0.0,0.0,0.0,0.0
131035713,131034872,0.0563054,0.00021751359,-0.06570606,-0.0,0.0,0.0,0.0,0.0
131040798,131039865,0.056249782,4.5723733e-05,-0.065717235,-0.0,0.0,0.0,0.0,0.0
131045770,131044898,0.0561627,8.89408e-05,-0.06564415,-0.0,0.0,0.0,0.0,0.0
131050797,131049872,0.05619278,0.00025312035,-0.06562591,-0.0,0.0,0.0,0.0,0.0
131055810,131054887,0.056247383,0.0002516745,-0.06565699,-0.0,0.0,0.0,0.0,0.0
131060762,131059878,0.056265634,0.00026597775,-0.06567418,-0.0,0.0,0.0,0.0,0.0
131065760,131064883,0.05631389,0.00016862983,-0.06570598,-0.0,0.0,0.0,0.0,0.0
131070792,131069888,0.056369387,0.00015733577,-0.06570986,-0.0,0.0,0.0,0.0,0.0
131075797,131074899,0.056336243,0.00027315321,-0.065639734,-0.0,0.0,0.0,0.0,0.0
131080750,131079874,0.056367822,0.00035757932,-0.06559321,-0.0,0.0,0.0,0.0,0.0
131085768,131084884,0.05638422,0.00025815316,-0.06568001,-0.0,0.0,0.0,0.0,0.0
131090773,131089882,0.0563956,0.00021444351,-0.06569643,-0.0,0.0,0.0,0.0,0.0
131095789,131094854,0.05645552,0.00023260836,-0.065671876,-0.0,0.0,0.0,0.0,0.0
131100750,131099898,0.05643497,0.0003128919,-0.06565211,-0.0,0.0,0.0,0.0,0.0
131105801,131104848,0.05642508,0.00038004544,-0.06563332,-0.0,0.0,0.0,0.0,0.0
131110788,131109878,0.05645626,0.0003552006,-0.06569335,-0.0,0.0,0.0,0.0,0.0
131115798,131114851,0.056520164,0.00033295798,-0.06576919,-0.0,0.0,0.0,0.0,0.0
131120741,131119873,0.056549415,0.0003151149,-0.0658374,-0.0,0.0,0.0,0.0,0.0
131125776,131124861,0.05640661,0.00019196697,-0.065844335,-0.0,0.0,0.0,0.0,0.0
131130799,131129858,0.056308165,9.764741e-05,-0.06576435,-0.0,0.0,0.0,0.0,0.0
131135786,131134851,0.056272812,0.00013933326,-0.0657243,-0.0,0.0,0.0,0.0,0.0
131140872,131139851,0.056360774,0.0001846947,-0.06578998,-0.0,0.0,0.0,0.0,0.0
131145763,131144848,0.056498993,0.00013683792,-0.06588197,-0.0,0.0,0.0,0.0,0.0
131150820,131149857,0.056532208,0.00010422536,-0.06592107,-0.0,0.0,0.0,0.0,0.0
131155798,131154851,0.056473315,0.0001275536,-0.06594129,-0.0,0.0,0.0,0.0,0.0
131160840,131159851,0.056346126,0.000119349,-0.06596518,-0.0,0.0,0.0,0.0,0.0
131165756,131164849,0.056229632,0.00011865119,-0.06592093,-0.0,0.0,0.0,0.0,0.0
131170837,131169850,0.05626364,0.00016810876,-0.06585387,-0.0,0.0,0.0,0.0,0.0
131175893,131174851,0.0562671,0.0002638974,-0.06586305,-0.0,0.0,0.0,0.0,0.0
131180913,131179851,0.056252874,0.0002133823,-0.06593778,-0.0,0.0,0.0,0.0,0.0
131185841,131184848,0.056273904,-3.1271822e-05,-0.065913945,-0.0,0.0,0.0,0.0,0.0
131190908,131189848,0.056257352,-0.00013234862,-0.065923415,-0.0,0.0,0.0,0.0,0.0
131195819,131194851,0.05630363,-0.00021345828,-0.065919444,-0.0,0.0,0.0,0.0,0.0
131200881,131199851,0.05637758,-0.00030331424,-0.065885976,-0.0,0.0,0.0,0.0,0.0
131205837,131204886,0.056342285,-0.0003632603,-0.06583372,-0.0,0.0,0.0,0.0,0.0
131210940,131209848,0.05636911,-0.00026639595,-0.0658221,-0.0,0.0,0.0,0.0,0.0
131215733,131214851,0.056283277,-3.4619893e-06,-0.06583015,-0.0,0.0,0.0,0.0,0.0
131220867,131219848,0.05618372,0.00015428214,-0.06580178,-0.0,0.0,0.0,0.0,0.0
131225806,131224857,0.05612863,0.0002017162,-0.06571277,-0.0,0.0,0.0,0.0,0.0
131230885,131229848,0.056047067,0.00020190766,-0.06566368,-0.0,0.0,0.0,0.0,0.0
131235836,131234851,0.056071654,0.00021108214,-0.065681875,-0.0,0.0,0.0,0.0,0.0
131240946,131239848,0.056102674,0.00012131695,-0.0656347,-0.0,0.0,0.0,0.0,0.0
131245866,131244852,0.056118824,0.0001738691,-0.06558406,-0.0,0.0,0.0,0.0,0.0
131250832,131249848,0.056111243,0.00014881762,-0.065642565,-0.0,0.0,0.0,0.0,0.0
131255839,131254851,0.05592713,6.772284e-05,-0.06569717,-0.0,0.0,0.0,0.0,0.0
131260701,131259849,0.05585092,0.000106430176,-0.06560247,-0.0,0.0,0.0,0.0,0.0
131265704,131264849,0.055867244,0.00016421943,-0.065620326,-0.0,0.0,0.0,0.0,0.0
131270837,131269860,0.055803902,5.1042298e-05,-0.06569428,-0.0,0.0,0.0,0.0,0.0
131275835,131274851,0.055751402,1.4517695e-05,-0.06573942,-0.0,0.0,0.0,0.0,0.0
131280838,131279848,0.05572503,-7.525774e-07,-0.06573995,-0.0,0.0,0.0,0.0,0.0
131285862,131284848,0.05573444,-2.7694775e-06,-0.06576196,-0.0,0.0,0.0,0.0,0.0
131290813,131289848,0.055669144,2.5334813e-05,-0.06571121,-0.0,0.0,0.0,0.0,0.0
131295853,131294851,0.055612583,-0.0001803445,-0.0656716,-0.0,0.0,0.0,0.0,0.0
131300677,131299851,0.055643737,-0.00032202023,-0.06569923,-0.0,0.0,0.0,0.0,0.0
131305740,131304853,0.055594224,-0.0002682966,-0.06569863,-0.0,0.0,0.0,0.0,0.0
131310695,131309899,0.055598974,-0.00016564077,-0.065758,-0.0,0.0,0.0,0.0,0.0
131315917,131314853,0.05560673,-0.00013721774,-0.06571539,-0.0,0.0,0.0,0.0,0.0
131320770,131319849,0.05564184,-6.4946034e-05,-0.06564296,-0.0,0.0,0.0,0.0,0.0
131325889,131324850,0.055657852,9.975605e-05,-0.06569145,-0.0,0.0,0.0,0.0,0.0
131330775,131329848,0.05564995,0.00016078816,-0.06573256,-0.0,0.0,0.0,0.0,0.0
131335770,131334851,0.05560986,6.1277875e-05,-0.06575749,-0.0,0.0,0.0,0.0,0.0
131340788,131339853,0.055600937,-0.000101451165,-0.06576065,-0.0,0.0,0.0,0.0,0.0
131345725,131344851,0.055469632,-0.0001677891,-0.0656325,-0.0,0.0,0.0,0.0,0.0
131350681,131349860,0.055387404,-0.00016491406,-0.06554926,-0.0,0.0,0.0,0.0,0.0
131355699,131354854,0.055352475,-0.00016211568,-0.06566346,-0.0,0.0,0.0,0.0,0.0
131360729,131359860,0.055476204,-0.00013859115,-0.06576469,-0.0,0.0,0.0,0.0,0.0
131365756,131364861,0.055511568,-0.00013518975,-0.065747835,-0.0,0.0,0.0,0.0,0.0
131370686,131369854,0.055535328,-0.00015286227,-0.06570534,-0.0,0.0,0.0,0.0,0.0
131375691,131374854,0.05548547,2.886742e-05,-0.06563498,-0.0,0.0,0.0,0.0,0.0
131380757,131379853,0.0554511,0.00016968958,-0.065725476,-0.0,0.0,0.0,0.0,0.0
131385716,131384848,0.055465348,0.00024152221,-0.065810345,-0.0,0.0,0.0,0.0,0.0
131390780,131389848,0.055466298,0.00029668247,-0.065815225,-0.0,0.0,0.0,0.0,0.0
131395702,131394851,0.055342574,0.00021424866,-0.065744594,-0.0,0.0,0.0,0.0,0.0
131400694,131399849,0.055282157,9.62238e-05,-0.065693825,-0.0,0.0,0.0,0.0,0.0
131405721,131404849,0.055239808,-1.223439e-05,-0.06560028,-0.0,0.0,0.0,0.0,0.0
131410714,131409848,0.055262413,-6.148214e-05,-0.06566978,-0.0,0.0,0.0,0.0,0.0
131415732,131414895,0.05527624,-4.9961163e-05,-0.065782115,-0.0,0.0,0.0,0.0,0.0
131420720,131419848,0.05525273,-4.8527076e-05,-0.06571871,-0.0,0.0,0.0,0.0,0.0
131425731,131424857,0.055206638,-2.605557e-05,-0.065642595,-0.0,0.0,0.0,0.0,0.0
131430756,131429848,0.055164896,-6.755805e-05,-0.06570889,-0.0,0.0,0.0,0.0,0.0
131435715,131434897,0.055221453,-1.6748385e-05,-0.065765515,-0.0,0.0,0.0,0.0,0.0
131440688,131439856,0.055290844,4.7610687e-05,-0.06569645,-0.0,0.0,0.0,0.0,0.0
131445726,131444855,0.05533574,9.359126e-05,-0.065605424,-0.0,0.0,0.0,0.0,0.0
131450721,131449848,0.055331543,0.00018024932,-0.06553006,-0.0,0.0,0.0,0.0,0.0
131455761,131454859,0.05533739,5.8261972e-05,-0.065612055,-0.0,0.0,0.0,0.0,0.0
131460696,131459852,0.055293217,-6.4186795e-05,-0.065587185,-0.0,0.0,0.0,0.0,0.0
131465764,131464850,0.055240802,-9.962021e-05,-0.06552639,-0.0,0.0,0.0,0.0,0.0
131470725,131469855,0.05527896,-0.00017374959,-0.06551594,-0.0,0.0,0.0,0.0,0.0
131475666,131474850,0.055283085,-5.578483e-05,-0.065436624,-0.0,0.0,0.0,0.0,0.0
131480721,131479851,0.055366706,-8.84468e-05,-0.06536271,-0.0,0.0,0.0,0.0,0.0
131485708,131484850,0.05542921,-9.645612e-05,-0.06540463,-0.0,0.0,0.0,0.0,0.0
131490812,131489849,0.055424828,-6.0239625e-05,-0.06547626,-0.0,0.0,0.0,0.0,0.0
131495797,131494851,0.05544025,-1.7092983e-05,-0.06556775,-0.0,0.0,0.0,0.0,0.0
131500773,131499851,0.055357117,-2.9576717e-05,-0.06564492,-0.0,0.0,0.0,0.0,0.0
131505769,131504853,0.05529743,2.5368478e-05,-0.06560541,-0.0,0.0,0.0,0.0,0.0
131510800,131509848,0.055291034,2.6679443e-05,-0.06550874,-0.0,0.0,0.0,0.0,0.0
131515824,131514860,0.05528628,-2.7392347e-05,-0.0654008,-0.0,0.0,0.0,0.0,0.0
131520713,131519897,0.055313777,4.309111e-06,-0.065380454,-0.0,0.0,0.0,0.0,0.0
131525744,131524851,0.055405136,1.6956892e-05,-0.06547742,-0.0,0.0,0.0,0.0,0.0
131530702,131529848,0.05548779,4.2708566e-06,-0.06553783,-0.0,0.0,0.0,0.0,0.0
131535777,131534853,0.05546081,-0.0001599772,-0.06558052,-0.0,0.0,0.0,0.0,0.0
131540673,131539850,0.055326767,-0.00016150837,-0.06556907,-0.0,0.0,0.0,0.0,0.0
131545732,131544857,0.055260547,0.00010873623,-0.065568276,-0.0,0.0,0.0,0.0,0.0
131550696,131549850,0.055352308,0.00010564366,-0.06555625,-0.0,0.0,0.0,0.0,0.0
131555748,131554859,0.055392012,-2.6822348e-05,-0.06556609,-0.0,0.0,0.0,0.0,0.0
131560701,131559869,0.055449005,-0.000114828064,-0.06551114,-0.0,0.0,0.0,0.0,0.0
131565728,131564860,0.05544246,-0.00017211505,-0.065552466,-0.0,0.0,0.0,0.0,0.0
131570755,131569905,0.055535518,-0.00011881558,-0.06571009,-0.0,0.0,0.0,0.0,0.0
131575744,131574850,0.05566768,7.83697e-05,-0.0658033,-0.0,0.0,0.0,0.0,0.0
131580692,131579850,0.055743985,0.00013346886,-0.065831974,-0.0,0.0,0.0,0.0,0.0
131585722,131584859,0.055721764,-1.0283615e-05,-0.06580342,-0.0,0.0,0.0,0.0,0.0
131590719,131589858,0.05572072,3.9596845e-05,-0.06590059,-0.0,0.0,0.0,0.0,0.0
131595737,131594850,0.055677548,-2.689934e-05,-0.06594929,-0.0,0.0,0.0,0.0,0.0
131600727,131599850,0.055634186,-0.00012349508,-0.06576399,-0.0,0.0,0.0,0.0,0.0
131605704,131604850,0.055799372,-0.00022423515,-0.0657366,-0.0,0.0,0.0,0.0,0.0
131610706,131609850,0.055837758,-0.00012573012,-0.06578995,-0.0,0.0,0.0,0.0,0.0
131615694,131614850,0.0558677,-4.1856536e-05,-0.065892875,-0.0,0.0,0.0,0.0,0.0
131620757,131619850,0.05582311,-6.0669285e-05,-0.065980434,-0.0,0.0,0.0,0.0,0.0
131625688,131624877,0.055823937,-0.00012385256,-0.065938935,-0.0,0.0,0.0,0.0,0.0
131630755,131629850,0.055831343,-0.00019212475,-0.065934375,-0.0,0.0,0.0,0.0,0.0
131635698,131634850,0.055955783,-0.00017948842,-0.06606085,-0.0,0.0,0.0,0.0,0.0
131640802,131639850,0.05602767,-0.00015305546,-0.06610593,-0.0,0.0,0.0,0.0,0.0
131645704,131644880,0.056051243,-9.643746e-05,-0.06601118,-0.0,0.0,0.0,0.0,0.0
131650803,131649850,0.056018602,-0.00014803259,-0.065986924,-0.0,0.0,0.0,0.0,0.0
131655711,131654855,0.055995747,-0.00018522168,-0.065952174,-0.0,0.0,0.0,0.0,0.0
131660834,131659852,0.056041285,-8.668375e-05,-0.06588351,-0.0,0.0,0.0,0.0,0.0
131665732,131664899,0.056091644,4.339866e-05,-0.06595034,-0.0,0.0,0.0,0.0,0.0
131670811,131669856,0.056122337,5.1454317e-05,-0.06592345,-0.0,0.0,0.0,0.0,0.0
131675743,131674857,0.05614787,2.53262e-05,-0.06584307,-0.0,0.0,0.0,0.0,0.0
131680828,131679853,0.056149356,-8.3901214e-05,-0.0658218,-0.0,0.0,0.0,0.0,0.0
131685831,131684883,0.05611303,-0.00026180738,-0.06578409,-0.0,0.0,0.0,0.0,0.0
131690834,131689860,0.05609396,-0.0004502225,-0.065720975,-0.0,0.0,0.0,0.0,0.0
131695740,131694858,0.05612291,-0.0002642285,-0.06567361,-0.0,0.0,0.0,0.0,0.0
131700834,131699864,0.056154322,6.7825415e-05,-0.06571141,-0.0,0.0,0.0,0.0,0.0
131705790,131704867,0.056167495,0.00010477296,-0.06567121,-0.0,0.0,0.0,0.0,0.0
131710816,131709862,0.05618454,0.0002123615,-0.06562959,-0.0,0.0,0.0,0.0,0.0
131715771,131714893,0.056189466,0.0002952183,-0.065646656,-0.0,0.0,0.0,0.0,0.0
131720822,131719874,0.056228947,0.00020299565,-0.06569211,-0.0,0.0,0.0,0.0,0.0
131725801,131724885,0.056208838,3.5572935e-05,-0.06576986,-0.0,0.0,0.0,0.0,0.0
131730842,131729924,0.056205798,-0.000102994425,-0.06581151,-0.0,0.0,0.0,0.0,0.0
131735812,131734894,0.056218166,-0.00016814648,-0.06581425,-0.0,0.0,0.0,0.0,0.0
131740741,131739881,0.05621708,-4.6178677e-05,-0.065796606,-0.0,0.0,0.0,0.0,0.0
131745871,131744895,0.056241494,8.15059e-05,-0.06576114,-0.0,0.0,0.0,0.0,0.0
131750768,131749925,0.05619089,1.8318391e-05,-0.065767944,-0.0,0.0,0.0,0.0,0.0
131755814,131754904,0.056198724,-7.82934e-06,-0.06568464,-0.0,0.0,0.0,0.0,0.0
131760775,131759901,0.056301154,-0.00016247338,-0.0656144,-0.0,0.0,0.0,0.0,0.0
131765766,131764898,0.056298543,-0.00024636788,-0.06558835,-0.0,0.0,0.0,0.0,0.0
131770865,131769927,0.05638531,-0.00029071252,-0.06569759,-0.0,0.0,0.0,0.0,0.0
131775768,131774896,0.056416243,-0.0004292494,-0.065763816,-0.0,0.0,0.0,0.0,0.0
131780777,131779899,0.056332376,-0.00038140712,-0.06570497,-0.0,0.0,0.0,0.0,0.0
131785814,131784915,0.056269757,-0.00034572495,-0.06575465,-0.0,0.0,0.0,0.0,0.0
131790841,131789906,0.05625108,-0.00028708737,-0.06575852,-0.0,0.0,0.0,0.0,0.0
131795778,131794910,0.0562457,-0.00035017016,-0.06570486,-0.0,0.0,0.0,0.0,0.0
131800776,131799902,0.05633882,-0.00022870695,-0.065680616,-0.0,0.0,0.0,0.0,0.0
131805827,131804952,0.056481384,-0.00028997526,-0.065676145,-0.0,0.0,0.0,0.0,0.0
131810904,131809879,0.056542743,-0.0002893024,-0.06566507,-0.0,0.0,0.0,0.0,0.0
131815756,131814873,0.056509707,-0.00018438684,-0.06569945,-0.0,0.0,0.0,0.0,0.0
131820915,131819871,0.056392953,8.04353e-05,-0.06585013,-0.0,0.0,0.0,0.0,0.0
131825864,131824906,0.056430206,0.00031269356,-0.065920494,-0.0,0.0,0.0,0.0,0.0
131830970,131829878,0.05644984,0.00035860692,-0.065850325,-0.0,0.0,0.0,0.0,0.0
131835854,131834922,0.056337968,0.00041632573,-0.06579935,-0.0,0.0,0.0,0.0,0.0
131840873,131839878,0.05633088,0.00035982305,-0.06578123,-0.0,0.0,0.0,0.0,0.0
131845898,131844906,0.056332063,0.00023024308,-0.065817006,-0.0,0.0,0.0,0.0,0.0
131850906,131849882,0.056188565,0.00017531347,-0.06587531,-0.0,0.0,0.0,0.0,0.0
131855933,131854925,0.05600824,0.000120729135,-0.065843225,-0.0,0.0,0.0,0.0,0.0
131860893,131859917,0.055895183,0.00013092051,-0.0657666,-0.0,0.0,0.0,0.0,0.0
131865899,131864908,0.055893127,0.00011322001,-0.06577004,-0.0,0.0,0.0,0.0,0.0
131870919,131869929,0.055972617,-2.9419698e-05,-0.06583064,-0.0,0.0,0.0,0.0,0.0
131875927,131874917,0.05610647,-0.00022532059,-0.06594353,-0.0,0.0,0.0,0.0,0.0
131880873,131879901,0.05615069,-0.00019687715,-0.066082746,-0.0,0.0,0.0,0.0,0.0
131885930,131884933,0.056152347,-0.00022285765,-0.06611474,-0.0,0.0,0.0,0.0,0.0
131890925,131889911,0.056167047,-0.00026784206,-0.06611261,-0.0,0.0,0.0,0.0,0.0
131895969,131894911,0.056121606,-0.00035011698,-0.06605879,-0.0,0.0,0.0,0.0,0.0
131900872,131899900,0.056076176,-0.00035824854,-0.06601573,-0.0,0.0,0.0,0.0,0.0
131906019,131904948,0.05602714,-0.00020542268,-0.0660139,-0.0,0.0,0.0,0.0,0.0
131910916,131909911,0.05597389,-0.00022751682,-0.066015586,-0.0,0.0,0.0,0.0,0.0
131915844,131914924,0.055894442,-0.00029845984,-0.0659875,-0.0,0.0,0.0,0.0,0.0
131920875,131919915,0.05585802,-0.00017031978,-0.06598816,-0.0,0.0,0.0,0.0,0.0
131926002,131924941,0.055820953,-4.9906088e-05,-0.065984495,-0.0,0.0,0.0,0.0,0.0
131930936,131929926,0.055814117,-0.00021047515,-0.06587435,-0.0,0.0,0.0,0.0,0.0
131935983,131934923,0.055884063,-0.00018472392,-0.065816715,-0.0,0.0,0.0,0.0,0.0
131940934,131939934,0.055954464,-8.100276e-05,-0.06590397,-0.0,0.0,0.0,0.0,0.0
131946040,131944938,0.055848226,-7.0431175e-05,-0.06591449,-0.0,0.0,0.0,0.0,0.0
131950923,131949927,0.055849895,-0.00010869159,-0.06582524,-0.0,0.0,0.0,0.0,0.0
131955993,131954932,0.05572588,1.2499742e-05,-0.06576752,-0.0,0.0,0.0,0.0,0.0
131960883,131959934,0.055651255,8.665641e-05,-0.06581644,-0.0,0.0,0.0,0.0,0.0
131965995,131964923,0.055591926,-5.1360016e-06,-0.06585115,-0.0,0.0,0.0,0.0,0.0
131970953,131969848,0.055640142,-3.263304e-05,-0.065840445,-0.0,0.0,0.0,0.0,0.0
131975982,131974935,0.05564286,2.1449083e-05,-0.065737635,-0.0,0.0,0.0,0.0,0.0
131980902,131979848,0.05556832,3.2996923e-05,-0.06567454,-0.0,0.0,0.0,0.0,0.0
