timestamp,accel_device_id,gyro_device_id,accel_clipping[0],accel_clipping[1],accel_clipping[2],accel_error_count,gyro_error_count,accel_vibration_metric,gyro_vibration_metric,gyro_coning_vibration,accel_rate_hz,gyro_rate_hz
129068925,2359306,2359306,0,0,0,0,0,0.0002164185,1.5620994e-05,5.713971e-10,400,400
130099338,2359306,2359306,0,0,0,0,0,0.00019181712,1.3819952e-05,3.6227732e-10,400,400
131109668,2359306,2359306,0,0,0,0,0,0.00017370215,1.2788038e-05,2.5799435e-10,400,400
132019998,2359306,2359306,0,0,0,0,0,0.00018164,1.2972543e-05,2.3666882e-10,400,400
133020572,2359306,2359306,0,0,0,0,0,0.00016704788,1.3057866e-05,2.1255873e-10,400,400
134040953,2359306,2359306,0,0,0,0,0,0.0012971413,4.8329035e-05,1.0105162e-09,400,400
135071215,2359306,2359306,0,0,0,0,0,0.0016763496,3.318696e-05,9.588436e-10,400,400
136081557,2359306,2359306,0,0,0,0,0,0.001581016,3.226597e-05,7.815791e-10,400,400
137101935,2359306,2359306,0,0,0,0,0,0.003233884,6.561386e-05,2.8594696e-09,400,400
138017313,2359306,2359306,0,0,0,0,0,0.0033398839,0.0001261199,3.9254724e-09,400,400
139032626,2359306,2359306,0,0,0,0,0,0.0016542133,6.400338e-05,1.3486695e-09,400,400
140038204,2359306,2359306,0,0,0,0,0,0.0016241537,5.8903694e-05,1.0964635e-09,400,400
141053440,2359306,2359306,0,0,0,0,0,0.001680194,5.401631e-05,9.577062e-10,400,400
142058866,2359306,2359306,0,0,0,0,0,0.0022609793,0.000101467,1.8427864e-09,400,400
145009966,2359306,2359306,0,0,0,0,0,0.00045746556,2.0657431e-05,6.334986e-10,400,400
146020447,2359306,2359306,0,0,0,0,0,0.00020694056,1.3738731e-05,2.558047e-10,400,400
147045731,2359306,2359306,0,0,0,0,0,0.0001855393,1.2995872e-05,2.416581e-10,400,400
148071296,2359306,2359306,0,0,0,0,0,0.00020335583,1.19584265e-05,1.9381974e-10,400,400
149091516,2359306,2359306,0,0,0,0,0,0.00017847327,1.3494195e-05,1.8170383e-10,400,400
150106868,2359306,2359306,0,0,0,0,0,0.00018696144,1.3876263e-05,4.5011403e-10,400,400
151032207,2359306,2359306,0,0,0,0,0,0.0001800348,1.3616308e-05,3.9046574e-10,400,400
152042602,2359306,2359306,0,0,0,0,0,0.00016700955,1.28905895e-05,2.7755978e-10,400,400
153048072,2359306,2359306,0,0,0,0,0,0.00018015629,1.2402858e-05,2.0040722e-10,400,400
154073385,2359306,2359306,0,0,0,0,0,0.0001717591,1.2935224e-05,2.1920372e-10,400,400
155078957,2359306,2359306,0,0,0,0,0,0.00017025282,1.2160491e-05,2.1433139e-10,400,400
156089243,2359306,2359306,0,0,0,0,0,0.00017058202,1.2476141e-05,1.9956164e-10,400,400
157099582,2359306,2359306,0,0,0,0,0,0.00017040512,1.24575945e-05,2.1848265e-10,400,400
158014977,2359306,2359306,0,0,0,0,0,0.00018228506,1.2053513e-05,2.440044e-10,400,400
159020540,2359306,2359306,0,0,0,0,0,0.00019345323,1.3065613e-05,2.6194802e-10,400,400
160036816,2359306,2359306,0,0,0,0,0,0.00018011515,1.2603828e-05,2.4174446e-10,400,400
161066675,2359306,2359306,0,0,0,0,0,0.00018466615,1.2439671e-05,2.3233848e-10,400,400
163086975,2359306,2359306,0,0,0,0,0,0.00026730477,2.383006e-05,7.657407e-09,400,400
164102427,2359306,2359306,0,0,0,0,0,0.0004398886,3.6480324e-05,1.7402904e-08,400,400
165107929,2359306,2359306,0,0,0,0,0,0.00023904539,1.60215e-05,2.5827633e-09,400,400
166023167,2359306,2359306,0,0,0,0,0,0.00019396613,1.3036387e-05,5.912972e-10,400,400
167023599,2359306,2359306,0,0,0,0,0,0.00020491505,1.2302442e-05,2.2945422e-10,400,400
168049004,2359306,2359306,0,0,0,0,0,0.00024332054,1.5530017e-05,6.1047206e-10,400,400
170094915,2359306,2359306,0,0,0,0,0,0.00025467452,2.003516e-05,3.5752277e-09,400,400
171015193,2359306,2359306,0,0,0,0,0,0.0001847496,1.4238251e-05,1.2470294e-09,400,400
172045852,2359306,2359306,0,0,0,0,0,0.00018516635,1.2644454e-05,6.9659783e-10,400,400
173071244,2359306,2359306,0,0,0,0,0,0.00019424179,1.3007214e-05,4.8614884e-10,400,400
174081472,2359306,2359306,0,0,0,0,0,0.00016960637,1.2684014e-05,3.9610948e-10,400,400
175101852,2359306,2359306,0,0,0,0,0,0.00018058946,1.2029567e-05,2.8260635e-10,400,400
177032654,2359306,2359306,0,0,0,0,0,0.00017588846,1.2131731e-05,2.218279e-10,400,400
178043076,2359306,2359306,0,0,0,0,0,0.00017298738,1.2916814e-05,2.213449e-10,400,400
179048531,2359306,2359306,0,0,0,0,0,0.00017929122,1.2067101e-05,1.7859371e-10,400,400
180058938,2359306,2359306,0,0,0,0,0,0.00017309304,1.1809731e-05,1.9378966e-10,400,400
182089775,2359306,2359306,0,0,0,0,0,0.00022680325,1.4119299e-05,2.3325988e-10,400,400
183095196,2359306,2359306,0,0,0,0,0,0.00022108832,1.3378222e-05,2.0693529e-10,400,400
184015700,2359306,2359306,0,0,0,0,0,0.0001867603,1.2741533e-05,1.8546333e-10,400,400
185046660,2359306,2359306,0,0,0,0,0,0.00038413945,2.6868458e-05,2.1070012e-09,400,400
186071421,2359306,2359306,0,0,0,0,0,0.00042170112,2.864614e-05,2.7115967e-09,400,400
187081843,2359306,2359306,0,0,0,0,0,0.00031807466,2.143611e-05,1.648971e-09,400,400
188102330,2359306,2359306,0,0,0,0,0,0.0007061397,2.9327177e-05,1.5331174e-09,400,400
189107710,2359306,2359306,0,0,0,0,0,0.0008822001,2.6165231e-05,9.37319e-10,400,400
190023147,2359306,2359306,0,0,0,0,0,0.0014126067,3.2343916e-05,1.0474408e-09,400,400
191033526,2359306,2359306,0,0,0,0,0,0.0034429978,8.307841e-05,2.5245566e-09,400,400
192038943,2359306,2359306,0,0,0,0,0,0.004217092,8.656218e-05,3.0715666e-09,400,400
194054931,2359306,2359306,0,0,0,0,0,0.0055833105,8.066493e-05,4.2969788e-09,400,400
195070467,2359306,2359306,0,0,0,0,0,0.004163899,7.406629e-05,4.0603503e-09,400,400
196085826,2359306,2359306,0,0,0,0,0,0.0057927826,0.0001099061,1.2369963e-08,400,400
197106842,2359306,2359306,0,0,0,0,0,0.005361358,0.00010692833,1.213147e-08,400,400
198021535,2359306,2359306,0,0,0,0,0,0.0055336105,0.00013073916,1.4802143e-08,400,400
199026955,2359306,2359306,0,0,0,0,0,0.0047195964,0.000117545875,1.5887228e-08,400,400
200047469,2359306,2359306,0,0,0,0,0,0.004728636,0.00010494129,8.781424e-09,400,400
201048067,2359306,2359306,0,0,0,0,0,0.011577096,0.0005703393,3.7013785e-07,400,400
202273392,2359306,2359306,0,0,0,0,0,0.018496862,0.0008740638,1.6845906e-06,400,400
204079267,2359306,2359306,0,0,0,0,0,0.009325776,0.00023017575,3.2987555e-07,400,400
205094632,2359306,2359306,0,0,0,0,0,0.008962803,0.00020030624,1.7825725e-07,400,400
206110036,2359306,2359306,0,0,0,0,0,0.008378154,0.00022363855,1.6193059e-07,400,400
207020602,2359306,2359306,0,0,0,0,0,0.00803962,0.00016443049,1.2225739e-07,400,400
209051392,2359306,2359306,0,0,0,0,0,0.006882216,0.000103283666,4.806347e-08,400,400
210078981,2359306,2359306,0,0,0,0,0,0.007795992,0.00013211077,1.086932e-07,400,400
211092216,2359306,2359306,0,0,0,0,0,0.007092103,9.6619355e-05,6.91516e-08,400,400
212012633,2359306,2359306,0,0,0,0,0,0.007620725,0.00010020007,5.6243266e-08,400,400
213023197,2359306,2359306,0,0,0,0,0,0.0075406195,9.604075e-05,4.644817e-08,400,400
214043606,2359306,2359306,0,0,0,0,0,0.006859832,8.513843e-05,7.08653e-08,400,400
216069423,2359306,2359306,0,0,0,0,0,0.0075061256,6.0984607e-05,6.140596e-08,400,400
217079928,2359306,2359306,0,0,0,0,0,0.007126855,6.1369166e-05,1.0323016e-07,400,400
218080498,2359306,2359306,0,0,0,0,0,0.006081871,6.9328176e-05,8.793856e-08,400,400
219095847,2359306,2359306,0,0,0,0,0,0.0063246307,7.564131e-05,7.0513416e-08,400,400
221031660,2359306,2359306,0,0,0,0,0,0.0074629765,7.137993e-05,5.985439e-08,400,400
222037285,2359306,2359306,0,0,0,0,0,0.0076480955,7.67475e-05,1.216937e-07,400,400
223047587,2359306,2359306,0,0,0,0,0,0.0070814854,8.347412e-05,1.584368e-07,400,400
224058065,2359306,2359306,0,0,0,0,0,0.007325899,9.1114496e-05,2.4536965e-07,400,400
226083939,2359306,2359306,0,0,0,0,0,0.004871436,0.00010588603,1.4304149e-07,400,400
227104421,2359306,2359306,0,0,0,0,0,0.005792158,9.2741015e-05,1.2918028e-07,400,400
228014777,2359306,2359306,0,0,0,0,0,0.0056385812,0.000102978614,5.811729e-08,400,400
229015216,2359306,2359306,0,0,0,0,0,0.0044670217,9.852814e-05,7.0583305e-08,400,400
230020749,2359306,2359306,0,0,0,0,0,0.0057711164,8.490535e-05,9.638487e-08,400,400
231058232,2359306,2359306,0,0,0,0,0,0.0053751674,0.000108197135,5.0939878e-08,400,400
234107510,2359306,2359306,0,0,0,0,0,0.00826062,0.000109793444,9.76792e-08,400,400
235108129,2359306,2359306,0,0,0,0,0,0.0075051114,0.00010519986,9.4408605e-08,400,400
237033821,2359306,2359306,0,0,0,0,0,0.008925377,9.5634365e-05,7.643141e-08,400,400
238039366,2359306,2359306,0,0,0,0,0,0.007033556,8.6219865e-05,8.4304666e-08,400,400
239054766,2359306,2359306,0,0,0,0,0,0.008922671,9.001984e-05,9.0305285e-08,400,400
240060218,2359306,2359306,0,0,0,0,0,0.00690756,7.163371e-05,5.8998566e-08,400,400
241070770,2359306,2359306,0,0,0,0,0,0.008725211,7.4839896e-05,4.4986088e-08,400,400
242081153,2359306,2359306,0,0,0,0,0,0.006389072,7.4118965e-05,6.515135e-08,400,400
243091614,2359306,2359306,0,0,0,0,0,0.008025444,9.240287e-05,1.6438557e-07,400,400
244092096,2359306,2359306,0,0,0,0,0,0.007327233,7.504555e-05,1.467534e-07,400,400
245012515,2359306,2359306,0,0,0,0,0,0.0070475833,0.00010085002,8.656615e-08,400,400
246013092,2359306,2359306,0,0,0,0,0,0.007347333,7.8345925e-05,7.464654e-08,400,400
249074314,2359306,2359306,0,0,0,0,0,0.007557921,8.823004e-05,1.1612939e-07,400,400
250079825,2359306,2359306,0,0,0,0,0,0.0062275254,8.121916e-05,5.06552e-08,400,400
251090373,2359306,2359306,0,0,0,0,0,0.0057464023,6.3613246e-05,2.4825132e-08,400,400
252100989,2359306,2359306,0,0,0,0,0,0.0062617213,6.269801e-05,2.4454426e-08,400,400
253031209,2359306,2359306,0,0,0,0,0,0.006417864,9.322739e-05,5.1833158e-08,400,400
254061666,2359306,2359306,0,0,0,0,0,0.006747371,8.6419604e-05,1.1850045e-07,400,400
255072089,2359306,2359306,0,0,0,0,0,0.008293994,0.000118541175,2.5913354e-07,400,400
256082542,2359306,2359306,0,0,0,0,0,0.006600778,9.288497e-05,2.0105843e-07,400,400
257093080,2359306,2359306,0,0,0,0,0,0.0064802975,0.00011280388,2.2108841e-07,400,400
258013466,2359306,2359306,0,0,0,0,0,0.006528643,9.537108e-05,2.2200776e-07,400,400
259023931,2359306,2359306,0,0,0,0,0,0.0061854655,8.099767e-05,1.4685939e-07,400,400
260029481,2359306,2359306,0,0,0,0,0,0.0064404323,9.6097996e-05,1.5792642e-07,400,400
261039825,2359306,2359306,0,0,0,0,0,0.006174629,7.52298e-05,1.55506e-07,400,400
264081233,2359306,2359306,0,0,0,0,0,0.0087717045,9.445126e-05,5.8420127e-08,400,400
265091743,2359306,2359306,0,0,0,0,0,0.008194045,0.000100812635,6.5967846e-08,400,400
266102160,2359306,2359306,0,0,0,0,0,0.008049492,9.9270044e-05,1.1941917e-07,400,400
267102620,2359306,2359306,0,0,0,0,0,0.008122683,9.699319e-05,1.4129009e-07,400,400
268013113,2359306,2359306,0,0,0,0,0,0.008661117,0.000103532104,1.4736366e-07,400,400
269033521,2359306,2359306,0,0,0,0,0,0.0064612245,8.6901666e-05,1.2921657e-07,400,400
270043980,2359306,2359306,0,0,0,0,0,0.0061273403,9.285522e-05,1.0449876e-07,400,400
271049457,2359306,2359306,0,0,0,0,0,0.005156135,6.584107e-05,6.487343e-08,400,400
272049971,2359306,2359306,0,0,0,0,0,0.005030619,7.38775e-05,6.3995344e-08,400,400
274098473,2359306,2359306,0,0,0,0,0,0.004777007,7.863925e-05,1.16248074e-07,400,400
275111330,2359306,2359306,0,0,0,0,0,0.005819028,9.5936266e-05,1.7967153e-07,400,400
276011816,2359306,2359306,0,0,0,0,0,0.0049958867,8.377369e-05,7.455218e-08,400,400
277022293,2359306,2359306,0,0,0,0,0,0.0065895873,0.00012379594,1.5876557e-07,400,400
278042682,2359306,2359306,0,0,0,0,0,0.0060735755,0.0001338116,4.3472727e-07,400,400
279063168,2359306,2359306,0,0,0,0,0,0.0062464364,0.00012217813,3.283907e-07,400,400
280083645,2359306,2359306,0,0,0,0,0,0.0068758554,0.00013359514,3.100765e-07,400,400
281089164,2359306,2359306,0,0,0,0,0,0.0065689287,0.000116448464,2.7817026e-07,400,400
283035070,2359306,2359306,0,0,0,0,0,0.0063228495,8.7464585e-05,1.15550286e-07,400,400
284050660,2359306,2359306,0,0,0,0,0,0.0072295936,8.11714e-05,1.0484333e-07,400,400
285066824,2359306,2359306,0,0,0,0,0,0.0061974674,6.724177e-05,1.1575384e-07,400,400
286091488,2359306,2359306,0,0,0,0,0,0.0054410677,9.025625e-05,1.15726976e-07,400,400
287021899,2359306,2359306,0,0,0,0,0,0.0053771734,9.050633e-05,1.11923065e-07,400,400
288027427,2359306,2359306,0,0,0,0,0,0.006238571,0.00015843654,1.7748786e-07,400,400
289043008,2359306,2359306,0,0,0,0,0,0.005881132,0.000113398986,7.006761e-08,400,400
290058352,2359306,2359306,0,0,0,0,0,0.008703576,0.00011888531,7.226089e-08,400,400
291068774,2359306,2359306,0,0,0,0,0,0.009187013,0.00012241639,1.52924e-07,400,400
294095183,2359306,2359306,0,0,0,0,0,0.008047435,0.00014511828,1.4335822e-07,400,400
295015690,2359306,2359306,0,0,0,0,0,0.00789108,0.00015533878,1.2555878e-07,400,400
296031134,2359306,2359306,0,0,0,0,0,0.007852484,0.000116962125,1.6532755e-07,400,400
297051565,2359306,2359306,0,0,0,0,0,0.008321934,0.00014239238,1.7474747e-07,400,400
298067169,2359306,2359306,0,0,0,0,0,0.008722072,0.00014158803,1.0428849e-07,400,400
299072525,2359306,2359306,0,0,0,0,0,0.008844034,0.00013290298,1.16605925e-07,400,400
300078868,2359306,2359306,0,0,0,0,0,0.0067247287,0.000100285324,7.94815e-08,400,400
301093507,2359306,2359306,0,0,0,0,0,0.0053328075,0.00016889532,1.2460386e-07,400,400
304034969,2359306,2359306,0,0,0,0,0,0.006291302,0.00017650222,3.963751e-07,400,400
305055514,2359306,2359306,0,0,0,0,0,0.0066086645,0.0001418701,2.6599693e-07,400,400
306077406,2359306,2359306,0,0,0,0,0,0.00692108,0.0001165432,2.3694868e-07,400,400
307111275,2359306,2359306,0,0,0,0,0,0.0069614765,0.00011568768,1.9624687e-07,400,400
310062640,2359306,2359306,0,0,0,0,0,0.006517061,0.000119359254,2.8830326e-07,400,400
311073135,2359306,2359306,0,0,0,0,0,0.006175006,0.00013198984,3.4833963e-07,400,400
312093701,2359306,2359306,0,0,0,0,0,0.0055638347,8.290684e-05,2.328472e-07,400,400
313109083,2359306,2359306,0,0,0,0,0,0.008698824,0.00012407082,2.9507805e-07,400,400
314029485,2359306,2359306,0,0,0,0,0,0.0069030994,6.224747e-05,9.427147e-08,400,400
315040003,2359306,2359306,0,0,0,0,0,0.006034784,5.4244036e-05,7.4682156e-08,400,400
316050635,2359306,2359306,0,0,0,0,0,0.006744927,7.769434e-05,1.6018019e-07,400,400
317061041,2359306,2359306,0,0,0,0,0,0.00505357,6.884861e-05,1.3414538e-07,400,400
318086877,2359306,2359306,0,0,0,0,0,0.0064560804,7.007424e-05,1.5113763e-07,400,400
319111923,2359306,2359306,0,0,0,0,0,0.0070954077,7.549726e-05,9.4959574e-08,400,400
320032410,2359306,2359306,0,0,0,0,0,0.003999187,9.521556e-05,9.167129e-08,400,400
321042973,2359306,2359306,0,0,0,0,0,0.0019714073,6.998316e-05,8.835807e-08,400,400
322068328,2359306,2359306,0,0,0,0,0,0.0021462087,6.649303e-05,5.7337086e-08,400,400
323078791,2359306,2359306,0,0,0,0,0,0.0018430146,5.081159e-05,9.300406e-08,400,400
324089249,2359306,2359306,0,0,0,0,0,0.0016417325,4.4187862e-05,3.241908e-08,400,400
327045793,2359306,2359306,0,0,0,0,0,0.0017740899,5.5588305e-05,5.61336e-08,400,400
328071077,2359306,2359306,0,0,0,0,0,0.0016092996,5.0651015e-05,2.3149791e-08,400,400
329091567,2359306,2359306,0,0,0,0,0,0.0014123257,4.537277e-05,1.8967159e-08,400,400
330102048,2359306,2359306,0,0,0,0,0,0.0018677847,5.4359465e-05,2.388412e-08,400,400
331012544,2359306,2359306,0,0,0,0,0,0.0016589942,4.775878e-05,3.8965382e-08,400,400
332023124,2359306,2359306,0,0,0,0,0,0.0016204595,4.454505e-05,3.731628e-08,400,400
333038403,2359306,2359306,0,0,0,0,0,0.0017603183,4.8063295e-05,7.610009e-08,400,400
334043940,2359306,2359306,0,0,0,0,0,0.0016992905,5.182664e-05,9.162133e-08,400,400
335059437,2359306,2359306,0,0,0,0,0,0.0015902795,5.4954337e-05,6.968251e-08,400,400
336069829,2359306,2359306,0,0,0,0,0,0.001751362,4.9916565e-05,5.4978287e-08,400,400
337080494,2359306,2359306,0,0,0,0,0,0.0014048817,6.2145446e-05,3.477919e-08,400,400
338105844,2359306,2359306,0,0,0,0,0,0.0013346584,5.1591745e-05,3.6007634e-08,400,400
339021289,2359306,2359306,0,0,0,0,0,0.0014765869,5.6017172e-05,2.3319558e-08,400,400
340031681,2359306,2359306,0,0,0,0,0,0.0017420234,7.750126e-05,5.016672e-08,400,400
341042279,2359306,2359306,0,0,0,0,0,0.0016935029,7.201363e-05,9.710726e-08,400,400
342052630,2359306,2359306,0,0,0,0,0,0.0023126157,0.00010663418,1.2904792e-07,400,400
343068170,2359306,2359306,0,0,0,0,0,0.0020426326,7.931747e-05,8.231553e-08,400,400
344073617,2359306,2359306,0,0,0,0,0,0.0021844318,8.803557e-05,5.0687035e-08,400,400
345094135,2359306,2359306,0,0,0,0,0,0.0018607314,7.863698e-05,3.513052e-08,400,400
347015019,2359306,2359306,0,0,0,0,0,0.002021586,8.981301e-05,1.0548699e-07,400,400
348035639,2359306,2359306,0,0,0,0,0,0.0021816932,9.890112e-05,5.798976e-08,400,400
349067060,2359306,2359306,0,0,0,0,0,0.002109268,8.726172e-05,7.6321705e-08,400,400
350077524,2359306,2359306,0,0,0,0,0,0.0024303508,0.0001230498,1.06516374e-07,400,400
351101933,2359306,2359306,0,0,0,0,0,0.0021659732,0.00011537816,1.4302208e-07,400,400
352017321,2359306,2359306,0,0,0,0,0,0.0017868979,0.00011750222,1.4202517e-07,400,400
354053294,2359306,2359306,0,0,0,0,0,0.001698201,0.000107940585,1.486121e-07,400,400
355058767,2359306,2359306,0,0,0,0,0,0.0015319391,7.455091e-05,8.5545366e-08,400,400
357084695,2359306,2359306,0,0,0,0,0,0.0013628681,0.00010309438,2.7786425e-07,400,400
358090181,2359306,2359306,0,0,0,0,0,0.0014115785,0.00014012668,2.482763e-07,400,400
359100678,2359306,2359306,0,0,0,0,0,0.0015992251,0.00014260595,3.0572963e-07,400,400
360111185,2359306,2359306,0,0,0,0,0,0.025193933,0.0012431638,8.835774e-06,400,400
361041590,2359306,2359306,0,0,0,0,0,0.008223263,0.00060635846,2.325506e-06,400,400
362042174,2359306,2359306,0,0,0,0,0,0.0017537841,0.00015849227,3.862038e-07,400,400
364088040,2359306,2359306,0,0,0,0,0,0.00024369334,2.673595e-05,1.10433565e-08,400,400
365098471,2359306,2359306,0,0,0,0,0,0.00026158692,1.9014191e-05,3.9127412e-09,400,400
