timestamp,timestamp_sample,baro_device_id,baro_alt_meter,baro_temp_celcius,baro_pressure_pa,rho
128197890,128177518,3997706,22.731876,50.809998,101052.25,1.2006679
128247992,128230312,3997706,22.731876,50.82,101052.25,1.2006679
128308756,128285829,3997706,22.649963,50.809998,101053.25,1.2006798
128359009,128338811,3997706,22.79529,50.809998,101051.49,1.2006589
128409254,128391581,3997706,22.689598,50.82,101052.75,1.2006738
128469677,128446890,3997706,22.607685,50.82,101053.75,1.2006857
128519930,128499712,3997706,22.774153,50.82,101051.75,1.2006619
128570145,128552468,3997706,22.671103,50.82,101053.0,1.2006768
128630592,128607743,3997706,22.731876,50.82,101052.25,1.2006679
128680941,128660525,3997706,22.628824,50.82,101053.5,1.2006828
128731413,128713494,3997706,22.441221,50.82,101055.75,1.2007095
128791732,128769035,3997706,22.607685,50.829998,101053.75,1.2006857
128842028,128821826,3997706,22.565409,50.82,101054.26,1.2006917
128892278,128874606,3997706,22.628824,50.82,101053.5,1.2006828
128952627,128929935,3997706,22.649963,50.829998,101053.25,1.2006798
129003051,128982708,3997706,22.671103,50.82,101053.0,1.2006768
129053233,129035536,3997706,22.79529,50.82,101051.49,1.2006589
129164244,129144064,3997706,22.689598,50.829998,101052.75,1.2006738
129214551,129196863,3997706,22.649963,50.829998,101053.25,1.2006798
129274828,129252149,3997706,22.79529,50.829998,101051.49,1.2006589
129325160,129304958,3997706,22.689598,50.829998,101052.75,1.2006738
129375580,129357783,3997706,22.81643,50.829998,101051.24,1.2006559
129436908,129413080,3997706,22.81643,50.829998,101051.24,1.2006559
129496984,129471869,3997706,22.869276,50.829998,101050.6,1.2006483
129557020,129534112,3997706,22.79529,50.84,101051.49,1.2006589
129607079,129586871,3997706,22.79529,50.84,101051.5,1.200659
129657410,129639683,3997706,22.607685,50.84,101053.75,1.2006857
129717721,129695006,3997706,22.628824,50.84,101053.5,1.2006828
129768029,129747808,3997706,22.586548,50.84,101054.0,1.2006887
129818234,129800576,3997706,22.671103,50.84,101053.0,1.2006768
129878564,129855865,3997706,22.671103,50.84,101053.0,1.2006768
129929367,129908880,3997706,22.628824,50.84,101053.5,1.2006828
129979666,129961903,3997706,22.628824,50.84,101053.5,1.2006828
130039955,130017218,3997706,22.501993,50.84,101055.0,1.2007005
130090192,130070006,3997706,22.54427,50.85,101054.49,1.2006946
130140619,130122805,3997706,22.877203,50.85,101050.5,1.2006471
130200908,130178123,3997706,22.523132,50.85,101054.75,1.2006975
130251066,130230883,3997706,22.689598,50.85,101052.75,1.2006738
130301418,130283673,3997706,22.710737,50.85,101052.5,1.2006708
130362149,130339422,3997706,22.858706,50.85,101050.75,1.2006501
130412462,130392195,3997706,22.649963,50.85,101053.25,1.2006798
130462684,130445018,3997706,22.731876,50.85,101052.25,1.2006679
130523028,130500303,3997706,22.710737,50.85,101052.5,1.2006708
130573303,130553100,3997706,22.91948,50.85,101050.0,1.2006412
130623573,130605894,3997706,22.753014,50.86,101052.0,1.2006649
130683891,130661180,3997706,22.649963,50.86,101053.25,1.2006798
130734679,130714192,3997706,22.649963,50.86,101053.25,1.2006798
130784977,130767199,3997706,22.689598,50.86,101052.75,1.2006738
130845230,130822523,3997706,22.483496,50.86,101055.25,1.2007035
130895642,130875338,3997706,22.671103,50.86,101053.0,1.2006768
130946481,130928114,3997706,22.523132,50.86,101054.75,1.2006975
131006552,130983389,3997706,22.628824,50.87,101053.5,1.2006828
131056885,131036141,3997706,22.671103,50.87,101053.0,1.2006768
131127724,131096459,3997706,22.753014,50.87,101052.0,1.2006649
131187492,131163154,3997706,22.52049,50.87,101054.8,1.2006981
131247993,131225105,3997706,22.689598,50.87,101052.75,1.2006738
131298115,131277901,3997706,22.54427,50.87,101054.5,1.2006947
131348414,131330708,3997706,22.689598,50.87,101052.75,1.2006738
131408678,131386001,3997706,22.731876,50.879997,101052.25,1.2006679
131459080,131438769,3997706,22.837568,50.87,101050.99,1.200653
131509202,131491533,3997706,22.81643,50.879997,101051.25,1.200656
131569994,131547029,3997706,22.671103,50.879997,101053.0,1.2006768
131620206,131600018,3997706,22.501993,50.879997,101055.0,1.2007005
131670600,131652806,3997706,22.689598,50.879997,101052.75,1.2006738
131731000,131708122,3997706,22.523132,50.879997,101054.75,1.2006975
131781030,131760860,3997706,22.54427,50.879997,101054.5,1.2006947
131831289,131813613,3997706,22.607685,50.89,101053.75,1.2006857
131891678,131868949,3997706,22.523132,50.89,101054.75,1.2006975
131942037,131921750,3997706,22.54427,50.89,101054.5,1.2006947
131992606,131974821,3997706,22.501993,50.89,101055.0,1.2007005
132053056,132030195,3997706,22.565409,50.89,101054.25,1.2006917
132103334,132083107,3997706,22.689598,50.899998,101052.75,1.2006738
132153594,132135936,3997706,22.483496,50.899998,101055.25,1.2007035
132213992,132191190,3997706,22.441221,50.89,101055.75,1.2007095
132264147,132243958,3997706,22.689598,50.89,101052.75,1.2006738
132314406,132296740,3997706,22.649963,50.899998,101053.25,1.2006798
132375338,132352164,3997706,22.710737,50.899998,101052.5,1.2006708
132425685,132405324,3997706,22.671103,50.899998,101053.0,1.2006768
132475809,132458125,3997706,22.565409,50.899998,101054.25,1.2006917
132536791,132513391,3997706,22.483496,50.91,101055.25,1.2007035
132596847,132572169,3997706,22.602402,50.899998,101053.8,1.2006862
132656900,132633995,3997706,22.689598,50.899998,101052.75,1.2006738
132716965,132692758,3997706,22.787363,50.91,101051.6,1.2006602
132777413,132754578,3997706,22.753014,50.899998,101052.0,1.2006649
132828075,132807832,3997706,22.837568,50.91,101051.0,1.2006531
132878320,132860649,3997706,22.586548,50.91,101054.0,1.2006887
132938688,132915965,3997706,22.586548,50.91,101054.0,1.2006887
132989008,132968759,3997706,22.671103,50.91,101053.0,1.2006768
133039304,133021572,3997706,22.607685,50.92,101053.75,1.2006857
133099553,133076859,3997706,22.689598,50.92,101052.75,1.2006738
133149957,133129618,3997706,22.731876,50.92,101052.25,1.2006679
133200734,133182786,3997706,22.689598,50.92,101052.75,1.2006738
133260978,133238222,3997706,22.483496,50.92,101055.25,1.2007035
133311218,133290987,3997706,22.671103,50.92,101053.0,1.2006768
133361479,133343749,3997706,22.586548,50.92,101054.0,1.2006887
133421787,133399090,3997706,22.501993,50.92,101055.0,1.2007005
133472050,133451866,3997706,22.607685,50.92,101053.75,1.2006857
133522438,133504631,3997706,22.649963,50.92,101053.25,1.2006798
133583208,133560094,3997706,22.54427,50.93,101054.5,1.2006947
133633406,133613206,3997706,22.753014,50.93,101052.0,1.2006649
133683661,133665987,3997706,22.649963,50.93,101053.25,1.2006798
133744008,133721262,3997706,22.689598,50.93,101052.75,1.2006738
133794280,133774056,3997706,22.753014,50.93,101052.0,1.2006649
133844656,133826906,3997706,22.607685,50.94,101053.75,1.2006857
133904966,133882169,3997706,22.441221,50.94,101055.75,1.2007095
133955142,133934951,3997706,22.628824,50.94,101053.5,1.2006828
134005882,133988052,3997706,22.710737,50.94,101052.5,1.2006708
134066856,134043417,3997706,22.54427,50.94,101054.5,1.2006947
134116975,134096166,3997706,22.607685,50.94,101053.75,1.2006857
134609402,134591726,3997706,22.459717,50.96,101055.5,1.2007065
134669685,134647001,3997706,22.689598,50.96,101052.75,1.2006738
134719964,134699746,3997706,22.54427,50.96,101054.5,1.2006947
134770232,134752551,3997706,22.649963,50.96,101053.25,1.2006798
134830815,134807873,3997706,22.689598,50.96,101052.75,1.2006738
134881250,134861080,3997706,22.628824,50.969997,101053.5,1.2006828
134931520,134913853,3997706,22.586548,50.969997,101054.0,1.2006887
134991813,134969122,3997706,22.79529,50.96,101051.5,1.200659
135042098,135021901,3997706,22.607685,50.969997,101053.75,1.2006857
135092425,135074694,3997706,22.483496,50.969997,101055.25,1.2007035
135152699,135129996,3997706,22.441221,50.969997,101055.75,1.2007095
135203015,135182808,3997706,22.628824,50.969997,101053.5,1.2006828
135253763,135235714,3997706,22.54427,50.969997,101054.5,1.2006947
135314002,135291317,3997706,22.628824,50.98,101053.5,1.2006828
135364276,135344074,3997706,22.377804,50.969997,101056.49,1.2007183
135414567,135396894,3997706,22.459717,50.98,101055.5,1.2007065
135474955,135452173,3997706,22.483496,50.98,101055.25,1.2007035
135525209,135505013,3997706,22.607685,50.98,101053.75,1.2006857
135575620,135557839,3997706,22.483496,50.98,101055.25,1.2007035
135636989,135613117,3997706,22.501993,50.98,101055.0,1.2007005
135697043,135672290,3997706,22.620897,50.98,101053.6,1.200684
135757015,135734172,3997706,22.523132,50.989998,101054.75,1.2006975
135807120,135786926,3997706,22.483496,50.98,101055.25,1.2007035
136129470,136109208,3997706,22.565409,51.0,101054.25,1.2006917
136179698,136162009,3997706,22.501993,51.0,101055.0,1.2007005
136240029,136217336,3997706,22.753014,51.0,101051.99,1.2006649
136290481,136270121,3997706,22.54427,51.0,101054.5,1.2006947
136340686,136322920,3997706,22.774153,51.0,101051.75,1.2006619
136400925,136378177,3997706,22.689598,51.0,101052.75,1.2006738
136451190,136430954,3997706,22.81643,51.0,101051.25,1.200656
136501903,136484116,3997706,22.314388,51.01,101057.25,1.2007273
136562208,136539514,3997706,22.586548,51.01,101054.0,1.2006887
136612530,136592286,3997706,22.565409,51.01,101054.25,1.2006917
136662998,136645104,3997706,22.586548,51.0,101054.0,1.2006887
136723080,136700404,3997706,22.671103,51.01,101053.0,1.2006768
136773340,136753157,3997706,22.710737,51.01,101052.5,1.2006708
136823697,136805990,3997706,22.649963,51.01,101053.25,1.2006798
136884497,136861530,3997706,22.649963,51.02,101053.25,1.2006798
136934802,136914562,3997706,22.607685,51.01,101053.75,1.2006857
136985014,136967320,3997706,22.565409,51.02,101054.25,1.2006917
137045528,137022611,3997706,22.420082,51.02,101055.99,1.2007123
137095734,137075450,3997706,22.565409,51.02,101054.25,1.2006917
137146510,137128201,3997706,22.671103,51.02,101053.0,1.2006768
137206556,137183478,3997706,22.586548,51.02,101054.0,1.2006887
137256909,137236233,3997706,22.877203,51.02,101050.5,1.2006471
137307068,137289301,3997706,22.523132,51.03,101054.75,1.2006975
137367445,137344654,3997706,22.54427,51.03,101054.5,1.2006947
137417647,137397460,3997706,22.649963,51.03,101053.25,1.2006798
137467984,137450243,3997706,22.377804,51.03,101056.5,1.2007184
137528253,137505554,3997706,22.54427,51.03,101054.5,1.2006947
137578556,137558322,3997706,22.54427,51.03,101054.51,1.2006947
137628831,137611103,3997706,22.483496,51.03,101055.25,1.2007035
137689035,137666362,3997706,22.774153,51.03,101051.74,1.2006619
137739733,137719334,3997706,22.753014,51.039997,101052.0,1.2006649
137790009,137772318,3997706,22.459717,51.039997,101055.5,1.2007065
137850513,137827619,3997706,22.501993,51.039997,101055.0,1.2007005
137900741,137880451,3997706,22.420082,51.039997,101055.99,1.2007123
137950962,137933212,3997706,22.523132,51.05,101054.75,1.2006975
138011234,137988535,3997706,22.628824,51.039997,101053.5,1.2006828
138061508,138041326,3997706,22.689598,51.05,101052.75,1.2006738
138111918,138094090,3997706,22.586548,51.039997,101054.0,1.2006887
138172526,138149821,3997706,22.649963,51.05,101053.25,1.2006798
138222913,138202586,3997706,22.586548,51.05,101054.0,1.2006887
138273082,138255397,3997706,22.377804,51.05,101056.5,1.2007184
138333418,138310701,3997706,22.586548,51.059998,101054.0,1.2006887
138383762,138363497,3997706,22.649963,51.05,101053.25,1.2006798
138433927,138416273,3997706,22.54427,51.059998,101054.5,1.2006947
138494205,138471521,3997706,22.54427,51.05,101054.5,1.2006947
138544563,138524288,3997706,22.710737,51.059998,101052.5,1.2006708
138595194,138577501,3997706,22.501993,51.07,101055.0,1.2007005
138655711,138632922,3997706,22.441221,51.07,101055.75,1.2007095
138706546,138685722,3997706,22.420082,51.059998,101056.0,1.2007124
138756726,138738511,3997706,22.565409,51.059998,101054.25,1.2006917
138816723,138793813,3997706,22.377804,51.07,101056.5,1.2007184
138866801,138846556,3997706,22.501993,51.07,101055.0,1.2007005
138917038,138899312,3997706,22.607685,51.07,101053.75,1.2006857
138977924,138954963,3997706,22.523132,51.07,101054.75,1.2006975
139028057,139007870,3997706,22.649963,51.07,101053.25,1.2006798
139078305,139060631,3997706,22.523132,51.079998,101054.75,1.2006975
139138736,139115945,3997706,22.565409,51.07,101054.25,1.2006917
139188944,139168756,3997706,22.671103,51.079998,101053.0,1.2006768
139239168,139221510,3997706,22.565409,51.079998,101054.25,1.2006917
139299451,139276763,3997706,22.628824,51.079998,101053.5,1.2006828
139349895,139329530,3997706,22.335527,51.09,101057.0,1.2007244
139400595,139382633,3997706,22.441221,51.079998,101055.75,1.2007095
139460717,139438020,3997706,22.398943,51.09,101056.25,1.2007154
139510927,139490755,3997706,22.565409,51.09,101054.25,1.2006917
139561234,139543505,3997706,22.523132,51.09,101054.75,1.2006975
139621524,139598839,3997706,22.441221,51.09,101055.75,1.2007095
139671799,139651610,3997706,22.523132,51.09,101054.75,1.2006975
139722115,139704389,3997706,22.54427,51.09,101054.5,1.2006947
139782475,139759667,3997706,22.253614,51.1,101057.99,1.2007362
139833161,139812825,3997706,22.441221,51.09,101055.75,1.2007095
139883409,139865723,3997706,22.377804,51.1,101056.49,1.2007183
139943775,139921009,3997706,22.628824,51.1,101053.5,1.2006828
139993994,139973805,3997706,22.459717,51.1,101055.5,1.2007065
140044236,140026570,3997706,22.523132,51.1,101054.75,1.2006975
140104703,140081877,3997706,22.607685,51.1,101053.75,1.2006857
140154957,140134690,3997706,22.398943,51.1,101056.25,1.2007154
140205718,140187745,3997706,22.565409,51.1,101054.25,1.2006917
140266626,140243242,3997706,22.607685,51.11,101053.75,1.2006857
140547306,140524605,3997706,22.649963,51.11,101053.25,1.2006798
140597586,140577402,3997706,22.671103,51.12,101053.0,1.2006768
140648309,140630276,3997706,22.671103,51.12,101053.0,1.2006768
140708603,140685892,3997706,22.54427,51.12,101054.5,1.2006947
140758927,140738665,3997706,22.398943,51.12,101056.25,1.2007154
140809086,140791426,3997706,22.586548,51.129997,101054.0,1.2006887
140869408,140846701,3997706,22.501993,51.129997,101055.0,1.2007005
140919648,140899473,3997706,22.377804,51.12,101056.5,1.2007184
140970023,140952270,3997706,22.710737,51.129997,101052.5,1.2006708
141030459,141007601,3997706,22.753014,51.12,101051.99,1.2006649
141081204,141060602,3997706,22.565409,51.129997,101054.25,1.2006917
141131245,141113573,3997706,22.586548,51.129997,101054.0,1.2006887
141191596,141168879,3997706,22.420082,51.129997,101055.99,1.2007123
141241888,141221662,3997706,22.441221,51.14,101055.75,1.2007095
141292093,141274429,3997706,22.459717,51.14,101055.5,1.2007065
141352484,141329709,3997706,22.335527,51.14,101057.0,1.2007244
141402718,141382545,3997706,22.671103,51.14,101053.0,1.2006768
141453138,141435315,3997706,22.628824,51.14,101053.5,1.2006828
141513806,141490920,3997706,22.54427,51.149998,101054.5,1.2006947
141564016,141543814,3997706,22.628824,51.149998,101053.5,1.2006828
141614320,141596645,3997706,22.483496,51.14,101055.25,1.2007035
141674647,141651961,3997706,22.628824,51.149998,101053.5,1.2006828
141725016,141704721,3997706,22.377804,51.149998,101056.5,1.2007184
141775190,141757516,3997706,22.607685,51.149998,101053.75,1.2006857
141835732,141812867,3997706,22.441221,51.149998,101055.75,1.2007095
141886681,141865889,3997706,22.398943,51.16,101056.25,1.2007154
141937002,141918917,3997706,22.501993,51.16,101055.0,1.2007005
141997051,141974180,3997706,22.501993,51.16,101054.99,1.2007005
142047095,142026930,3997706,22.483496,51.16,101055.25,1.2007035
142097463,142079729,3997706,22.565409,51.16,101054.25,1.2006917
142157749,142135047,3997706,22.565409,51.16,101054.25,1.2006917
142208152,142187824,3997706,22.441221,51.16,101055.75,1.2007095
142258456,142240653,3997706,22.628824,51.16,101053.5,1.2006828
142319212,142296426,3997706,22.420082,51.17,101056.0,1.2007124
142369407,142349215,3997706,22.441221,51.17,101055.75,1.2007095
142419649,142401984,3997706,22.628824,51.17,101053.5,1.2006828
142479987,142457243,3997706,22.671103,51.17,101053.0,1.2006768
142530204,142510027,3997706,22.649963,51.17,101053.25,1.2006798
142580695,142562808,3997706,22.483496,51.18,101055.25,1.2007035
142641015,142618135,3997706,22.671103,51.18,101053.0,1.2006768
144855557,144832678,3997706,22.523132,51.239998,101054.75,1.2006975
144905694,144885482,3997706,22.607685,51.25,101053.75,1.2006857
144956926,144938256,3997706,22.501993,51.25,101055.0,1.2007005
145016787,144993545,3997706,22.523132,51.239998,101054.75,1.2006975
145076797,145052310,3997706,22.48614,51.25,101055.195,1.2007029
145136817,145114084,3997706,22.81643,51.25,101051.25,1.200656
145187536,145166973,3997706,22.586548,51.25,101054.0,1.2006887
145237790,145220111,3997706,22.420082,51.26,101056.0,1.2007124
145298132,145275443,3997706,22.523132,51.26,101054.75,1.2006975
145348510,145328209,3997706,22.54427,51.26,101054.5,1.2006947
145398702,145381027,3997706,22.459717,51.26,101055.5,1.2007065
145458993,145436319,3997706,22.459717,51.26,101055.5,1.2007065
145509357,145489081,3997706,22.671103,51.26,101053.0,1.2006768
145559638,145541901,3997706,22.523132,51.27,101054.76,1.2006977
145620508,145597644,3997706,22.607685,51.27,101053.75,1.2006857
145670767,145650457,3997706,22.420082,51.27,101056.0,1.2007124
145720859,145703200,3997706,22.54427,51.27,101054.5,1.2006947
145781194,145758478,3997706,22.649963,51.27,101053.25,1.2006798
145831479,145811276,3997706,22.731876,51.27,101052.25,1.2006679
145881858,145864070,3997706,22.274754,51.27,101057.75,1.2007332
145942098,145919385,3997706,22.586548,51.28,101054.0,1.2006887
145992972,145972282,3997706,22.628824,51.28,101053.5,1.2006828
146043072,146025403,3997706,22.565409,51.28,101054.25,1.2006917
146103466,146080681,3997706,22.314388,51.289997,101057.25,1.2007273
146153639,146133459,3997706,22.483496,51.28,101055.25,1.2007035
146203942,146186262,3997706,22.586548,51.289997,101054.0,1.2006887
146264243,146241552,3997706,22.483496,51.289997,101055.25,1.2007035
146314532,146294340,3997706,22.54427,51.289997,101054.5,1.2006947
146364970,146347106,3997706,22.441221,51.289997,101055.75,1.2007095
146425805,146402616,3997706,22.523132,51.289997,101054.75,1.2006975
146475826,146455604,3997706,22.607685,51.289997,101053.75,1.2006857
146527711,146508346,3997706,22.459717,51.3,101055.5,1.2007065
146586671,146563627,3997706,22.649963,51.3,101053.25,1.2006798
146636922,146616392,3997706,22.565409,51.3,101054.25,1.2006917
146706950,146676671,3997706,22.48614,51.3,101055.195,1.2007029
146757188,146736995,3997706,22.565409,51.3,101054.25,1.2006917
146807490,146789789,3997706,22.565409,51.309998,101054.25,1.2006917
146868212,146845308,3997706,22.586548,51.309998,101054.0,1.2006887
146918602,146898331,3997706,22.689598,51.309998,101052.75,1.2006738
146968836,146951167,3997706,22.586548,51.309998,101054.0,1.2006887
147029131,147006445,3997706,22.441221,51.309998,101055.75,1.2007095
147079463,147059205,3997706,22.628824,51.309998,101053.5,1.2006828
147129690,147112017,3997706,22.523132,51.32,101054.75,1.2006975
147190037,147167330,3997706,22.649963,51.32,101053.25,1.2006798
147240527,147220115,3997706,22.586548,51.309998,101054.0,1.2006887
147291114,147273320,3997706,22.586548,51.32,101054.0,1.2006887
147351286,147328576,3997706,22.501993,51.32,101054.99,1.2007005
147401572,147381397,3997706,22.607685,51.329998,101053.75,1.2006857
147451817,147434158,3997706,22.523132,51.329998,101054.75,1.2006975
147512151,147489441,3997706,22.586548,51.32,101053.99,1.2006886
147562456,147542220,3997706,22.649963,51.329998,101053.25,1.2006798
147612682,147595025,3997706,22.565409,51.329998,101054.25,1.2006917
147673510,147650585,3997706,22.753014,51.34,101051.99,1.2006649
147723791,147703598,3997706,22.501993,51.34,101055.0,1.2007005
147774028,147756359,3997706,22.459717,51.34,101055.5,1.2007065
147834305,147811616,3997706,22.377804,51.34,101056.5,1.2007184
147884619,147864402,3997706,22.523132,51.34,101054.75,1.2006975
147934995,147917293,3997706,22.565409,51.34,101054.25,1.2006917
147995575,147972612,3997706,22.523132,51.35,101054.75,1.2006975
148046649,148025582,3997706,22.565409,51.34,101054.25,1.2006917
148096951,148078674,3997706,22.565409,51.34,101054.25,1.2006917
148157025,148133988,3997706,22.335527,51.35,101056.99,1.2007242
148217187,148192753,3997706,22.536343,51.35,101054.6,1.2006959
148277300,148254546,3997706,22.483496,51.35,101055.25,1.2007035
148328039,148307335,3997706,22.649963,51.35,101053.25,1.2006798
148398024,148367695,3997706,22.38573,51.35,101056.4,1.2007172
148448281,148428067,3997706,22.81643,51.35,101051.25,1.200656
148498986,148481277,3997706,22.628824,51.36,101053.5,1.2006828
148559299,148536546,3997706,22.420082,51.36,101055.99,1.2007123
148609554,148589325,3997706,22.483496,51.36,101055.25,1.2007035
148659771,148642102,3997706,22.335527,51.36,101056.99,1.2007242
148720099,148697383,3997706,22.459717,51.37,101055.5,1.2007065
148770517,148750171,3997706,22.523132,51.37,101054.75,1.2006975
148820739,148802989,3997706,22.628824,51.36,101053.5,1.2006828
148881515,148858382,3997706,22.377804,51.37,101056.5,1.2007184
148931701,148911489,3997706,22.586548,51.37,101054.0,1.2006887
148981994,148964282,3997706,22.356665,51.37,101056.75,1.2007214
149042303,149019548,3997706,22.565409,51.37,101054.25,1.2006917
149092534,149072333,3997706,22.710737,51.379997,101052.5,1.2006708
149142947,149125105,3997706,22.628824,51.379997,101053.5,1.2006828
149203150,149180455,3997706,22.565409,51.379997,101054.25,1.2006917
149253437,149233233,3997706,22.501993,51.379997,101055.0,1.2007005
149304136,149286238,3997706,22.441221,51.379997,101055.75,1.2007095
149364449,149341740,3997706,22.54427,51.39,101054.5,1.2006947
149414736,149394537,3997706,22.441221,51.379997,101055.75,1.2007095
149465050,149447361,3997706,22.710737,51.39,101052.5,1.2006708
149525576,149502678,3997706,22.459717,51.39,101055.5,1.2007065
149575773,149555523,3997706,22.565409,51.39,101054.25,1.2006917
149626721,149608265,3997706,22.628824,51.39,101053.5,1.2006828
149686713,149663527,3997706,22.335527,51.399998,101056.99,1.2007242
149736931,149716715,3997706,22.253614,51.399998,101057.99,1.2007362
149787257,149769482,3997706,22.54427,51.399998,101054.5,1.2006947
149847531,149824805,3997706,22.420082,51.399998,101056.0,1.2007124
149898046,149877644,3997706,22.523132,51.399998,101054.75,1.2006975
149948151,149930473,3997706,22.607685,51.399998,101053.75,1.2006857
150008497,149985762,3997706,22.501993,51.41,101054.99,1.2007005
150058794,150038569,3997706,22.649963,51.399998,101053.25,1.2006798
150109469,150091694,3997706,22.689598,51.41,101052.75,1.2006738
150169761,150147071,3997706,22.501993,51.41,101055.0,1.2007005
150220042,150199850,3997706,22.501993,51.41,101055.0,1.2007005
150270416,150252625,3997706,22.523132,51.41,101054.75,1.2006975
150330794,150307944,3997706,22.731876,51.42,101052.25,1.2006679
150380879,150360689,3997706,22.420082,51.42,101056.0,1.2007124
150431092,150413422,3997706,22.314388,51.42,101057.25,1.2007273
150491445,150468698,3997706,22.398943,51.42,101056.25,1.2007154
150542182,150521719,3997706,22.54427,51.42,101054.5,1.2006947
150592476,150574732,3997706,22.420082,51.43,101056.0,1.2007124
150652744,150630058,3997706,22.274754,51.43,101057.75,1.2007332
150703129,150682886,3997706,22.441221,51.43,101055.75,1.2007095
150753420,150735736,3997706,22.607685,51.43,101053.75,1.2006857
150813736,150791028,3997706,22.54427,51.43,101054.5,1.2006947
150864061,150843802,3997706,22.586548,51.43,101054.0,1.2006887
150914753,150896691,3997706,22.607685,51.43,101053.75,1.2006857
150975039,150952332,3997706,22.253614,51.44,101057.99,1.2007362
151025522,151005137,3997706,22.420082,51.44,101056.0,1.2007124
151075764,151057987,3997706,22.565409,51.44,101054.25,1.2006917
151136871,151113263,3997706,22.398943,51.44,101056.25,1.2007154
151196935,151172047,3997706,22.48614,51.44,101055.195,1.2007029
151256834,151233838,3997706,22.54427,51.44,101054.5,1.2006947
151306845,151286618,3997706,22.689598,51.449997,101052.75,1.2006738
151357545,151339745,3997706,22.586548,51.449997,101054.0,1.2006887
151417968,151395153,3997706,22.671103,51.449997,101053.0,1.2006768
151468188,151447963,3997706,22.54427,51.449997,101054.5,1.2006947
151518465,151500776,3997706,22.253614,51.46,101058.0,1.2007362
151578759,151556065,3997706,22.54427,51.46,101054.5,1.2006947
151629057,151608825,3997706,22.483496,51.46,101055.25,1.2007035
151679279,151661611,3997706,22.459717,51.46,101055.5,1.2007065
151740040,151717022,3997706,22.462358,51.46,101055.49,1.2007064
151790307,151770121,3997706,22.483496,51.469997,101055.25,1.2007035
151840687,151822891,3997706,22.607685,51.46,101053.75,1.2006857
151900904,151878155,3997706,22.54427,51.469997,101054.5,1.2006947
151951083,151930913,3997706,22.565409,51.469997,101054.25,1.2006917
152001348,151983678,3997706,22.54427,51.469997,101054.5,1.2006947
152061690,152038972,3997706,22.483496,51.469997,101055.25,1.2007035
152111954,152091769,3997706,22.501993,51.469997,101055.0,1.2007005
152162227,152144540,3997706,22.335527,51.469997,101057.0,1.2007244
152223020,152200260,3997706,22.689598,51.48,101052.75,1.2006738
152273290,152253037,3997706,22.501993,51.48,101055.0,1.2007005
152323577,152305841,3997706,22.753014,51.48,101052.0,1.2006649
152383812,152361114,3997706,22.441221,51.48,101055.75,1.2007095
152434118,152413874,3997706,22.314388,51.489998,101057.25,1.2007273
152484339,152466664,3997706,22.483496,51.48,101055.25,1.2007035
152544635,152521955,3997706,22.710737,51.48,101052.5,1.2006708
152595556,152574815,3997706,22.54427,51.489998,101054.5,1.2006947
152645759,152627937,3997706,22.523132,51.489998,101054.75,1.2006975
152706037,152683199,3997706,22.565409,51.489998,101054.25,1.2006917
152756919,152735978,3997706,22.523132,51.489998,101054.75,1.2006975
152826717,152796272,3997706,22.52049,51.489998,101054.8,1.2006981
152876964,152856642,3997706,22.607685,51.5,101053.75,1.2006857
152927734,152909428,3997706,22.274754,51.5,101057.74,1.2007332
152987522,152964703,3997706,22.398943,51.5,101056.25,1.2007154
153038139,153017845,3997706,22.649963,51.51,101053.25,1.2006798
153088485,153070701,3997706,22.671103,51.51,101053.0,1.2006768
153148690,153126008,3997706,22.398943,51.51,101056.25,1.2007154
153198950,153178766,3997706,22.523132,51.51,101054.75,1.2006975
153249240,153231518,3997706,22.753014,51.51,101052.0,1.2006649
153309541,153286808,3997706,22.483496,51.51,101055.25,1.2007035
153359779,153339589,3997706,22.607685,51.51,101053.75,1.2006857
153410049,153392370,3997706,22.459717,51.51,101055.5,1.2007065
153471026,153448004,3997706,22.420082,51.52,101055.99,1.2007123
153521058,153500883,3997706,22.314388,51.52,101057.25,1.2007273
153571364,153553672,3997706,22.586548,51.52,101054.0,1.2006887
153631708,153608963,3997706,22.377804,51.52,101056.5,1.2007184
153681904,153661732,3997706,22.420082,51.53,101055.99,1.2007123
153732145,153714483,3997706,22.483496,51.53,101055.25,1.2007035
153792499,153769744,3997706,22.710737,51.53,101052.5,1.2006708
153843030,153822562,3997706,22.501993,51.53,101055.0,1.2007005
153893516,153875732,3997706,22.501993,51.53,101055.0,1.2007005
153953848,153931147,3997706,22.607685,51.53,101053.75,1.2006857
154004083,153983918,3997706,22.671103,51.53,101053.0,1.2006768
154054421,154036721,3997706,22.54427,51.539997,101054.5,1.2006947
154114757,154092058,3997706,22.689598,51.539997,101052.75,1.2006738
154165111,154144881,3997706,22.607685,51.539997,101053.75,1.2006857
154215684,154197779,3997706,22.483496,51.539997,101055.25,1.2007035
154276850,154253540,3997706,22.607685,51.55,101053.75,1.2006857
154336870,154312314,3997706,22.501993,51.55,101055.0,1.2007005
154396980,154374116,3997706,22.377804,51.55,101056.5,1.2007184
154447137,154426941,3997706,22.607685,51.55,101053.75,1.2006857
154497492,154479791,3997706,22.483496,51.55,101055.25,1.2007035
154558018,154535140,3997706,22.586548,51.55,101054.0,1.2006887
154608165,154587941,3997706,22.459717,51.55,101055.5,1.2007065
154658826,154641153,3997706,22.253614,51.559998,101058.0,1.2007362
154719081,154696407,3997706,22.565409,51.559998,101054.26,1.2006917
154769416,154749212,3997706,22.295893,51.559998,101057.49,1.2007302
154819701,154802008,3997706,22.398943,51.559998,101056.25,1.2007154
154879986,154857299,3997706,22.483496,51.57,101055.25,1.2007035
154930434,154910079,3997706,22.607685,51.57,101053.75,1.2006857
154980684,154962904,3997706,22.523132,51.559998,101054.75,1.2006975
155041295,155018276,3997706,22.753014,51.559998,101052.0,1.2006649
155091590,155071390,3997706,22.420082,51.57,101055.99,1.2007123
155141874,155124179,3997706,22.377804,51.57,101056.5,1.2007184
155202193,155179489,3997706,22.710737,51.57,101052.5,1.2006708
155252505,155232282,3997706,22.565409,51.579998,101054.25,1.2006917
155302931,155285099,3997706,22.731876,51.579998,101052.25,1.2006679
155363127,155340445,3997706,22.671103,51.57,101053.0,1.2006768
155413513,155393211,3997706,22.649963,51.579998,101053.25,1.2006798
155464169,155446355,3997706,22.689598,51.579998,101052.75,1.2006738
155524516,155501794,3997706,22.314388,51.59,101057.25,1.2007273
155574766,155554585,3997706,22.398943,51.59,101056.25,1.2007154
155625075,155607385,3997706,22.586548,51.59,101054.0,1.2006887
155685679,155662719,3997706,22.398943,51.579998,101056.25,1.2007154
155735704,155715524,3997706,22.731876,51.59,101052.25,1.2006679
155786604,155768261,3997706,22.565409,51.59,101054.25,1.2006917
155846687,155823782,3997706,22.523132,51.59,101054.75,1.2006975
155897008,155876764,3997706,22.356665,51.6,101056.75,1.2007214
155947193,155929533,3997706,22.731876,51.59,101052.25,1.2006679
156007528,155984819,3997706,22.565409,51.6,101054.25,1.2006917
156057973,156037622,3997706,22.398943,51.6,101056.25,1.2007154
156108151,156090483,3997706,22.54427,51.6,101054.5,1.2006947
156168657,156145777,3997706,22.586548,51.6,101054.0,1.2006887
156218822,156198601,3997706,22.501993,51.61,101055.0,1.2007005
156269520,156251841,3997706,22.565409,51.61,101054.25,1.2006917
156329899,156307154,3997706,22.565409,51.6,101054.25,1.2006917
156380159,156359953,3997706,22.649963,51.61,101053.25,1.2006798
156430585,156412773,3997706,22.459717,51.61,101055.5,1.2007065
156490868,156468071,3997706,22.459717,51.62,101055.5,1.2007065
156541079,156520829,3997706,22.501993,51.62,101055.0,1.2007005
156591442,156573678,3997706,22.377804,51.62,101056.5,1.2007184
156652151,156629452,3997706,22.565409,51.62,101054.25,1.2006917
156702499,156682270,3997706,22.501993,51.62,101054.99,1.2007005
156752945,156735078,3997706,22.710737,51.62,101052.5,1.2006708
156813093,156790400,3997706,22.232477,51.629997,101058.25,1.2007391
156863404,156843186,3997706,22.483496,51.62,101055.25,1.2007035
156913682,156896001,3997706,22.607685,51.629997,101053.75,1.2006857
156974082,156951287,3997706,22.607685,51.629997,101053.75,1.2006857
157024651,157004267,3997706,22.295893,51.629997,101057.49,1.2007302
157075018,157057238,3997706,22.356665,51.629997,101056.75,1.2007214
157135448,157112563,3997706,22.1902,51.64,101058.75,1.2007451
157185611,157165383,3997706,22.731876,51.64,101052.25,1.2006679
157237087,157218141,3997706,22.441221,51.64,101055.75,1.2007095
157296834,157273437,3997706,22.689598,51.64,101052.75,1.2006738
157356842,157332264,3997706,22.404226,51.64,101056.19,1.2007147
157416806,157394071,3997706,22.420082,51.64,101056.0,1.2007124
157467503,157447286,3997706,22.274754,51.649998,101057.74,1.2007332
157517931,157500077,3997706,22.649963,51.649998,101053.25,1.2006798
157578128,157555439,3997706,22.483496,51.649998,101055.25,1.2007035
157628428,157608201,3997706,22.398943,51.649998,101056.25,1.2007154
157678689,157661004,3997706,22.649963,51.649998,101053.25,1.2006798
157739006,157716297,3997706,22.565409,51.649998,101054.25,1.2006917
157789300,157769084,3997706,22.377804,51.66,101056.5,1.2007184
157840038,157822242,3997706,22.565409,51.649998,101054.25,1.2006917
157900583,157877683,3997706,22.459717,51.66,101055.5,1.2007065
157950760,157930519,3997706,22.774153,51.66,101051.74,1.2006619
158000986,157983291,3997706,22.523132,51.66,101054.75,1.2006975
158061318,158038604,3997706,22.335527,51.66,101057.0,1.2007244
158111556,158091377,3997706,22.420082,51.67,101056.0,1.2007124
158161824,158144161,3997706,22.774153,51.66,101051.74,1.2006619
158222551,158199528,3997706,22.54427,51.67,101054.5,1.2006947
158272997,158252621,3997706,22.501993,51.67,101055.0,1.2007005
158323075,158305401,3997706,22.483496,51.67,101055.25,1.2007035
158383345,158360657,3997706,22.483496,51.67,101055.25,1.2007035
158433660,158413427,3997706,22.501993,51.68,101055.0,1.2007005
158483944,158466241,3997706,22.356665,51.68,101056.75,1.2007214
158544187,158521504,3997706,22.689598,51.68,101052.75,1.2006738
158594508,158574268,3997706,22.1902,51.68,101058.75,1.2007451
158645450,158627194,3997706,22.483496,51.68,101055.25,1.2007035
158705622,158682874,3997706,22.483496,51.69,101055.25,1.2007035
158756663,158735628,3997706,22.274754,51.69,101057.75,1.2007332
158826561,158795901,3997706,22.671103,51.69,101053.0,1.2006768
158876769,158856203,3997706,22.483496,51.69,101055.25,1.2007035
158928030,158908968,3997706,22.462358,51.69,101055.49,1.2007064
158986959,158964228,3997706,22.523132,51.69,101054.75,1.2006975
159037255,159016971,3997706,22.335527,51.69,101057.0,1.2007244
159088108,159069894,3997706,22.459717,51.69,101055.5,1.2007065
159148242,159125558,3997706,22.54427,51.699997,101054.49,1.2006946
159198492,159178317,3997706,22.398943,51.699997,101056.25,1.2007154
159248802,159231072,3997706,22.441221,51.699997,101055.75,1.2007095
159309078,159286388,3997706,22.398943,51.71,101056.25,1.2007154
159359405,159339197,3997706,22.586548,51.699997,101054.0,1.2006887
159409696,159391988,3997706,22.483496,51.71,101055.25,1.2007035
159469982,159447254,3997706,22.420082,51.71,101056.0,1.2007124
159520714,159500238,3997706,22.607685,51.71,101053.75,1.2006857
159571054,159553210,3997706,22.607685,51.71,101053.75,1.2006857
159631163,159608481,3997706,22.356665,51.719997,101056.75,1.2007214
159681460,159661259,3997706,22.420082,51.719997,101056.0,1.2007124
159731744,159714048,3997706,22.753014,51.719997,101052.0,1.2006649
159792027,159769348,3997706,22.753014,51.719997,101051.99,1.2006649
159842328,159822132,3997706,22.628824,51.719997,101053.5,1.2006828
159892634,159874967,3997706,22.483496,51.719997,101055.25,1.2007035
159953410,159930589,3997706,22.523132,51.73,101054.75,1.2006975
160003648,159983479,3997706,22.459717,51.73,101055.5,1.2007065
160054007,160036232,3997706,22.483496,51.73,101055.25,1.2007035
160114203,160091520,3997706,22.314388,51.73,101057.25,1.2007273
160164508,160144287,3997706,22.54427,51.73,101054.5,1.2006947
160214803,160197077,3997706,22.607685,51.73,101053.75,1.2006857
160275111,160252413,3997706,22.420082,51.73,101055.99,1.2007123
160328061,160305325,3997706,22.586548,51.73,101054.0,1.2006887
160396899,160366033,3997706,22.753014,51.739998,101052.0,1.2006649
160457204,160432363,3997706,22.501993,51.739998,101055.0,1.2007005
160517015,160494145,3997706,22.54427,51.739998,101054.5,1.2006947
160567126,160546901,3997706,22.565409,51.739998,101054.25,1.2006917
160617473,160599728,3997706,22.586548,51.75,101054.0,1.2006887
160677742,160655058,3997706,22.649963,51.75,101053.25,1.2006798
160728209,160707835,3997706,22.607685,51.75,101053.75,1.2006857
160778780,160761075,3997706,22.335527,51.75,101057.0,1.2007244
160839123,160816422,3997706,22.483496,51.75,101055.25,1.2007035
160889461,160869207,3997706,22.565409,51.75,101054.25,1.2006917
160939634,160921973,3997706,22.459717,51.76,101055.5,1.2007065
160999973,160977245,3997706,22.459717,51.76,101055.51,1.2007066
161050181,161030009,3997706,22.731876,51.76,101052.25,1.2006679
161100715,161082796,3997706,22.459717,51.76,101055.5,1.2007065
161161302,161138235,3997706,22.398943,51.76,101056.25,1.2007154
161211597,161191393,3997706,22.607685,51.76,101053.75,1.2006857
161261847,161244179,3997706,22.483496,51.76,101055.25,1.2007035
161322167,161299464,3997706,22.586548,51.77,101054.0,1.2006887
161372483,161352247,3997706,22.483496,51.77,101055.25,1.2007035
161422735,161405057,3997706,22.607685,51.77,101053.75,1.2006857
161483136,161460397,3997706,22.420082,51.78,101055.99,1.2007123
161533916,161513311,3997706,22.377804,51.77,101056.5,1.2007184
162550191,162532533,3997706,22.420082,51.8,101056.0,1.2007124
162610827,162587878,3997706,22.565409,51.809998,101054.25,1.2006917
162661012,162640674,3997706,22.671103,51.8,101053.0,1.2006768
162711201,162693462,3997706,22.586548,51.809998,101054.0,1.2006887
162771932,162748862,3997706,22.459717,51.809998,101055.5,1.2007065
162822127,162801955,3997706,22.607685,51.809998,101053.75,1.2006857
162872508,162854716,3997706,22.459717,51.809998,101055.5,1.2007065
162932730,162910048,3997706,22.565409,51.82,101054.26,1.2006917
162983010,162962817,3997706,22.628824,51.82,101053.5,1.2006828
163033364,163015614,3997706,22.586548,51.82,101054.0,1.2006887
163093677,163070973,3997706,22.54427,51.82,101054.5,1.2006947
163143902,163123739,3997706,22.671103,51.82,101053.0,1.2006768
163194573,163176700,3997706,22.607685,51.82,101053.75,1.2006857
163254984,163232183,3997706,22.54427,51.829998,101054.5,1.2006947
163305212,163285016,3997706,22.356665,51.829998,101056.75,1.2007214
163355734,163337835,3997706,22.565409,51.829998,101054.25,1.2006917
163416922,163393111,3997706,22.420082,51.829998,101056.0,1.2007124
163476981,163451938,3997706,22.536343,51.829998,101054.6,1.2006959
163536971,163513752,3997706,22.710737,51.84,101052.5,1.2006708
163587242,163566665,3997706,22.525774,51.84,101054.74,1.2006975
163637554,163619866,3997706,22.523132,51.84,101054.75,1.2006975
163698009,163675163,3997706,22.314388,51.84,101057.25,1.2007273
163748145,163727960,3997706,22.501993,51.85,101054.99,1.2007005
163798429,163780744,3997706,22.398943,51.85,101056.25,1.2007154
163858733,163836061,3997706,22.377804,51.84,101056.5,1.2007184
163909029,163888849,3997706,22.523132,51.85,101054.75,1.2006975
163959271,163941605,3997706,22.565409,51.85,101054.25,1.2006917
164020051,163997348,3997706,22.420082,51.85,101055.99,1.2007123
164070466,164050131,3997706,22.54427,51.85,101054.5,1.2006947
164120613,164102916,3997706,22.335527,51.85,101057.0,1.2007244
164181015,164158174,3997706,22.79529,51.85,101051.5,1.200659
164231107,164210932,3997706,22.483496,51.85,101055.25,1.2007035
164281414,164263729,3997706,22.483496,51.86,101055.25,1.2007035
164341833,164319045,3997706,22.628824,51.86,101053.5,1.2006828
164392038,164371840,3997706,22.398943,51.86,101056.25,1.2007154
164442722,164425065,3997706,22.689598,51.87,101052.75,1.2006738
164503090,164480331,3997706,22.501993,51.87,101055.0,1.2007005
164553381,164533102,3997706,22.483496,51.87,101055.25,1.2007035
164603597,164585909,3997706,22.335527,51.87,101056.99,1.2007242
164663896,164641209,3997706,22.607685,51.87,101053.75,1.2006857
164714199,164693963,3997706,22.586548,51.87,101054.0,1.2006887
164764498,164746777,3997706,22.441221,51.87,101055.75,1.2007095
164825459,164802228,3997706,22.54427,51.87,101054.51,1.2006947
164875811,164855398,3997706,22.420082,51.879997,101056.0,1.2007124
164928028,164908169,3997706,22.54427,51.879997,101054.5,1.2006947
164986652,164963467,3997706,22.483496,51.879997,101055.25,1.2007035
165036815,165016230,3997706,22.420082,51.879997,101056.0,1.2007124
165106806,165076523,3997706,22.501993,51.879997,101055.0,1.2007005
165157038,165136864,3997706,22.398943,51.89,101056.25,1.2007154
165207417,165189629,3997706,22.54427,51.879997,101054.5,1.2006947
165268179,165245364,3997706,22.420082,51.89,101055.99,1.2007123
165318392,165298111,3997706,22.314388,51.89,101057.25,1.2007273
165368563,165350876,3997706,22.501993,51.89,101055.0,1.2007005
165428852,165406173,3997706,22.501993,51.89,101055.0,1.2007005
165479091,165458916,3997706,22.54427,51.89,101054.5,1.2006947
165529450,165511684,3997706,22.420082,51.899998,101055.99,1.2007123
165589708,165567006,3997706,22.462358,51.899998,101055.49,1.2007064
165640047,165619796,3997706,22.398943,51.899998,101056.25,1.2007154
165690755,165672900,3997706,22.565409,51.89,101054.25,1.2006917
165751096,165728258,3997706,22.628824,51.899998,101053.5,1.2006828
165801350,165781093,3997706,22.501993,51.91,101055.0,1.2007005
165851581,165833901,3997706,22.398943,51.91,101056.25,1.2007154
165911911,165889214,3997706,22.607685,51.899998,101053.75,1.2006857
165962190,165941997,3997706,22.649963,51.91,101053.25,1.2006798
166012532,165994790,3997706,22.565409,51.91,101054.25,1.2006917
166073337,166050224,3997706,22.586548,51.91,101054.0,1.2006887
166123565,166103340,3997706,22.501993,51.92,101055.01,1.2007006
166173852,166156179,3997706,22.377804,51.91,101056.5,1.2007184
166234163,166211461,3997706,22.607685,51.92,101053.75,1.2006857
166284457,166264239,3997706,22.420082,51.92,101056.0,1.2007124
166334722,166317005,3997706,22.501993,51.92,101055.0,1.2007005
166395044,166372311,3997706,22.586548,51.92,101054.0,1.2006887
166445558,166425145,3997706,22.710737,51.92,101052.5,1.2006708
166496936,166478418,3997706,22.483496,51.93,101055.25,1.2007035
166556899,166533684,3997706,22.710737,51.93,101052.5,1.2006708
166616953,166592480,3997706,22.354023,51.93,101056.8,1.200722
166677025,166654269,3997706,22.483496,51.93,101055.25,1.2007035
166727635,166707054,3997706,22.295893,51.93,101057.5,1.2007303
166797658,166767402,3997706,22.52049,51.94,101054.805,1.2006983
166848036,166827755,3997706,22.628824,51.94,101053.5,1.2006828
166898694,166880909,3997706,22.335527,51.94,101056.99,1.2007242
166959040,166936302,3997706,22.441221,51.94,101055.75,1.2007095
167009254,166989071,3997706,22.54427,51.94,101054.49,1.2006946
167059572,167041864,3997706,22.483496,51.94,101055.25,1.2007035
167119820,167097139,3997706,22.54427,51.94,101054.5,1.2006947
167170103,167149900,3997706,22.501993,51.949997,101054.99,1.2007005
167220524,167202684,3997706,22.523132,51.94,101054.75,1.2006975
167280803,167258005,3997706,22.731876,51.949997,101052.25,1.2006679
167331464,167311247,3997706,22.689598,51.949997,101052.75,1.2006738
167381760,167364073,3997706,22.441221,51.949997,101055.75,1.2007095
167442101,167419370,3997706,22.54427,51.96,101054.49,1.2006946
167492328,167472159,3997706,22.274754,51.96,101057.74,1.2007332
167542634,167524966,3997706,22.586548,51.949997,101054.0,1.2006887
167603010,167580232,3997706,22.523132,51.96,101054.75,1.2006975
167653206,167633019,3997706,22.483496,51.96,101055.25,1.2007035
167703976,167686007,3997706,22.420082,51.96,101056.0,1.2007124
167764226,167741514,3997706,22.607685,51.969997,101053.75,1.2006857
167814529,167794315,3997706,22.483496,51.969997,101055.25,1.2007035
167864823,167847114,3997706,22.689598,51.969997,101052.75,1.2006738
167925104,167902396,3997706,22.356665,51.969997,101056.75,1.2007214
167975525,167955198,3997706,22.377804,51.969997,101056.49,1.2007183
168025715,168007982,3997706,22.459717,51.969997,101055.5,1.2007065
168086666,168063241,3997706,22.462358,51.969997,101055.49,1.2007064
168136903,168116223,3997706,22.523132,51.969997,101054.75,1.2006975
168207033,168176727,3997706,22.470285,51.98,101055.4,1.2007053
168257423,168237078,3997706,22.54427,51.98,101054.5,1.2006947
168307598,168289915,3997706,22.377804,51.98,101056.5,1.2007184
168368015,168345205,3997706,22.607685,51.98,101053.75,1.2006857
168418220,168397984,3997706,22.483496,51.98,101055.25,1.2007035
168468432,168450755,3997706,22.710737,51.98,101052.5,1.2006708
168528775,168506015,3997706,22.628824,51.989998,101053.5,1.2006828
168579408,168559228,3997706,22.586548,51.989998,101054.0,1.2006887
168629664,168611997,3997706,22.501993,51.989998,101054.99,1.2007005
168690029,168667278,3997706,22.459717,51.989998,101055.5,1.2007065
168740244,168720062,3997706,22.483496,52.0,101055.25,1.2007035
168790587,168772857,3997706,22.295893,51.989998,101057.5,1.2007303
169716924,169692067,3997706,22.401587,52.03,101056.2,1.2007148
169776918,169753933,3997706,22.211338,52.02,101058.5,1.2007421
169827306,169806915,3997706,22.398943,52.02,101056.25,1.2007154
169877612,169859927,3997706,22.459717,52.03,101055.5,1.2007065
169938030,169915258,3997706,22.483496,52.03,101055.25,1.2007035
169988242,169968062,3997706,22.377804,52.03,101056.5,1.2007184
170038546,170020860,3997706,22.586548,52.03,101054.0,1.2006887
170098977,170076155,3997706,22.586548,52.039997,101054.0,1.2006887
170149186,170129000,3997706,22.523132,52.03,101054.75,1.2006975
170200012,170182004,3997706,22.398943,52.03,101056.25,1.2007154
170260395,170237553,3997706,22.501993,52.039997,101055.0,1.2007005
170310632,170290393,3997706,22.274754,52.039997,101057.75,1.2007332
170360851,170343169,3997706,22.459717,52.039997,101055.5,1.2007065
170421153,170398440,3997706,22.565409,52.039997,101054.25,1.2006917
170471466,170451229,3997706,22.335527,52.039997,101057.0,1.2007244
170521685,170504015,3997706,22.710737,52.039997,101052.5,1.2006708
170582071,170559281,3997706,22.607685,52.039997,101053.75,1.2006857
170632678,170612377,3997706,22.441221,52.05,101055.75,1.2007095
170683043,170665266,3997706,22.441221,52.05,101055.75,1.2007095
170743314,170720593,3997706,22.459717,52.05,101055.5,1.2007065
170793547,170773369,3997706,22.523132,52.05,101054.75,1.2006975
170843806,170826145,3997706,22.377804,52.05,101056.5,1.2007184
170904140,170881430,3997706,22.607685,52.05,101053.75,1.2006857
170954405,170934213,3997706,22.523132,52.059998,101054.75,1.2006975
171004933,170987022,3997706,22.565409,52.05,101054.25,1.2006917
171065635,171042755,3997706,22.274754,52.059998,101057.75,1.2007332
171116848,171095625,3997706,22.523132,52.07,101054.75,1.2006975
171186631,171155924,3997706,22.454433,52.07,101055.59,1.2007077
171236878,171216215,3997706,22.314388,52.07,101057.25,1.2007273
171306800,171276521,3997706,22.470285,52.07,101055.4,1.2007053
171356969,171336789,3997706,22.54427,52.07,101054.5,1.2006947
171407208,171389547,3997706,22.54427,52.07,101054.5,1.2006947
171468189,171445221,3997706,22.565409,52.07,101054.25,1.2006917
171518304,171498119,3997706,22.54427,52.079998,101054.5,1.2006947
171568621,171550935,3997706,22.54427,52.079998,101054.5,1.2006947
171628992,171606231,3997706,22.377804,52.079998,101056.49,1.2007183
171679279,171659034,3997706,22.565409,52.079998,101054.25,1.2006917
171729504,171711842,3997706,22.253614,52.079998,101057.99,1.2007362
171790023,171767114,3997706,22.501993,52.09,101054.99,1.2007005
171840760,171820154,3997706,22.335527,52.079998,101056.99,1.2007242
171890862,171873155,3997706,22.689598,52.09,101052.75,1.2006738
171951085,171928410,3997706,22.420082,52.079998,101056.0,1.2007124
172001405,171981204,3997706,22.586548,52.09,101054.0,1.2006887
172051699,172034009,3997706,22.459717,52.09,101055.5,1.2007065
172111978,172089295,3997706,22.523132,52.09,101054.75,1.2006975
172162277,172142044,3997706,22.523132,52.09,101054.75,1.2006975
172212511,172194803,3997706,22.628824,52.09,101053.5,1.2006828
172273292,172250233,3997706,22.356665,52.1,101056.75,1.2007214
172323580,172303401,3997706,22.356665,52.1,101056.75,1.2007214
172373839,172356169,3997706,22.54427,52.1,101054.5,1.2006947
172434226,172411442,3997706,22.398943,52.1,101056.25,1.2007154
172484416,172464232,3997706,22.356665,52.1,101056.75,1.2007214
172534632,172516977,3997706,22.441221,52.11,101055.75,1.2007095
172594988,172572224,3997706,22.441221,52.11,101055.75,1.2007095
172645212,172625016,3997706,22.54427,52.11,101054.5,1.2006947
172696044,172678066,3997706,22.54427,52.11,101054.49,1.2006946
172756999,172733554,3997706,22.441221,52.11,101055.75,1.2007095
172816977,172792364,3997706,22.554838,52.11,101054.39,1.2006934
172877154,172854204,3997706,22.523132,52.11,101054.75,1.2006975
172927670,172906972,3997706,22.689598,52.12,101052.75,1.2006738
172997592,172967332,3997706,22.253614,52.12,101057.99,1.2007362
173048056,173027678,3997706,22.398943,52.12,101056.25,1.2007154
173098592,173080713,3997706,22.501993,52.12,101055.0,1.2007005
173158906,173136204,3997706,22.335527,52.12,101056.99,1.2007242
173209231,173188986,3997706,22.523132,52.129997,101054.75,1.2006975
173259512,173241780,3997706,22.565409,52.129997,101054.25,1.2006917
173319723,173297042,3997706,22.314388,52.129997,101057.25,1.2007273
173370000,173349804,3997706,22.295893,52.129997,101057.49,1.2007302
173420251,173402580,3997706,22.356665,52.129997,101056.75,1.2007214
173480608,173457882,3997706,22.459717,52.129997,101055.5,1.2007065
173531294,173510739,3997706,22.671103,52.129997,101053.0,1.2006768
173581508,173563839,3997706,22.356665,52.129997,101056.75,1.2007214
173641866,173619155,3997706,22.523132,52.14,101054.75,1.2006975
173692153,173671933,3997706,22.441221,52.129997,101055.75,1.2007095
173742400,173724688,3997706,22.54427,52.14,101054.5,1.2006947
173802734,173780023,3997706,22.398943,52.14,101056.25,1.2007154
173853117,173832814,3997706,22.523132,52.14,101054.75,1.2006975
173903249,173885576,3997706,22.607685,52.14,101053.75,1.2006857
173964046,173941081,3997706,22.565409,52.149998,101054.25,1.2006917
174014330,173994070,3997706,22.398943,52.149998,101056.25,1.2007154
174064592,174046908,3997706,22.377804,52.149998,101056.5,1.2007184
174124982,174102216,3997706,22.356665,52.16,101056.75,1.2007214
174175446,174155026,3997706,22.420082,52.149998,101055.99,1.2007123
174225620,174207838,3997706,22.441221,52.149998,101055.75,1.2007095
174286681,174263096,3997706,22.335527,52.16,101057.0,1.2007244
174336962,174315829,3997706,22.295893,52.16,101057.5,1.2007303
174406837,174376486,3997706,22.554838,52.16,101054.39,1.2006934
174457060,174436877,3997706,22.356665,52.16,101056.75,1.2007214
174507355,174489671,3997706,22.314388,52.16,101057.25,1.2007273
174567706,174545005,3997706,22.523132,52.16,101054.75,1.2006975
174618021,174597791,3997706,22.501993,52.17,101055.0,1.2007005
174668301,174650571,3997706,22.377804,52.17,101056.5,1.2007184
174728622,174705891,3997706,22.335527,52.17,101057.0,1.2007244
174779366,174758920,3997706,22.398943,52.17,101056.25,1.2007154
174829639,174811964,3997706,22.483496,52.17,101055.25,1.2007035
174889979,174867237,3997706,22.459717,52.18,101055.5,1.2007065
174940217,174920022,3997706,22.398943,52.18,101056.25,1.2007154
174990644,174972858,3997706,22.377804,52.18,101056.5,1.2007184
175050886,175028133,3997706,22.54427,52.18,101054.5,1.2006947
175101083,175080870,3997706,22.441221,52.17,101055.74,1.2007093
175151422,175133674,3997706,22.54427,52.18,101054.5,1.2006947
175212119,175189411,3997706,22.377804,52.18,101056.5,1.2007184
175262411,175242186,3997706,22.356665,52.18,101056.75,1.2007214
175312632,175294961,3997706,22.420082,52.19,101056.0,1.2007124
175372979,175350262,3997706,22.356665,52.19,101056.75,1.2007214
175423194,175403021,3997706,22.398943,52.19,101056.25,1.2007154
175473538,175455799,3997706,22.441221,52.19,101055.74,1.2007093
175533857,175511111,3997706,22.462358,52.19,101055.49,1.2007064
175584090,175563877,3997706,22.441221,52.19,101055.75,1.2007095
175634753,175616946,3997706,22.483496,52.19,101055.25,1.2007035
175695134,175672390,3997706,22.459717,52.199997,101055.5,1.2007065
175745590,175725262,3997706,22.441221,52.199997,101055.75,1.2007095
175795749,175778054,3997706,22.169062,52.199997,101059.0,1.2007481
175856815,175833299,3997706,22.335527,52.199997,101056.99,1.2007242
176298930,176276195,3997706,22.462358,52.21,101055.49,1.2007064
176349168,176328971,3997706,22.377804,52.219997,101056.5,1.2007184
176399942,176381889,3997706,22.377804,52.219997,101056.5,1.2007184
176460482,176437578,3997706,22.523132,52.219997,101054.75,1.2006975
176510631,176490414,3997706,22.232477,52.219997,101058.25,1.2007391
176560944,176543161,3997706,22.459717,52.219997,101055.5,1.2007065
176621199,176598452,3997706,22.356665,52.219997,101056.75,1.2007214
176671462,176651268,3997706,22.314388,52.23,101057.25,1.2007273
176721741,176704066,3997706,22.586548,52.219997,101054.0,1.2006887
176782115,176759330,3997706,22.586548,52.23,101054.0,1.2006887
176832730,176812431,3997706,22.459717,52.23,101055.5,1.2007065
176883133,176865348,3997706,22.314388,52.23,101057.25,1.2007273
176943351,176920625,3997706,22.501993,52.23,101055.0,1.2007005
176993650,176973428,3997706,22.314388,52.239998,101057.25,1.2007273
177043874,177026209,3997706,22.253614,52.23,101057.99,1.2007362
177104216,177081495,3997706,22.377804,52.239998,101056.5,1.2007184
177154519,177134280,3997706,22.523132,52.239998,101054.75,1.2006975
177204832,177187079,3997706,22.462358,52.23,101055.49,1.2007064
177265742,177242874,3997706,22.398943,52.239998,101056.25,1.2007154
177316813,177295616,3997706,22.459717,52.239998,101055.5,1.2007065
177386511,177355890,3997706,22.536343,52.25,101054.6,1.2006959
177436736,177416219,3997706,22.420082,52.25,101056.0,1.2007124
177506795,177476511,3997706,22.435934,52.25,101055.8,1.20071
177556951,177536783,3997706,22.314388,52.25,101057.25,1.2007273
177607247,177589560,3997706,22.377804,52.25,101056.49,1.2007183
177668160,177645116,3997706,22.420082,52.25,101056.0,1.2007124
177718312,177698133,3997706,22.211338,52.25,101058.5,1.2007421
177768668,177750932,3997706,22.295893,52.25,101057.5,1.2007303
177828929,177806236,3997706,22.211338,52.26,101058.5,1.2007421
177879159,177858991,3997706,22.441221,52.26,101055.75,1.2007095
177929457,177911778,3997706,22.356665,52.26,101056.75,1.2007214
177989807,177967067,3997706,22.483496,52.26,101055.25,1.2007035
178040093,178019856,3997706,22.295893,52.26,101057.49,1.2007302
178090785,178072984,3997706,22.420082,52.27,101056.0,1.2007124
178151072,178128397,3997706,22.483496,52.27,101055.25,1.2007035
178201425,178181185,3997706,22.232477,52.27,101058.25,1.2007391
178251698,178234013,3997706,22.232477,52.27,101058.25,1.2007391
178311994,178289320,3997706,22.295893,52.27,101057.49,1.2007302
178634208,178611516,3997706,22.441221,52.28,101055.75,1.2007095
178684507,178664295,3997706,22.274754,52.28,101057.75,1.2007332
178734773,178717094,3997706,22.314388,52.28,101057.25,1.2007273
178795172,178772447,3997706,22.356665,52.289997,101056.74,1.2007213
178846633,178825379,3997706,22.462358,52.28,101055.49,1.2007064
178896851,178878497,3997706,22.398943,52.289997,101056.25,1.2007154
178957006,178933771,3997706,22.232477,52.289997,101058.25,1.2007391
179017095,178992568,3997706,22.420082,52.289997,101055.99,1.2007123
179077021,179054344,3997706,22.420082,52.289997,101056.0,1.2007124
179128043,179107112,3997706,22.211338,52.289997,101058.5,1.2007421
179197689,179167455,3997706,22.369877,52.3,101056.59,1.2007195
179248102,179227763,3997706,22.253614,52.3,101057.99,1.2007362
179298686,179280780,3997706,22.377804,52.3,101056.5,1.2007184
179359072,179336320,3997706,22.398943,52.3,101056.25,1.2007154
179409360,179389115,3997706,22.398943,52.3,101056.25,1.2007154
179459570,179441895,3997706,22.211338,52.3,101058.5,1.2007421
179519951,179497167,3997706,22.1902,52.309998,101058.75,1.2007451
179570135,179549957,3997706,22.607685,52.3,101053.75,1.2006857
179620589,179602724,3997706,22.377804,52.3,101056.5,1.2007184
179680896,179658044,3997706,22.314388,52.309998,101057.25,1.2007273
179731524,179711331,3997706,22.607685,52.309998,101053.75,1.2006857
179781777,179764111,3997706,22.483496,52.309998,101055.25,1.2007035
179842186,179819382,3997706,22.274754,52.32,101057.75,1.2007332
179892463,179872201,3997706,22.420082,52.309998,101056.0,1.2007124
179942710,179925030,3997706,22.314388,52.309998,101057.25,1.2007273
180003092,179980340,3997706,22.398943,52.32,101056.25,1.2007154
180053312,180033126,3997706,22.377804,52.32,101056.5,1.2007184
180104057,180086267,3997706,22.232477,52.32,101058.25,1.2007391
180164382,180141658,3997706,22.335527,52.32,101056.99,1.2007242
180214598,180194432,3997706,22.274754,52.32,101057.75,1.2007332
180264952,180247197,3997706,22.211338,52.329998,101058.5,1.2007421
180325244,180302540,3997706,22.335527,52.329998,101057.0,1.2007244
180375664,180355339,3997706,22.420082,52.329998,101055.99,1.2007123
180426638,180408155,3997706,22.356665,52.329998,101056.75,1.2007214
180486878,180463429,3997706,22.295893,52.329998,101057.49,1.2007302
180536935,180516626,3997706,22.441221,52.329998,101055.75,1.2007095
180587062,180569386,3997706,22.232477,52.34,101058.25,1.2007391
180647509,180624670,3997706,22.274754,52.34,101057.75,1.2007332
180908843,180891131,3997706,22.295893,52.35,101057.5,1.2007303
181875442,181857580,3997706,22.356665,52.37,101056.75,1.2007214
181935837,181912920,3997706,22.377804,52.37,101056.5,1.2007184
181986602,181965706,3997706,22.607685,52.37,101053.75,1.2006857
182036828,182018483,3997706,22.586548,52.37,101054.0,1.2006887
182097018,182073752,3997706,22.377804,52.379997,101056.49,1.2007183
182156856,182132609,3997706,22.454433,52.379997,101055.59,1.2007077
182217631,182194940,3997706,22.356665,52.379997,101056.75,1.2007214
182268014,182247733,3997706,22.335527,52.379997,101056.99,1.2007242
182318269,182300544,3997706,22.335527,52.379997,101056.99,1.2007242
182378546,182355852,3997706,22.420082,52.379997,101055.99,1.2007123
182428775,182408597,3997706,22.274754,52.379997,101057.75,1.2007332
182479019,182461358,3997706,22.377804,52.379997,101056.5,1.2007184
182539408,182516657,3997706,22.211338,52.39,101058.5,1.2007421
182590125,182569646,3997706,22.54427,52.39,101054.5,1.2006947
182640313,182622629,3997706,22.501993,52.39,101055.0,1.2007005
182700824,182677954,3997706,22.523132,52.39,101054.75,1.2006975
182751040,182730741,3997706,22.126783,52.399998,101059.5,1.200754
182801234,182783545,3997706,22.398943,52.39,101056.25,1.2007154
182861519,182838836,3997706,22.398943,52.399998,101056.25,1.2007154
182911821,182891619,3997706,22.295893,52.399998,101057.49,1.2007302
182962148,182944404,3997706,22.483496,52.399998,101055.25,1.2007035
183022932,182999997,3997706,22.649963,52.399998,101053.25,1.2006798
183073071,183052889,3997706,22.295893,52.399998,101057.49,1.2007302
183123394,183105667,3997706,22.671103,52.399998,101053.0,1.2006768
183183698,183160975,3997706,22.232477,52.399998,101058.25,1.2007391
183233923,183213758,3997706,22.501993,52.41,101055.0,1.2007005
183284276,183266576,3997706,22.335527,52.41,101056.99,1.2007242
183344586,183321910,3997706,22.441221,52.41,101055.75,1.2007095
183394911,183374648,3997706,22.462358,52.41,101055.49,1.2007064
183445815,183427768,3997706,22.377804,52.399998,101056.5,1.2007184
183506652,183483159,3997706,22.483496,52.41,101055.25,1.2007035
183556912,183535997,3997706,22.459717,52.42,101055.5,1.2007065
183626760,183596311,3997706,22.319674,52.42,101057.195,1.2007266
183677150,183656603,3997706,22.441221,52.42,101055.75,1.2007095
183747157,183716948,3997706,22.435934,52.42,101055.8,1.20071
183797524,183777242,3997706,22.501993,52.42,101054.99,1.2007005
183848165,183830360,3997706,22.523132,52.41,101054.75,1.2006975
183908482,183885755,3997706,22.377804,52.42,101056.5,1.2007184
183958780,183938580,3997706,22.420082,52.43,101056.0,1.2007124
184009038,183991369,3997706,22.398943,52.43,101056.25,1.2007154
184069413,184046694,3997706,22.356665,52.43,101056.75,1.2007214
184119726,184099477,3997706,22.335527,52.43,101057.0,1.2007244
184169927,184152218,3997706,22.377804,52.43,101056.5,1.2007184
184230969,184207633,3997706,22.232477,52.42,101058.25,1.2007391
184281086,184260720,3997706,22.314388,52.44,101057.25,1.2007273
184331158,184313484,3997706,22.253614,52.44,101057.99,1.2007362
184391500,184368796,3997706,22.314388,52.44,101057.25,1.2007273
184441820,184421587,3997706,22.565409,52.44,101054.25,1.2006917
184492027,184474361,3997706,22.710737,52.44,101052.5,1.2006708
184552327,184529638,3997706,22.335527,52.44,101056.99,1.2007242
184602648,184582457,3997706,22.501993,52.44,101055.0,1.2007005
184653460,184635511,3997706,22.459717,52.44,101055.5,1.2007065
184763972,184743803,3997706,22.377804,52.449997,101056.5,1.2007184
184814209,184796547,3997706,22.377804,52.449997,101056.5,1.2007184
184874603,184851857,3997706,22.295893,52.449997,101057.5,1.2007303
184924817,184904607,3997706,22.335527,52.449997,101056.99,1.2007242
185035639,185012679,3997706,22.335527,52.449997,101056.99,1.2007242
185086774,185065712,3997706,22.837568,52.449997,101050.99,1.200653
185138280,185118742,3997706,22.420082,52.46,101056.0,1.2007124
185197038,185174021,3997706,22.356665,52.46,101056.75,1.2007214
