timestamp,timestamp_sample,accel_device_id,gyro_device_id,delta_angle[0],delta_angle[1],delta_angle[2],delta_velocity[0],delta_velocity[1],delta_velocity[2],delta_angle_dt,delta_velocity_dt,delta_velocity_clipping
128608298,128607863,1114146,2228258,-1.2701966e-05,6.234841e-06,-7.406835e-05,-0.0014782717,-0.00075789145,-0.05150144,4987,5247,0
129110615,129110391,1114146,2228258,-2.0066274e-05,-3.9313338e-05,-2.1657808e-05,8.34512e-06,-0.00079801306,-0.054584965,4979,5562,0
129611354,129611243,1114146,2228258,2.6913413e-05,-5.6746776e-05,-4.2681586e-05,-0.0014783012,-0.0008296077,-0.056261674,5727,5763,0
130108022,130107853,1114146,2228258,2.3496239e-05,-1.1290832e-05,-2.9387516e-05,-0.00091925386,-0.0009459049,-0.053863157,4955,5555,0
130610928,130610826,1114146,2228258,1.9517729e-05,-3.088619e-05,-4.8854836e-05,-0.0010303636,-0.00038727382,-0.05127404,5022,5126,0
131107964,131107859,1114146,2228258,-1.232596e-05,-4.680306e-05,-4.8297217e-05,-0.00106723,-0.0001955167,-0.05121983,4992,5253,0
131609830,131608229,1114146,2228258,1.2483751e-05,-3.4683308e-05,-3.2516855e-05,-0.0008199677,-0.000960477,-0.049014226,5361,5138,0
132106687,132106587,1114146,2228258,5.462151e-05,-3.408142e-06,-3.9427658e-05,-0.00045890623,-0.00036779983,-0.04143781,4990,4202,0
132610928,132610383,1114146,2228258,-9.73554e-06,-3.7814032e-05,-4.850749e-05,-0.0018268133,0.00010566511,-0.05171927,4724,5291,0
133108128,133107968,1114146,2228258,-3.5905534e-05,-1.4456767e-05,-3.1023566e-05,-0.0018999503,0.00061093393,-0.05544306,5022,5753,0
133609630,133609514,1114146,2228258,-0.00015518548,-2.9474337e-05,-2.8835591e-05,-0.0018012843,-0.002531785,-0.05006405,4996,5252,0
134110606,134110413,1114146,2228258,-1.2407161e-05,-3.5894263e-05,-2.4253322e-05,-0.0010935805,-0.00046330795,-0.04865329,4964,5025,0
134609953,134609803,1114146,2228258,4.392592e-05,-6.073564e-05,-3.2984048e-05,-0.00048690484,-2.0785217e-05,-0.044546407,4981,4203,0
135107993,135107856,1114146,2228258,3.8334223e-05,1.25826455e-05,-4.9976097e-05,-0.0010388206,-0.00011998779,-0.04997227,4958,4961,0
135611035,135610870,1114146,2228258,6.309436e-05,-8.3726445e-05,-4.681623e-05,-0.0009521219,-0.00020931063,-0.03096831,5073,3145,0
136111581,136111340,1114146,2228258,-1.9485346e-05,-2.8830298e-05,-2.9723768e-05,-0.0014837474,0.00116392,-0.04920968,5037,5253,0
136608333,136608224,1114146,2228258,-5.914924e-06,7.092663e-05,-4.695304e-05,-0.00030934915,0.0012173916,-0.065372996,5320,6284,0
137111744,137111640,1114146,2228258,0.0001626689,-6.8085195e-05,-3.449494e-05,0.00036003007,0.0014513498,-0.052959155,5059,5245,0
137610582,137610404,1114146,2228258,-0.00010674932,-0.00010661727,-1.7900804e-05,-0.0020528347,-0.0077876784,-0.06558723,6185,6955,0
138107999,138107895,1114146,2228258,3.9170718e-05,-6.576323e-08,-1.6033173e-05,-0.0014292081,-0.00055851944,-0.05259284,5019,5569,0
138608127,138607957,1114146,2228258,-8.9828165e-05,-1.3814086e-05,-1.5313834e-05,-0.0024617356,-0.0010491463,-0.067007504,6311,6981,0
139110581,139110382,1114146,2228258,7.8771955e-06,-5.9149816e-06,-1.23791515e-05,-0.0012914455,0.0017166395,-0.048672415,5004,5004,0
139608484,139608380,1114146,2228258,4.9543294e-05,-6.162438e-05,-6.6852066e-05,-0.0019965156,0.00024135948,-0.048229218,5443,5017,0
140108076,140107873,1114146,2228258,0.0001122152,-4.9045953e-05,-2.8644983e-05,-0.0020501453,-0.0022477047,-0.04927239,4996,4996,0
140609462,140609364,1114146,2228258,9.883524e-05,-3.0187768e-05,-3.4407287e-05,0.00029586352,7.8639314e-05,-0.03534512,4998,3420,0
141111441,141111339,1114146,2228258,-7.133764e-06,-2.1620684e-05,-1.8843699e-05,0.00032352985,0.0008687124,-0.049199127,4997,5031,0
141608397,141608219,1114146,2228258,5.7199522e-06,-1.147739e-05,-4.1217347e-05,-0.0002554052,0.0029980512,-0.054044534,5005,5295,0
142111730,142111628,1114146,2228258,0.00018642268,1.1865329e-05,-4.548642e-05,-0.00089301367,-0.00045648115,-0.04907269,5049,4962,0
142610636,142610367,1114146,2228258,4.052555e-07,2.3350816e-05,-4.4682598e-05,-0.001357284,-0.0012511477,-0.07389631,6148,7518,0
145108031,145107890,1114146,2228258,3.6443944e-05,-1.494601e-05,-3.6988647e-05,-0.001457845,-0.001172563,-0.048966907,5013,5019,0
145610964,145610375,1114146,2228258,4.9348953e-05,1.2033586e-06,-4.6704794e-05,-0.00066739856,-0.00046003258,-0.041300166,4590,4196,0
146110701,146110370,1114146,2228258,-8.769661e-06,-2.7473267e-05,-6.972558e-05,-0.0014074892,-0.0016550812,-0.06368062,5496,6303,0
146608402,146608214,1114146,2228258,3.102196e-05,-1.0881954e-05,5.4224943e-06,-0.0011068154,0.00015711857,-0.051025845,5259,5251,0
147109613,147109432,1114146,2228258,4.543402e-05,-6.555797e-05,-5.286972e-05,-0.00044510775,4.3277127e-05,-0.06231897,5720,6337,0
147610687,147610431,1114146,2228258,-1.1140736e-07,-8.6008884e-05,-3.011345e-05,-0.00054718566,-0.0012434942,-0.055095926,4990,5670,0
148107992,148107857,1114146,2228258,-5.098015e-06,-6.391471e-05,-2.332012e-05,-0.0010897189,-0.0002726787,-0.04999899,4937,5006,0
148608904,148608795,1114146,2228258,3.7506405e-05,-4.9525177e-05,-5.878408e-05,-0.0024587377,-0.0008551546,-0.06107864,5719,6300,0
149110605,149110378,1114146,2228258,-8.300855e-06,-1.1695503e-05,-5.7972764e-05,-0.0010241776,-0.00066118647,-0.039861925,4997,4026,0
149608473,149608360,1114146,2228258,1.8685716e-05,-3.9232644e-05,-6.636707e-05,-0.00037570958,-0.0010857445,-0.06148648,5011,6291,0
150107930,150107828,1114146,2228258,-1.605202e-05,-1.6985494e-05,-9.275842e-05,-0.0006629027,-0.00094620173,-0.061614763,4965,6300,0
150610974,150610399,1114146,2228258,-2.1502456e-05,-5.2242318e-05,-3.860307e-05,-0.00077376317,0.00043141388,-0.04594144,4611,4679,0
151110769,151110571,1114146,2228258,-1.1846184e-05,-2.6158177e-05,-7.935402e-05,-0.00050083664,-0.00086493563,-0.041534815,5002,4216,0
151608308,151607933,1114146,2228258,3.9523355e-05,-2.5408504e-05,-4.275712e-05,-0.0010559544,-0.00012191497,-0.04623253,4678,4713,0
152111694,152111583,1114146,2228258,4.441713e-05,-3.8555787e-05,-2.816664e-05,-0.0012735503,-0.00058449374,-0.059286337,5018,6007,0
152608606,152608509,1114146,2228258,7.945684e-06,1.1135065e-05,-5.3858726e-05,-0.00068642956,-0.00042913787,-0.05003781,5020,5114,0
153108063,153107863,1114146,2228258,-2.0918273e-05,-2.9299203e-05,-4.1189778e-05,1.2510834e-05,-0.0004520663,-0.037503723,4977,3828,0
153607476,153607354,1114146,2228258,9.710046e-06,-4.9413542e-05,-6.053209e-05,-0.0004393421,-0.0017410078,-0.050296307,5010,5112,0
154110745,154110374,1114146,2228258,2.9364775e-05,-6.994491e-06,-3.668326e-05,-0.00019591556,-0.0014969246,-0.0614601,5032,6271,0
154608478,154608348,1114146,2228258,5.5957324e-05,-2.0875194e-05,-2.7672255e-05,-0.00080936187,-0.0011203635,-0.050756976,5003,5247,0
155107956,155107862,1114146,2228258,-2.3603202e-06,-1.3614119e-05,-1.6649672e-05,-0.0012852347,0.00013803453,-0.040462833,4994,4135,0
155610924,155610410,1114146,2228258,-1.9851115e-05,-7.820337e-06,-2.616226e-05,-0.00059660495,-0.0007233192,-0.04419661,4616,4555,0
156106544,156106278,1114146,2228258,-2.650012e-06,9.556427e-06,-5.373753e-05,-0.00060157274,0.0005403282,-0.041926805,5003,4234,0
156608314,156607886,1114146,2228258,2.4810057e-05,-1.8435925e-05,-9.1046795e-06,-0.00030850057,-0.0007908443,-0.044377472,4687,4563,0
157111740,157111630,1114146,2228258,5.7810288e-05,-6.096299e-05,-3.5250912e-05,-0.0014551656,-0.0011556514,-0.059451316,5015,6070,0
157608593,157608490,1114146,2228258,-7.0786887e-06,1.6981897e-06,-1.6474205e-05,-0.00061649404,-0.00020044872,-0.050204057,5006,5222,0
158108035,158107895,1114146,2228258,-3.732167e-05,-2.3763694e-05,-2.0344607e-06,-0.0007134936,-0.00069248746,-0.049050078,4999,5005,0
158607511,158607344,1114146,2228258,3.139131e-05,-4.7301408e-05,-1.311384e-05,-0.0007945263,-0.00047507032,-0.05169811,5005,5252,0
159110779,159110446,1114146,2228258,-3.7239363e-06,-4.1732845e-05,-2.6190937e-05,-0.0003701574,-0.0007812655,-0.029852921,4985,3130,0
159608555,159608344,1114146,2228258,2.5708137e-05,-2.8195449e-05,-2.4487892e-05,-2.0054971e-05,-0.00059810124,-0.05136123,5005,5273,0
160105630,160105462,1114146,2228258,-5.4139942e-05,-2.24067e-05,-2.9910067e-05,-0.0010740756,-0.00081610365,-0.054460805,5019,5637,0
160610642,160610368,1114146,2228258,1.6612114e-05,-1.71048e-05,-5.7840014e-05,-0.00023715346,-0.00038936787,-0.05496528,4965,5541,0
161107105,161106987,1114146,2228258,1.748986e-05,-2.1925114e-05,-6.371244e-05,-0.00045747313,-0.00013208411,-0.061714847,5718,6251,0
162610696,162610386,1114146,2228258,-1.169409e-05,-5.450466e-05,-7.321923e-05,-0.00089515257,-0.0002254363,-0.049344618,5002,5003,0
163107958,163107865,1114146,2228258,-0.00028237773,-0.0006318239,-0.0012679615,-0.0017527994,-0.00032774033,-0.041119006,4996,4084,0
163607551,163607402,1114146,2228258,0.00015251883,0.0008785945,-0.00045392715,0.0009086051,-0.001954795,-0.051670212,5065,5280,0
164110586,164110366,1114146,2228258,-3.766416e-05,7.4434596e-05,-7.361095e-05,-0.0023487795,-0.0013515905,-0.040389106,4981,4203,0
164608461,164608347,1114146,2228258,-1.0954608e-05,-3.1780874e-05,-6.670307e-05,-0.0022194039,-0.0011405777,-0.04515536,4996,4619,0
165108007,165107860,1114146,2228258,4.766935e-05,3.0583655e-05,-3.0098847e-05,-0.00040513766,-0.0006511674,-0.04069395,4986,4157,0
165610661,165610459,1114146,2228258,5.6276393e-05,-3.0678428e-05,-3.563261e-05,-0.00081487815,-0.0009985717,-0.04986394,4969,5033,0
166110799,166110555,1114146,2228258,2.3926135e-05,-4.780078e-05,-4.0021157e-05,-0.0009871315,-7.121942e-05,-0.04510873,5002,4667,0
166608039,166607910,1114146,2228258,-2.1659396e-05,-5.625781e-05,-2.3095934e-05,-0.00093379343,-0.0012699694,-0.048533905,4958,5024,0
167110531,167110367,1114146,2228258,1.50260885e-05,-6.755422e-05,-5.051487e-05,-0.0006955661,-0.00065875804,-0.029903691,4988,3139,0
167610596,167610367,1114146,2228258,2.5739664e-05,-1.1964165e-06,-5.8295536e-05,-0.0022983793,-0.0016456749,-0.048821244,4987,5023,0
168106954,168106844,1114146,2228258,-0.00024028191,-0.00022874327,0.00012658731,-0.00063860236,-0.00061817456,-0.041895024,5009,4190,0
168607477,168607348,1114146,2228258,0.00015173963,0.0011501815,-0.00010325748,-0.0029557494,0.0016734767,-0.050684538,5011,5189,0
170108056,170107948,1114146,2228258,2.95967e-05,-3.7088954e-05,-3.6793725e-05,-0.0011603485,-0.0011730943,-0.050696068,5082,5258,0
170610584,170608622,1114146,2228258,-0.00011321184,-2.9381914e-05,-2.7844675e-05,-0.00069846975,-0.0023004012,-0.060820073,4993,6275,0
171110831,171110550,1114146,2228258,-7.1075874e-07,5.461524e-06,-3.0650554e-05,-0.00085332274,-0.0014835835,-0.053209826,5001,5512,0
171608067,171607933,1114146,2228258,9.32068e-05,-1.2553791e-05,-4.765027e-05,-0.0011345259,-0.0010139687,-0.049128484,5008,5013,0
172110624,172110384,1114146,2228258,2.24712e-05,-5.527911e-05,-3.5541587e-05,-5.824053e-05,-0.0014245125,-0.050712794,5001,5219,0
172608613,172608502,1114146,2228258,-4.6914647e-05,-4.3983408e-05,5.1362495e-06,-0.0011415483,-0.000513284,-0.045919605,5033,4712,0
173107969,173107856,1114146,2228258,5.3617954e-05,3.778856e-06,-2.9643965e-05,-0.0011935406,-0.0013494918,-0.050900716,4980,5253,0
173607489,173607356,1114146,2228258,7.489833e-05,-2.3593137e-05,-5.564352e-05,-0.0016036051,-0.0010958263,-0.060965933,5017,6299,0
174110576,174110400,1114146,2228258,5.497387e-05,-2.6860955e-05,-2.9350234e-05,0.00029628686,-0.00068430125,-0.056204382,4974,5685,0
174608092,174607928,1114146,2228258,-1.5273385e-05,-4.1949887e-05,1.0260575e-06,-0.00084424124,-0.0016951511,-0.04909962,5017,5081,0
175109670,175107864,1114146,2228258,1.0186976e-05,-5.5045264e-05,-3.7210906e-05,-0.0010078208,-0.0016084156,-0.056496594,4998,5709,0
175610579,175610380,1114146,2228258,4.8559505e-05,-2.2192311e-05,-4.174785e-05,-0.0008443079,-0.00019137858,-0.037721768,5001,3957,0
176608076,176607952,1114146,2228258,3.983453e-05,-3.1725882e-05,-4.803802e-05,-0.0004958568,-0.00119968,-0.037714206,5019,3869,0
177110539,177110367,1114146,2228258,2.6039155e-05,-4.436991e-05,-4.1332434e-05,-0.001372963,-0.0009024831,-0.05104173,4994,5247,0
177610728,177610452,1114146,2228258,1.9803174e-05,-2.665225e-05,-3.637318e-05,-0.0011966239,-0.00054265955,-0.039998844,4978,4076,0
178106943,178106829,1114146,2228258,3.5806636e-06,-5.5310516e-06,7.915997e-06,-0.0006461535,-0.0016031914,-0.050864033,5007,5248,0
178610610,178610411,1114146,2228258,2.7996994e-06,2.3884717e-05,-1.4172301e-05,-0.000897811,-0.0014194952,-0.049270164,4941,5005,0
179105618,179105385,1114146,2228258,5.2980402e-05,-1.9592362e-05,-4.901347e-05,-0.00096090557,-0.0012094574,-0.041243445,5000,4205,0
179609161,179609039,1114146,2228258,-4.6820714e-06,-2.824124e-05,-2.3243503e-05,-0.0005184823,-0.0008973829,-0.05713865,5693,5927,0
180108006,180107868,1114146,2228258,2.7167214e-05,-2.8998349e-05,-2.7137345e-05,-0.0002063298,-0.0019227444,-0.054982875,4991,5621,0
180610591,180610370,1114146,2228258,-2.2428358e-06,-3.722558e-05,3.3403437e-06,-0.00093232177,-0.0005406721,-0.039284386,4981,4018,0
182110983,182110826,1114146,2228258,-6.5071335e-06,-5.0444567e-05,-1.8527897e-05,-0.00020943697,-0.0013208289,-0.055157658,5444,5735,0
182608104,182607994,1114146,2228258,1.422231e-06,-3.1716147e-05,-5.6192166e-05,-0.0011237072,-0.0012700115,-0.053083148,5041,5515,0
183108014,183107901,1114146,2228258,2.1888305e-05,-1.567484e-05,-2.8575647e-05,-0.0006577253,-0.0025836895,-0.06607294,5027,6782,0
183608876,183608754,1114146,2228258,2.4064624e-05,-7.958995e-05,-4.404501e-05,-0.0009558807,-0.0012396219,-0.051268708,5003,5249,0
184110997,184110681,1114146,2228258,4.458288e-05,-3.4751207e-05,-7.263504e-05,-0.0005937627,-0.0015855378,-0.04956242,5244,4990,0
184608041,184607905,1114146,2228258,4.7610418e-05,4.188799e-05,-0.000103807106,0.00064154656,-0.0018828432,-0.049266085,4937,5029,0
185109649,185109534,1114146,2228258,-4.1253243e-05,-8.001042e-05,2.6975207e-05,-0.0004332259,-0.00034072032,-0.033256285,4982,3398,0
185608004,185607899,1114146,2228258,3.7774313e-05,-3.4230743e-05,-8.66164e-05,-0.00095699023,-0.0016805885,-0.056197684,5730,5625,0
186110728,186110538,1114146,2228258,6.1182873e-06,-3.930156e-05,0.000104438084,-0.0011152035,-0.00032697202,-0.04832114,5008,5001,0
186607984,186607881,1114146,2228258,1.47709625e-05,-3.6590372e-05,-1.924505e-05,-0.00080860587,-0.0014014555,-0.039453782,4993,4121,0
187110942,187110842,1114146,2228258,-1.7728382e-05,-8.0246835e-05,-6.86801e-05,0.0015343531,-0.0023046802,-0.05362166,5461,5632,0
187607999,187607894,1114146,2228258,-2.3359491e-06,-9.746115e-05,-3.6162022e-05,-0.00037555842,0.0008488606,-0.04853901,4992,4988,0
188108374,188108244,1114146,2228258,8.6953205e-06,-1.1001604e-07,-5.0583756e-05,-0.0020863258,-0.0014728924,-0.06379322,5371,6623,0
188610597,188610370,1114146,2228258,1.6302343e-05,-3.878707e-05,-4.1341277e-06,-0.0008121264,-0.001107176,-0.048712477,4920,4950,0
189110890,189110677,1114146,2228258,4.2469423e-05,3.785073e-05,-5.539861e-05,0.0006856896,-0.0018232937,-0.04887057,5005,5013,0
189608144,189607938,1114146,2228258,-9.851713e-06,1.5911553e-05,-1.1529287e-05,-0.00096791034,-0.0011309424,-0.04714905,5007,5007,0
190108150,190107875,1114146,2228258,4.887168e-06,6.661738e-05,-1.9279563e-05,-0.00069432636,-0.0010179429,-0.06386894,6211,6470,0
190610595,190610425,1114146,2228258,-0.000103040715,5.3537886e-05,-1.8215658e-05,-0.0013698705,-0.0037056892,-0.028576795,4975,3109,0
191109978,191109814,1114146,2228258,0.0001184113,-0.00034306519,-6.0330734e-05,0.0002726113,-0.0013874093,-0.053468388,4902,5250,0
191608038,191607870,1114146,2228258,3.07458e-05,9.377194e-05,-2.9176917e-05,0.001756862,0.0005932513,-0.04238713,4993,4200,0
192108817,192108672,1114146,2228258,-0.00030220376,0.0001335842,4.769207e-05,0.0011472051,-0.0014671988,-0.05152505,5708,5140,0
193611824,193611728,1114146,2228258,-7.896922e-05,-0.0003942207,-0.00010457686,-0.009374605,-0.0024496852,-0.052663025,5080,5330,0
194110616,194110404,1114146,2228258,-6.471929e-05,-0.00023565786,-9.906421e-05,-0.009316944,-0.0025464448,-0.062929325,6170,6403,0
194607952,194607853,1114146,2228258,0.00023231552,7.586729e-06,-2.307475e-05,0.0040708603,0.0006981241,-0.040789176,4985,4081,0
195109644,195109524,1114146,2228258,0.000112328315,5.7630532e-05,-5.914043e-05,-0.0004055593,-0.000115519186,-0.050863463,5000,4999,0
195610665,195610456,1114146,2228258,-2.110041e-05,-0.0002469031,-6.86386e-05,-0.0032220075,-8.128257e-05,-0.037991513,5002,4199,0
196111390,196111260,1114146,2228258,0.00037476042,-0.00030651194,7.94617e-06,-0.0010712657,-0.0012873015,-0.05132232,5740,5250,0
196608014,196607862,1114146,2228258,-0.00026301827,-0.00020030138,6.62114e-05,-0.0009986976,-0.0012421476,-0.042738777,4987,4204,0
197111076,197110386,1114146,2228258,0.00015533864,-3.2083084e-05,-0.00011231649,-0.0018552743,-0.0021952435,-0.048815697,4581,5038,0
197607997,197607856,1114146,2228258,-0.00012703202,0.00023504572,-7.139928e-05,-0.0005244988,-0.0010118254,-0.050425053,4961,5032,0
198108408,198107868,1114146,2228258,0.0001823926,0.00016297124,-3.5616293e-05,-0.00035372167,0.0016925376,-0.048123483,4632,5011,0
198610543,198610373,1114146,2228258,-6.446882e-05,0.00020933463,-0.00016141214,-0.003493363,-0.00044599778,-0.047219034,6644,5252,0
199108636,199108521,1114146,2228258,6.7270135e-05,-0.00011990566,-4.2734595e-05,3.7880523e-05,-0.0008781531,-0.04182094,5007,4158,0
199606991,199606881,1114146,2228258,0.000239417,-0.00011934249,-7.068943e-05,-0.0007416608,-0.0018150762,-0.06137654,5714,6270,0
200108060,200107925,1114146,2228258,-0.00028067784,5.6401484e-05,6.0400875e-05,-0.002913855,-0.0010793757,-0.04676073,4997,5003,0
200610570,200610401,1114146,2228258,-0.00050324446,-0.001102762,-0.00022388462,0.021877402,-0.00073044427,-0.04726843,5022,4200,0
201108491,201108380,1114146,2228258,3.0605406e-05,1.4874397e-06,0.0007647108,0.02929435,-0.014602554,-0.035615034,4975,4584,0
201608097,201607915,1114146,2228258,0.0006874708,0.0018495698,0.00020492099,0.018490804,-0.025837598,-0.065676175,5052,5258,0
202278207,202277905,1114146,2228258,-0.00048023683,-0.0013038139,-0.0014242121,0.024663666,-0.002280219,-0.031084444,4790,4248,0
203611844,203611631,1114146,2228258,0.0017071827,-0.0011986613,2.803457e-05,0.0125736,-0.00017292977,-0.031246198,5031,3841,0
204110617,204110385,1114146,2228258,0.0009519926,-0.00063173566,-8.310628e-05,0.01928783,-0.009290209,-0.018413898,4994,6279,0
204607970,204607868,1114146,2228258,0.001447626,0.0003082927,0.0002453293,0.0120627135,-0.008062769,-0.038475793,4993,5253,0
205107958,205107858,1114146,2228258,0.00032457034,0.0006223926,-0.0004030644,0.004025093,-0.008723974,-0.03462004,4977,3033,0
205610584,205610407,1114146,2228258,-0.00019650276,0.0014130591,8.31447e-06,0.008350392,-0.012102722,-0.10878632,5017,6703,0
206111348,206111230,1114146,2228258,0.00053486077,0.000767323,-0.00020267663,0.00582883,-0.0136384005,-0.06192263,5005,5242,0
206608003,206607892,1114146,2228258,0.0019448801,-0.00016857375,-0.0001922659,0.013428648,-0.01680788,-0.027360331,5022,6706,0
207110750,207110446,1114146,2228258,-0.00095480226,-4.3594453e-05,0.0004363724,0.007542172,-0.014213547,-0.050383735,4988,4996,0
207607186,207607012,1114146,2228258,-0.0005389497,0.00016190342,0.00049405685,0.010266516,-0.015435755,-0.07276718,5717,6341,0
208611725,208611629,1114146,2228258,0.00031422256,-0.00021872699,9.691754e-05,0.0046022628,-0.00889806,-0.03413674,5049,4192,0
209110594,209110378,1114146,2228258,0.0010670923,-0.00011553026,-0.000110333014,0.0025500641,-0.009948804,-0.041245308,4983,4162,0
209607979,209607880,1114146,2228258,-0.0033021152,-0.0009666739,7.3957044e-06,0.008775282,-0.014363671,-0.054730117,5007,5250,0
210110583,210110380,1114146,2228258,0.0037400196,-0.00089684763,0.00045688302,0.01623621,-0.010121641,0.0035262161,5868,6344,0
210610648,210610418,1114146,2228258,0.0005765125,0.00033073805,2.2939297e-05,0.008236889,-0.014067473,-0.057864808,5026,5657,0
211109258,211109084,1114146,2228258,-0.0017408581,0.00058353104,0.00015106378,0.0083076125,-0.016980125,-0.060807157,5725,5012,0
211608079,211607942,1114146,2228258,-0.00051233376,-0.00019465204,0.00043852872,0.0066206246,-0.018276175,-0.050488584,4928,5692,0
212110610,212110371,1114146,2228258,-0.00037610155,0.00023317487,0.000502629,0.006674732,-0.014121223,-0.045874845,4988,4019,0
212609323,212609149,1114146,2228258,-2.0882831e-05,0.000577622,-4.6370944e-05,0.006160742,-0.014777637,-0.051764075,5003,5287,0
213107961,213107862,1114146,2228258,-0.00072558783,0.00028605945,-0.00037090972,0.004319592,-0.009500121,-0.040769193,4992,2981,0
213606682,213606583,1114146,2228258,-0.0023674804,0.00017386473,0.00045247233,0.0051101777,-0.010507182,-0.03984676,5012,3146,0
214108766,214108520,1114146,2228258,-0.0017247628,0.00016356102,9.766783e-05,0.0039209733,-0.011454864,-0.04950256,4960,4478,0
214608010,214607900,1114146,2228258,-0.002037373,-8.345297e-05,-0.00037544363,0.009869506,-0.014133653,-0.0797454,5022,6767,0
216107999,216107865,1114146,2228258,-0.00068693643,0.0003996439,-0.0007079639,0.01125878,-0.0019248817,-0.043856986,4945,5038,0
216611118,216611006,1114146,2228258,0.0018527271,0.0011139525,-0.0017091404,0.010977508,-0.0018280171,-0.05799525,5629,5306,0
217110530,217110372,1114146,2228258,0.0012833644,0.00024595635,-0.0017892868,0.004273475,-0.005104767,-0.047958266,4916,4045,0
217610631,217610377,1114146,2228258,-0.00052010186,0.00058939436,-0.0016146171,0.010530662,-0.012388359,-0.06523552,6228,6310,0
218108005,218107906,1114146,2228258,-0.0007590701,0.00069770473,-0.00065498013,0.0051639285,-0.0041056876,-0.04780891,5002,4084,0
218609526,218609429,1114146,2228258,7.782517e-05,0.0008715205,-0.0005445017,0.0075385813,-0.0021614726,-0.068713754,5000,5258,0
219109356,219109240,1114146,2228258,-0.0003155611,0.0012188809,-0.00038221464,0.008196605,0.0023141827,-0.07357474,5719,5804,0
219608116,219607956,1114146,2228258,0.0005746298,0.0010288842,-0.00011907125,0.011729869,0.0060830265,-0.06906209,5069,5686,0
220610995,220610720,1114146,2228258,-0.0003240612,0.00040906452,-0.00068810146,0.008750279,0.007043645,-0.054709524,5298,5009,0
221109241,221109127,1114146,2228258,-0.0008924259,-0.0002146703,-0.00063071214,0.010098914,0.008104252,-0.044704046,4988,5245,0
221606959,221606020,1114146,2228258,-0.0026867336,0.00056243356,-0.0012723905,0.01641446,0.011062936,-0.037658334,5629,6265,0
222110539,222110375,1114146,2228258,-0.0015887505,0.0009998563,-0.0012079136,0.007835633,0.0052947677,-0.026336381,4998,3161,0
222611391,222611287,1114146,2228258,0.00025146327,0.0021122424,-0.0014053023,0.009318374,0.0056135044,-0.058568746,5717,5084,0
223107971,223107872,1114146,2228258,0.0009682898,0.0017298599,-0.0009402593,0.0054102545,0.005986946,-0.03173881,5009,3144,0
223609536,223609432,1114146,2228258,0.0019609567,0.0018040085,-0.002091074,0.009568648,0.010036479,-0.0761176,5002,5192,0
224110752,224110490,1114146,2228258,0.002930848,0.0015820103,-0.0025960882,0.0043395795,0.0033104527,-0.07838149,5005,4755,0
225610932,225610372,1114146,2228258,0.00048551016,0.0007585719,-0.0006702429,0.0045749806,-0.0010939385,-0.060326383,4654,4994,0
226107972,226107867,1114146,2228258,0.0028861621,-0.0003966725,-0.0012597253,0.004155781,0.0013866919,-0.03927974,4983,4075,0
226608232,226607873,1114146,2228258,0.0029402734,-0.00019017691,-0.0013941389,0.0063213133,-0.003828352,-0.04111601,4742,5001,0
227110530,227110367,1114146,2228258,-0.0016973792,-0.0008210672,-7.827491e-05,0.004060231,-0.005590404,-0.024268098,4988,3159,0
227610001,227609867,1114146,2228258,-0.00072219013,-0.000103100356,0.00026909893,0.005033435,-0.0051327376,-0.051492378,5009,5287,0
228111978,228111833,1114146,2228258,0.00010503011,-0.00021503105,0.00021079263,0.003422844,0.00026716883,-0.045843873,4982,5248,0
228610955,228610851,1114146,2228258,0.0029781011,-6.437569e-05,-0.00044012628,0.0029690654,0.0031236603,-0.054853126,4999,5009,0
229110703,229110377,1114146,2228258,0.0025435141,-0.00051055965,-0.0010625948,0.006748685,-0.0004334279,-0.03548292,4988,5613,0
229608385,229607932,1114146,2228258,-0.0005935597,6.0010356e-05,-0.0007324131,0.0066439942,-0.008169548,-0.044062972,4656,5031,0
230109703,230109489,1114146,2228258,-0.0025769381,-0.0002333829,0.00046069975,0.0061594956,-0.011164821,-0.062214278,5720,6299,0
230610637,230610367,1114146,2228258,-0.00065483246,-0.0001755051,1.4869907e-05,0.00038145483,-0.006503401,-0.065614335,4988,5010,0
231108022,231107878,1114146,2228258,0.0004729361,-9.617975e-05,-0.0002732959,0.0013506877,-0.0032441271,-0.050223093,4982,4156,0
231608015,231607859,1114146,2228258,0.0013656227,2.5150248e-05,-0.00067257776,0.0022205806,-0.0040857317,-0.036665026,4991,5034,0
233610570,233610369,1114146,2228258,0.00039521867,0.000116676485,-0.00028397256,-0.0127404,-0.0092540635,-0.061461896,4948,5014,0
234110598,234110374,1114146,2228258,0.0022680454,0.00013948543,-0.00075411936,-0.0074033136,-0.0066331103,-0.05666289,4845,5545,0
234608004,234607870,1114146,2228258,0.0002461993,0.00026153208,-0.00068967167,-0.0053112237,-0.0055260407,-0.04472336,4963,5028,0
235110645,235110449,1114146,2228258,2.1949945e-05,-0.00040213068,-0.0008642876,-0.0026028187,-0.009368484,-0.03365392,5005,6290,0
235610765,235610404,1114146,2228258,-0.0012689736,-0.00042923444,-0.0005240592,-0.0021158522,-0.0094988495,-0.05591828,5017,5119,0
236607964,236607867,1114146,2228258,-0.00039527364,-0.0006510796,-0.00053806166,0.0001677453,-0.0040447614,-0.019923475,4987,3027,0
237110668,237110458,1114146,2228258,5.425425e-05,-0.00040957518,-0.00080359186,0.0016622425,-0.011754578,-0.07879165,5051,6765,0
237608535,237608429,1114146,2228258,-0.0017540633,4.8522637e-05,-0.00057923596,0.0019333472,-0.006994506,-0.05460879,5025,4976,0
238108000,238107886,1114146,2228258,-0.0002954809,0.00057720765,-0.0006183532,-2.9443487e-05,-0.005662363,-0.058207676,5024,5668,0
238610633,238610431,1114146,2228258,-0.00040781178,0.0012631483,-0.0007994939,-0.004710139,-0.003105212,-0.06605149,5054,5051,0
239107965,239107874,1114146,2228258,0.00041538273,0.0012531106,-0.00091706036,-0.0009083608,-0.00343997,-0.055788454,4990,4121,0
239607978,239607824,1114146,2228258,0.0003774847,0.00015734186,-0.0008262587,0.0011466199,-0.0023053545,-0.044013616,4949,3958,0
240108156,240108049,1114146,2228258,0.00022580211,8.11623e-06,-0.00077050674,-0.004245152,-0.0013166185,-0.049755264,5002,5020,0
240610779,240610437,1114146,2228258,-0.00017465485,0.0007645985,-0.00046442228,4.2421892e-05,-0.001962742,-0.05811523,4980,5200,0
241109924,241109764,1114146,2228258,-0.0012343177,0.00034810195,7.126662e-05,0.0004566509,0.0009440734,-0.067596145,5717,6329,0
241608002,241607856,1114146,2228258,-0.0011304797,9.150164e-05,-5.8812534e-06,0.001762396,0.0016084756,-0.027439,4983,3102,0
242109442,242109339,1114146,2228258,-0.002600842,0.0003255935,-0.00019593864,0.0042360555,0.009032671,-0.03743924,5001,5247,0
242611509,242611360,1114146,2228258,-0.002360575,0.00039089881,-0.0018720137,0.001968985,0.013479198,-0.044371918,6500,6331,0
243108305,243108189,1114146,2228258,0.0014508645,0.0017895525,-0.002268818,-0.0045549492,0.009197229,-0.07590209,5326,6656,0
243610595,243610367,1114146,2228258,0.0018915596,0.0015413144,-0.001748387,-0.002920797,0.005002473,-0.078438416,4991,5080,0
244108580,244108477,1114146,2228258,0.0011145326,0.0010690563,-0.0011081055,-0.008169549,-0.0008478484,-0.08985452,5597,5240,0
244610603,244610429,1114146,2228258,-0.00089430605,-6.282461e-05,-0.0006624015,-0.004002848,0.005300003,-0.054067627,5010,5499,0
245111064,245110913,1114146,2228258,-0.0007541038,-0.00072269375,-0.0003369211,-0.0039840173,0.006255516,-0.030604566,5013,4682,0
245610536,245610369,1114146,2228258,-0.0010144793,0.00015874658,-0.0007869718,0.00016620784,0.00569118,-0.030784238,5029,4198,0
246108579,246108349,1114146,2228258,0.00092195935,-0.0003521383,-0.0011459675,-0.00027006818,0.008057225,-0.046633482,5412,5786,0
248610537,248610374,1114146,2228258,-0.0014145396,0.00049058965,0.0011047821,-0.00087135803,-0.00467946,-0.033278044,4951,3028,0
249107156,249107042,1114146,2228258,-0.000329141,-0.00021334543,0.00071660447,-0.0059372215,0.0034993025,-0.050736424,4979,5250,0
249607965,249607863,1114146,2228258,0.0010664131,-5.5470988e-05,4.045132e-05,-0.0037815983,0.0035452014,-0.037553817,4972,4113,0
250111007,250110904,1114146,2228258,0.00015462504,0.00021506847,-0.00012921455,-0.0029438203,0.0010817614,-0.0479622,5006,4570,0
250610557,250610372,1114146,2228258,0.00021719185,0.00019404214,-0.00021191557,-0.004278126,-0.002715952,-0.051577758,4991,5216,0
251108444,251108336,1114146,2228258,-0.00016006865,5.2053463e-05,-0.0002596786,-0.0040253825,-0.006022863,-0.048146125,4986,4575,0
251606803,251606695,1114146,2228258,-0.00063358416,8.9520734e-05,-0.00012154804,-0.004021628,-0.008948706,-0.054570742,5019,4972,0
252111589,252110367,1114146,2228258,-0.0007241046,0.0005044734,-3.6803103e-05,-0.0049707973,-0.00944801,-0.058905024,4604,5019,0
252610684,252610543,1114146,2228258,-0.0002787727,3.9292295e-06,-0.00037851694,-0.0039962945,-0.011371096,-0.04406044,5001,5596,0
253107989,253107855,1114146,2228258,-0.0006430864,0.0003269554,-0.00043599217,-0.0011636835,-0.010707207,-0.053571645,4992,4985,0
253610546,253610383,1114146,2228258,0.00033679313,0.0018672128,-0.0012953803,-0.0036441067,-0.011715239,-0.047376838,5004,3152,0
254107147,254107039,1114146,2228258,3.0853484e-05,-0.0017682498,-0.0006395882,-0.0012506582,-0.016831521,-0.034120195,5007,4189,0
254607960,254607861,1114146,2228258,0.0015646907,-0.002666849,0.0011773633,0.007864589,-0.006401255,0.027418556,4999,4205,0
255110997,255110898,1114146,2228258,0.0020404514,0.0024477795,-0.00044379348,-0.005684205,-0.0075630164,-0.05977203,4970,4442,0
255609432,255609271,1114146,2228258,-0.0018810497,0.0029477354,-0.0012559083,-0.0038763706,-0.021056272,-0.13719696,5018,5226,0
256108452,256107916,1114146,2228258,-0.0015552398,-0.0008585328,0.0001910987,-0.0016517042,-0.018019278,-0.04123762,4569,4445,0
256610609,256610367,1114146,2228258,0.0006936804,-0.00505442,0.0011714669,0.01126225,-0.00383187,0.0723824,4968,5104,0
257108721,257108607,1114146,2228258,0.00051179354,0.0012679255,-0.0006171198,-0.006874385,-0.007488458,-0.050347798,4978,5237,0
257610807,257610549,1114146,2228258,-0.002283302,0.0022597418,-0.0018672076,-0.009786734,-0.022115134,-0.12367755,5019,4987,0
258108068,258107877,1114146,2228258,-0.0034922308,-0.0006843922,0.0003427439,-0.0037565415,-0.020825047,-0.05592752,5014,5015,0
258610543,258610380,1114146,2228258,-0.001083913,0.0015586234,-0.00013016451,-0.0047652116,-0.008194141,-0.062215164,4997,4198,0
259107995,259107891,1114146,2228258,-0.00043823622,0.0016941997,-0.002047746,-0.008427541,-0.01255978,-0.098235115,5859,5664,0
259607972,259607869,1114146,2228258,-0.00322437,0.00039387186,-0.00092545134,0.00043494866,-0.0147159975,-0.060983833,5003,5208,0
260107510,260107347,1114146,2228258,-0.00012580263,0.0015464608,-0.0008275273,-0.0022239294,-0.008743593,-0.08566813,5010,6298,0
260609356,260609246,1114146,2228258,0.0011813683,0.001982317,-0.0018164163,-0.0038270815,-0.008316494,-0.09766266,5005,5247,0
261108048,261107858,1114146,2228258,-0.0006211077,0.0019880647,-0.0016388803,0.00017810558,-0.009658862,-0.07227861,4952,5018,0
261609751,261609529,1114146,2228258,0.0009163215,0.0015933499,-0.0021394037,-0.00041567622,-0.014280246,-0.11416142,6666,7386,0
263611076,263610823,1114146,2228258,0.00019887765,5.224485e-05,-0.000351911,0.005241697,0.0005603723,-0.044901375,5447,5312,0
264107996,264107892,1114146,2228258,-0.001179204,0.00022796298,0.00012311384,0.0020622723,0.003263102,-0.05647514,5013,5576,0
264608373,264608239,1114146,2228258,-0.0010772912,0.00014759297,-0.00010754033,-0.0005096926,0.007910326,-0.043177232,5365,5252,0
265107510,265107340,1114146,2228258,-0.00059254473,0.00048360255,-0.00073822757,0.0023540226,0.015525376,-0.05602658,4996,6293,0
265610609,265610367,1114146,2228258,-0.001216662,0.00038713982,-0.001172551,9.348147e-06,0.014893037,-0.05194211,6127,6607,0
266109130,266109026,1114146,2228258,-0.0014302557,0.0012624667,-0.0007243212,1.759803e-05,0.013296228,-0.049485836,5004,5215,0
266609623,266609524,1114146,2228258,0.0009555237,0.0011766171,-0.0012691031,-0.0029491084,0.007525854,-0.03942382,5002,3454,0
267110614,267110370,1114146,2228258,-0.00042720546,0.0009881248,-0.00085474807,-0.002477053,0.012214132,-0.05972236,4984,5120,0
268107957,268107863,1114146,2228258,0.00027351585,0.00074503885,-0.0011747625,-0.004727023,0.010494244,-0.04585851,4991,4080,0
268606588,268605849,1114146,2228258,0.0016778283,0.0008341642,-0.0013991006,-0.007550677,0.010327995,-0.06886216,5426,5332,0
269110665,269110390,1114146,2228258,0.0015198636,0.0011128223,-0.00067383645,-0.0074718506,0.009536605,-0.07101644,4998,5249,0
269608405,269607888,1114146,2228258,0.002252658,-0.00034377677,-0.0006212347,-0.008303724,0.009806384,-0.048442077,4656,4533,0
270108120,270108019,1114146,2228258,0.0015268233,-0.0007023254,-0.00078163756,-0.0058183814,0.0057358467,-0.029680086,5002,3107,0
270610570,270610371,1114146,2228258,0.0013639099,0.00019675799,-0.0003809036,-0.0067885104,0.0030208088,-0.045481633,4963,5024,0
271108104,271107927,1114146,2228258,0.00014320957,0.00011518173,0.00055861956,-0.008637419,0.0036941068,-0.04931756,5064,5068,0
271607990,271607855,1114146,2228258,0.0003935537,-8.0990285e-05,0.0005306018,-0.006344354,0.008202836,-0.040090416,4979,4985,0
272110587,272110424,1114146,2228258,-0.00100933,-0.0003110867,-0.0016823205,-0.007847897,-0.00015102913,-0.035800245,4973,4047,0
272609969,272609804,1114146,2228258,-0.00094295526,-0.0003502864,0.0011905277,-0.0075635295,-0.0038538242,-0.03981788,4998,4186,0
274110684,274109166,1114146,2228258,0.00026028726,0.00023251282,0.001984424,-0.011380431,0.0005629366,-0.068263054,5010,6914,0
274607998,274607864,1114146,2228258,0.0018007191,-0.0009533309,-0.0012097217,-0.0079944795,0.013439009,-0.042010136,4990,5613,0
275111728,275111624,1114146,2228258,-0.0017299813,0.00024165871,-0.00094101625,-0.008926101,-0.007146865,-0.06354102,5039,5245,0
275610586,275610379,1114146,2228258,-0.00076783367,0.00057858805,-0.00017445345,-0.010581479,-0.0061475965,-0.071074985,5045,5043,0
276107957,276107858,1114146,2228258,0.00055789074,0.00075342896,-0.0001346831,-0.00877754,-0.0008558989,-0.04973767,4996,2986,0
276610616,276610400,1114146,2228258,-0.001219215,0.0005754382,0.0005531915,-0.013481138,0.008673564,-0.06783669,5886,6734,0
277110544,277110369,1114146,2228258,0.005595286,-0.00085884996,-0.002002839,-0.004997763,0.0008561315,-0.020819195,4972,4239,0
277609196,277607986,1114146,2228258,-0.0036180194,-0.00038755417,-0.0010478103,-0.0028063755,-0.016977733,-0.05057081,4622,4762,0
278107976,278107871,1114146,2228258,-0.004827405,-0.00010403794,0.002460815,-0.0023158554,-0.007954505,-0.059658993,5008,5207,0
278610635,278610436,1114146,2228258,0.0051013664,-0.00061457255,-0.0010758832,-0.0006796139,0.007916663,-0.030249842,4959,5022,0
279110780,279110586,1114146,2228258,0.0031260347,-0.0003895156,-0.0024249014,-0.0003461631,-0.004079754,-0.045275304,5191,5715,0
279608041,279607857,1114146,2228258,-0.002564947,-0.0010472469,-0.00069300376,0.00067339715,-0.018727755,-0.03458233,4914,5029,0
280108124,280108012,1114146,2228258,-0.0004294121,0.00022114745,0.000837746,-0.002657087,-0.0060792533,-0.048039917,5002,5724,0
280608619,280608515,1114146,2228258,0.0046161525,0.00048458367,-0.0022592077,-0.005341936,-0.011462682,-0.06588474,5009,5248,0
281108450,281108336,1114146,2228258,0.0023842563,-0.0005719456,-0.0011303835,0.005257372,-0.023566984,-0.017885908,5455,5168,0
281608000,281607857,1114146,2228258,-0.003012036,-0.0009356263,0.0019534235,-0.00030925035,-0.0115856,-0.012033339,4981,3949,0
282610754,282610511,1114146,2228258,-0.0020392104,0.0008199207,-0.00024781012,-0.008194849,-0.0034866317,-0.09355374,5703,6293,0
283106875,283106720,1114146,2228258,-0.0030645179,0.000107371445,-0.00025084388,-0.0074205888,-0.0026655293,-0.07024124,5006,5312,0
283610618,283610376,1114146,2228258,-0.0030858747,0.00030353578,-0.00011995292,-0.0035018746,0.004162065,-0.043723557,4965,5033,0
284108554,284108451,1114146,2228258,0.0018329995,0.0007607824,-0.0017453165,-0.004185744,0.0020530422,-0.051382862,5569,5147,0
284608023,284607888,1114146,2228258,0.00075985055,0.0001732921,-0.0020225516,-0.005046113,-0.004413854,-0.05193596,4967,5033,0
285108132,285108030,1114146,2228258,0.0003883173,-6.848266e-06,-0.001604542,-0.0057791946,-0.010023123,-0.061468445,5008,5581,0
285610612,285610376,1114146,2228258,-0.00019147004,0.00029227187,-0.0011663926,-0.0027980914,-0.010072098,-0.03979591,4997,5069,0
286111259,286111162,1114146,2228258,-0.00043794213,0.0003631438,-0.0010482627,-0.0077820173,-0.009022236,-0.051820893,5011,4295,0
286608019,286607857,1114146,2228258,0.0001534205,0.00032527922,-0.0012716398,-0.012000936,-0.00965444,-0.07022567,5500,5232,0
287110967,287110722,1114146,2228258,0.00026101194,0.0002329463,-0.0009247549,-0.008143107,-0.005186601,-0.034278862,4957,4676,0
287610658,287610509,1114146,2228258,0.00088072877,0.00071877,-0.000973423,-0.0058200215,-0.0010273998,-0.0475173,4959,4198,0
288111115,288111008,1114146,2228258,-0.00031071017,0.0003621016,-0.0008858103,-0.011076266,-0.010498732,-0.07413479,4987,5112,0
288610599,288610380,1114146,2228258,-0.00082517066,0.00041767038,-0.00021158213,-0.005079453,-0.005906753,-0.04586668,5002,3880,0
289107124,289107023,1114146,2228258,0.0010070569,-1.7639002e-05,-0.0005676734,-0.014677559,-0.00053294265,-0.047667935,4992,5255,0
289608073,289607865,1114146,2228258,-0.0001960649,0.00036938372,-0.00043803008,-0.012011393,0.0012863881,-0.045148764,5002,5002,0
290111057,290110415,1114146,2228258,-0.0023635023,-0.00025057874,-5.833628e-05,-0.014579242,-5.815915e-05,-0.03570619,4559,4207,0
290610724,290610378,1114146,2228258,-0.0026317886,8.797888e-06,0.00075797754,-0.014683379,0.0041045393,-0.05907166,4937,5124,0
291108478,291108325,1114146,2228258,0.0028690554,-0.0007870814,-0.0016606621,-0.009154524,0.006615105,-0.035409547,4989,4196,0
291611756,291611646,1114146,2228258,0.0014049866,-6.074977e-05,-0.0017009303,-0.0136591755,-0.0015399753,-0.0514499,5006,5858,0
293610627,293610428,1114146,2228258,0.00038805266,0.00022816024,-0.00031299904,-0.008773396,0.005681193,-0.055083673,4998,4996,0
294111445,294111299,1114146,2228258,-0.0016017323,-0.00034657135,-0.0012771699,-0.010582659,0.0028483495,-0.017601574,5013,5306,0
294608121,294607985,1114146,2228258,-0.0008476193,0.0005602062,-0.00037850422,-0.011496696,-0.002415238,-0.08106905,5043,5046,0
295111681,295111576,1114146,2228258,0.0014247134,0.00026897714,-0.00082723575,-0.011670239,0.0064085545,-0.047877703,5720,4193,0
295610589,295610421,1114146,2228258,-0.00046440074,0.00042837573,-0.0016434564,-0.009154729,0.003186913,-0.023018228,4983,3123,0
296109092,296107889,1114146,2228258,-0.0021413676,0.00058526755,-0.00045593508,-0.014971257,-0.0011791892,-0.054801777,5002,4195,0
296607465,296606635,1114146,2228258,0.0023477906,0.00046235454,-0.0008965905,-0.014906568,0.0054687303,-0.058930688,4998,6249,0
297110599,297110367,1114146,2228258,-0.00059471716,0.0010284886,-0.0009013159,-0.020717204,-0.0038721801,-0.09665682,4964,5540,0
297608015,297607880,1114146,2228258,-0.0019567749,0.0012838591,-4.3447686e-05,-0.016723705,-0.0031039868,-0.07539626,4986,5055,0
298111868,298111712,1114146,2228258,0.00037787636,-8.6186745e-05,-0.00049015513,-0.008412664,0.0013586706,-0.025587326,5688,4164,0
298610928,298610825,1114146,2228258,0.00025159528,0.00043796923,-0.0007829494,-0.011075732,0.0028581694,-0.053333275,5448,5125,0
299110057,299109852,1114146,2228258,0.0010110623,0.00039592647,-0.0005980849,-0.015524565,-0.0018680264,-0.06726739,4995,5254,0
299608328,299608219,1114146,2228258,0.0012256233,-0.00061460066,-0.00042725154,-0.0107488325,0.001999684,-0.042173635,5346,5141,0
300110635,300110466,1114146,2228258,-0.0010142219,0.00022988192,-0.00026527786,-0.010385363,-0.0051326174,-0.053309932,4976,5682,0
300611001,300610378,1114146,2228258,-0.0036222755,0.0002257252,0.00018969597,-0.013717936,-0.0056819245,-0.0685841,6176,6870,0
301107094,301106130,1114146,2228258,0.0019247258,6.3565545e-05,-0.00015459572,-0.012176535,0.007921695,-0.0553397,4993,5868,0
301607496,301607360,1114146,2228258,0.0039766124,-4.6256697e-05,-0.00163787,-0.011599617,0.003962651,-0.05144626,5735,6261,0
303610916,303610332,1114146,2228258,0.006398308,-0.0007503944,-0.0024084456,-0.0049437587,-0.0034415296,-0.020743677,4562,5244,0
304108107,304107955,1114146,2228258,-0.0025244176,-0.00017836186,-0.00093711587,-0.0059973197,-0.019495726,-0.04454979,5072,5264,0
304608316,304607859,1114146,2228258,-0.004222534,0.000674909,0.0016248,-0.008649753,-0.010191645,-0.07362968,4662,4166,0
305110642,305110432,1114146,2228258,0.0018715078,-8.09152e-05,1.8677789e-05,-0.0063244486,0.004353793,-0.051760126,5037,5550,0
305610713,305610416,1114146,2228258,0.00400436,0.00010911179,-0.0024047806,-0.0042767446,-0.0074219247,-0.037713118,5037,4191,0
306108053,306107945,1114146,2228258,-0.00036354127,-0.0013111442,-6.631276e-05,0.00011034745,-0.026252791,-0.019900128,4999,5604,0
306609601,306609500,1114146,2228258,-0.0033162525,2.8592605e-05,0.0013642876,-0.0075260485,-0.012700162,-0.06339683,5019,5248,0
307110586,307110388,1114146,2228258,0.004564097,0.00071471755,-0.0012774369,-0.0074180197,-0.0033460238,-0.06716686,4990,4990,0
307608453,307608341,1114146,2228258,0.0043491446,0.00014281829,-0.0026942648,0.0015923801,-0.02248551,-0.029432625,5001,5085,0
309608084,309607959,1114146,2228258,-0.0017852985,0.001948546,-0.0014583028,-0.00076588616,-0.018134631,-0.061460298,5057,5230,0
310110569,310110367,1114146,2228258,-0.0013142298,-0.0001933056,-0.0006227555,0.0054056696,-0.02092339,-0.098250344,4952,5016,0
310611456,310610468,1114146,2228258,0.00035976162,-0.0065650367,0.0013494089,0.01921768,-0.004253256,0.06542524,4994,4764,0
311108013,311107874,1114146,2228258,0.002136017,0.0010997456,0.00012732693,0.008194475,-0.001047973,-0.029853636,4942,5008,0
311611762,311610492,1114146,2228258,0.00057367375,0.0038446642,-0.0016829805,0.0054082093,-0.011699398,-0.13373613,4579,5117,0
312110563,312110374,1114146,2228258,-0.0015025876,0.00056915544,-0.001711349,0.0055707134,-0.014885721,-0.07896805,4995,3976,0
312609932,312609775,1114146,2228258,-0.00049165636,-0.006042037,0.00079195184,0.017106866,-0.008118181,0.033641033,5016,4200,0
313107996,313107856,1114146,2228258,-0.00050592417,0.0005159364,0.00020832405,0.0099439295,-0.0055477177,-0.043237034,4982,4984,0
313610546,313610370,1114146,2228258,-0.00076240883,0.00075300585,-0.0006405205,0.008587251,-0.0056346743,-0.08136222,4990,5241,0
314110778,314110551,1114146,2228258,-0.0016658716,0.0010717949,-0.0006499662,0.012243404,-0.003930559,-0.11570914,6435,8403,0
314607995,314607885,1114146,2228258,-0.0018978321,0.0007883804,-0.00028185576,0.006089497,0.006766109,-0.061551597,5007,6297,0
315110944,315110838,1114146,2228258,-0.0017642843,0.00062512065,-0.0008825783,0.005028233,0.006994714,-0.045766655,5418,4976,0
315608024,315607863,1114146,2228258,-0.0005307745,0.0013586384,-0.0012641106,0.0045790556,0.009115178,-0.044437755,4971,5075,0
316108077,316107937,1114146,2228258,0.0023814463,0.0016305868,-0.002029312,0.0021414384,0.0026672056,-0.08213508,4965,5042,0
316607498,316607340,1114146,2228258,0.0005309925,0.00048553428,-0.0017375458,0.0023876347,0.0017809108,-0.056510195,4985,4198,0
317111016,317109280,1114146,2228258,-0.0008538727,0.0013779203,-0.0015857609,0.0023401172,-0.00030474906,-0.067852244,5023,5256,0
317610777,317609059,1114146,2228258,0.0004947731,0.0014941193,-0.002038094,0.0009087826,-0.0041050436,-0.0844652,5012,6357,0
318111079,318110976,1114146,2228258,-0.00014447939,0.0010351423,-0.00160452,-0.0018193929,-0.004734385,-0.049024887,4990,4424,0
318610582,318610410,1114146,2228258,0.00046772257,0.00096619886,-0.0009692989,-0.0012637799,-0.0033316892,-0.072730586,5030,5742,0
319112083,319111979,1114146,2228258,0.0011464609,0.00061335805,-0.0009226887,-0.01873101,-0.00040105951,-0.047436643,5008,5310,0
319607999,319607888,1114146,2228258,0.0006616591,0.00058596215,-0.0010992921,-0.02770439,0.002827248,-0.06852297,4985,6746,0
320109500,320109402,1114146,2228258,0.0019710497,-2.5106448e-05,-0.00024569975,-0.013618651,0.006069732,-0.055398174,4977,5254,0
320610576,320610374,1114146,2228258,0.0012796943,-0.00064371224,-0.0013178235,-0.009790459,0.004092257,-0.038947757,4958,5019,0
321108377,321108257,1114146,2228258,-0.0029012153,4.077732e-05,-0.0007138465,-0.010430516,-0.00029281402,-0.03882733,4995,5011,0
321611729,321611631,1114146,2228258,-0.0020869847,0.00087832316,0.0007884382,-0.010418604,0.0036434622,-0.044895552,4976,4235,0
322107206,322107114,1114146,2228258,0.0005381851,-5.9091788e-05,-0.00072353415,-0.0047143693,0.004568295,-0.018679788,5002,2131,0
322607974,322607878,1114146,2228258,0.00065589545,-0.00050764583,-0.0025483228,-0.007930252,0.002915513,-0.03569826,4985,4189,0
323111077,323110972,1114146,2228258,-9.6468226e-05,0.00027512823,-0.001394194,-0.011111417,-0.0025542723,-0.051488914,5001,4978,0
323610597,323610403,1114146,2228258,0.0004605996,0.00031294193,-0.0002539632,-0.012938415,-0.002083818,-0.06073961,5024,5638,0
324111396,324111292,1114146,2228258,0.0010431039,-4.767805e-05,-3.0331359e-05,-0.008475186,0.0018554206,-0.032721125,5032,3094,0
324607990,324607856,1114146,2228258,0.0031722307,-0.00013711769,-0.0006789744,-0.013535058,0.00343625,-0.05751418,4985,5657,0
327110606,327110374,1114146,2228258,0.00029141665,-0.00034808347,0.0002550019,-0.009175056,0.00265164,-0.040274296,4987,4189,0
327608058,327607953,1114146,2228258,-0.00041385592,6.0620646e-06,-3.805656e-05,-0.013072884,0.002887407,-0.046288457,5043,5258,0
328111197,328110970,1114146,2228258,-0.00059147854,-0.00016448421,3.4430912e-05,-0.011652751,-0.00030993338,-0.045278933,5001,5015,0
328610639,328610378,1114146,2228258,0.0004245812,8.5877786e-05,-0.00039993165,-0.012524269,0.001891031,-0.051762555,4937,5551,0
329109990,329109827,1114146,2228258,-0.00031777026,-1.1122819e-05,-0.00043607384,-0.010126372,-0.002479704,-0.03827842,4969,4198,0
329608023,329607861,1114146,2228258,1.5606476e-05,0.00012559787,-0.00036070927,-0.014063512,-0.0022214572,-0.06036442,4960,5562,0
330110617,330110367,1114146,2228258,-0.0017368228,6.0781593e-05,8.3080005e-05,-0.010334747,-0.00603184,-0.050080977,4965,5100,0
330607967,330607862,1114146,2228258,-0.0017966229,2.2761105e-05,0.00046953963,-0.008975587,-0.0011593549,-0.037280936,4994,4204,0
331108144,331107977,1114146,2228258,-0.0011463737,-0.00011415804,0.00010415777,-0.011616305,0.004265796,-0.041136146,5097,5126,0
331609573,331609467,1114146,2228258,-0.0008220704,5.4280197e-05,-0.0006812946,-0.009310034,0.0023822535,-0.045792002,5007,4957,0
332110600,332110433,1114146,2228258,-0.0009766975,0.00023554561,-0.000980123,-0.009010675,0.0026727277,-0.03381593,4972,4205,0
332608452,332608338,1114146,2228258,-0.00094174035,0.0016254564,-0.0011517778,-0.014722458,0.004445826,-0.06618906,5475,5680,0
333111775,333111679,1114146,2228258,0.00050015934,0.0010505146,-0.0018628772,-0.008154598,0.0011051492,-0.041657735,5006,3153,0
333610985,333610750,1114146,2228258,-0.00061036524,0.00109114,-0.0018239203,-0.0113888625,-0.001178039,-0.061776076,5337,5036,0
334109215,334109099,1114146,2228258,1.1172283e-05,0.00097643473,-0.0011381061,-0.013117321,-0.0030535005,-0.066104434,5005,5250,0
334608279,334608169,1114146,2228258,-0.0002693834,0.00095954636,-0.001021407,-0.013157573,-0.00258563,-0.06260679,5263,5013,0
335110534,335110370,1114146,2228258,0.0015037426,0.00027478862,-0.0012164819,-0.008058425,-0.0018524046,-0.034020934,4986,3121,0
335610663,335610369,1114146,2228258,0.00033647008,0.00040667586,-0.001205121,-0.013692612,-0.0032527552,-0.059452366,4981,5018,0
336107955,336107856,1114146,2228258,-0.00030657605,0.0001836534,-0.000575953,-0.009799566,-0.0039756102,-0.043730915,4983,4182,0
336608847,336608743,1114146,2228258,0.00013655711,-7.337604e-05,-0.00020996126,-0.010370227,-0.0016901416,-0.034977265,5678,4997,0
337109351,337109241,1114146,2228258,0.0014126821,-0.00025148925,-0.00078046764,-0.011008097,-0.0012518294,-0.04990328,5002,5019,0
337608471,337606884,1114146,2228258,0.00045959005,-3.4143228e-05,-0.00090197776,-0.017260542,-0.0045675337,-0.08055224,5010,7506,0
338108024,338107919,1114146,2228258,-2.8955761e-05,-0.00011534865,-0.00034862748,-0.011779151,-0.0050542904,-0.052044902,4990,5264,0
338610631,338610375,1114146,2228258,-0.0013898781,-0.0001854194,0.0002661704,-0.01486354,-0.004212272,-0.065838926,6036,6421,0
339110660,339110525,1114146,2228258,0.0003452286,-0.0002297515,0.000302931,-0.012463551,0.0006981188,-0.045904513,5004,5518,0
339607997,339607862,1114146,2228258,0.00035360412,-0.00020322144,-0.00054785144,-0.011405011,-0.0012687439,-0.04571728,4988,4994,0
340110561,340110398,1114146,2228258,0.0013896573,-5.3735475e-05,-0.0007824146,-0.007560982,-0.0005108457,-0.024023252,5002,3149,0
340607140,340607033,1114146,2228258,0.0014673524,-0.0001993797,-0.0017725426,-0.0118586365,-0.008215292,-0.06346435,5008,5287,0
341107956,341107856,1114146,2228258,-0.0013972007,-0.00023792793,-0.00018712111,-0.007119362,-0.008070114,-0.025265511,4983,3166,0
341610994,341610435,1114146,2228258,0.0009774843,0.00026407337,0.0003376441,-0.011497468,-0.007457139,-0.045216758,4559,4981,0
342110588,342110400,1114146,2228258,0.002581327,-0.00015426667,-0.0010402517,-0.010133564,-0.010529029,-0.030731624,5019,5667,0
342609118,342607956,1114146,2228258,-0.0011608802,0.00015517585,-1.4505413e-05,-0.011642699,-0.013064729,-0.05686724,4616,5024,0
343108003,343107862,1114146,2228258,-0.0012226321,-4.6504152e-05,0.00083457126,-0.012978905,-0.010628118,-0.05477096,4989,5708,0
343610639,343610436,1114146,2228258,0.0008509628,1.5037292e-05,-0.00021214933,-0.012483511,-0.0051215477,-0.042743333,5008,5011,0
344110788,344110521,1114146,2228258,-0.00022967055,4.4858953e-05,-0.00043365223,-0.01177511,-0.0075199357,-0.045092147,5006,5000,0
344607999,344607859,1114146,2228258,-0.0006268225,0.00019808584,-0.00027880995,-0.01258594,-0.009194796,-0.054306727,5034,5040,0
345110968,345110828,1114146,2228258,0.0005740883,-0.00013166506,-0.00037225988,-0.015412889,-0.010367199,-0.06810322,5455,6325,0
345608034,345607885,1114146,2228258,-0.002124874,-0.00014722708,-0.00014617507,-0.012727207,-0.012659479,-0.062755026,5009,5620,0
346611733,346611632,1114146,2228258,0.0020022118,0.00021879993,-0.0015278921,-0.013712807,-0.010021901,-0.061273646,5042,5254,0
347110931,347110661,1114146,2228258,-0.00030528713,-0.00016316761,-0.00073899335,-0.013990298,-0.011816369,-0.041888077,5192,5603,0
347607999,347607862,1114146,2228258,-0.0005685701,-0.00047292348,-0.00013420839,-0.0103877345,-0.011759351,-0.040637687,4957,5023,0
348106778,348106670,1114146,2228258,-0.0011701246,0.00031423697,-0.00021590205,-0.011774954,-0.011145623,-0.057919852,5021,5229,0
348610667,348610369,1114146,2228258,-0.00025020557,6.515804e-05,-0.00061644666,-0.009635969,-0.0081138415,-0.047242895,4991,5077,0
349109972,349109807,1114146,2228258,-0.00045834266,-0.00025244587,-0.0012422188,-0.015555235,-0.015295958,-0.069589175,4998,5266,0
349607954,349607861,1114146,2228258,0.0012167902,2.5630745e-06,4.3067397e-05,-0.008467341,-0.01291976,-0.030516818,4998,4038,0
350111094,350110825,1114146,2228258,0.0012411824,0.0005681058,5.18191e-05,-0.008867436,-0.008251755,-0.05456715,5028,4668,0
351111195,351111087,1114146,2228258,-0.002814512,-2.2634318e-05,0.0010332619,-0.010872214,-0.0088911485,-0.051620804,5006,5150,0
351608118,351608009,1114146,2228258,-0.0010675787,0.000567331,-0.0008344357,-0.0106271515,-0.008436426,-0.07387182,5671,5253,0
352110561,352110367,1114146,2228258,-0.0015661905,-0.00020723017,-0.0015877206,-0.0106178755,-0.0073485393,-0.0503948,4948,5012,0
352607957,352607827,1114146,2228258,-0.001346317,-0.0010124332,-0.0010088843,-0.0062687597,-0.0064204447,-0.028248092,4964,3926,0
353610760,353610376,1114146,2228258,-0.0011883833,-0.00050756807,-0.0010921346,-0.0048877625,-0.01493539,-0.04015475,4996,4121,0
354108505,354108371,1114146,2228258,0.0026418287,4.565046e-05,0.00043557963,-0.0073996284,-0.014498663,-0.030120946,5010,6290,0
354607961,354607856,1114146,2228258,-0.001023021,0.00049569504,0.00043709105,-0.00427731,-0.011101156,-0.039262198,4986,4134,0
355110949,355110825,1114146,2228258,-0.0017728719,0.0013968284,0.0007606007,-0.004096399,-0.011700827,-0.05651121,4981,4561,0
356610595,356610367,1114146,2228258,-0.005196072,-0.0014510088,0.00076702755,-0.0052104485,-0.013129775,-0.038503155,4985,5024,0
357108608,357108505,1114146,2228258,-0.00077113195,-0.00010384461,0.001764583,-0.0039405837,-0.004083988,-0.045075163,5006,5207,0
357608059,357607921,1114146,2228258,0.004584779,-0.00035016896,-0.00091600366,-0.0007423079,-0.004777406,-0.054813273,5012,5010,0
358110613,358110444,1114146,2228258,0.0023716216,-8.056824e-05,-0.0014767617,-0.0026346552,-0.005845696,-0.030556193,5941,4204,0
358610822,358610476,1114146,2228258,-0.0015186109,-0.0015071947,-0.00016202188,-0.0038642832,-0.007742629,-0.03643588,5021,5201,0
359111341,359111221,1114146,2228258,-0.0070002014,0.0009626819,-0.000540063,-0.0055266577,-0.0052851886,-0.063720055,5005,5099,0
359608009,359607909,1114146,2228258,-0.0063188304,0.0014468139,-0.0054797833,-0.004790945,-0.0060997605,-0.015603248,4980,4173,0
360110674,360110401,1114146,2228258,0.006917946,-0.002124458,-0.0019421149,-0.00723704,-0.08703222,-0.072986014,4997,5572,0
360607112,360607003,1114146,2228258,-0.0049414365,-0.0030824936,-0.00031684156,-0.015342334,-0.024075693,-0.057228286,4973,4199,0
361108020,361107861,1114146,2228258,0.0037566768,-0.0009875316,-0.00029985054,-0.0010969504,0.018502427,-0.042442705,4966,5545,0
361611002,361610860,1114146,2228258,-0.0022419535,-3.4246437e-05,0.00019218863,-0.00046498893,0.00019383646,-0.05190554,5468,5111,0
362110586,362110380,1114146,2228258,-0.00037888193,2.5591882e-05,3.7794896e-05,-0.002514657,-0.0039270474,-0.048339747,4987,4988,0
362608397,362608289,1114146,2228258,0.0012923224,3.080693e-05,-0.00013939993,-0.0020018357,0.00014694415,-0.049987454,5410,5121,0
364110733,364110501,1114146,2228258,0.00016742098,-4.7113845e-05,-6.1596336e-05,-0.0013454296,-0.0017665877,-0.061739106,5713,6293,0
364608429,364608215,1114146,2228258,0.0004620769,-8.310402e-05,-0.000104700644,-0.0015749747,0.0015494993,-0.061359584,5343,6293,0
365110627,365110373,1114146,2228258,-8.8931185e-05,-3.448341e-05,-5.648398e-05,-0.0013164371,0.00070500735,-0.049064137,4959,5020,0
