timestamp,magnetometer_ga[0],magnetometer_ga[1],magnetometer_ga[2]
128166042,0.21977697,-0.11900475,0.35885626
128185929,0.18999833,-0.13214615,0.3529356
128205937,0.20410402,-0.14236727,0.36477685
128225923,0.2025367,-0.12776569,0.36181653
128245980,0.2103732,-0.13652663,0.35441574
128265937,0.19783482,-0.12630552,0.36477685
128286076,0.20096943,-0.123385206,0.3529356
128305929,0.20567133,-0.13360633,0.34997532
128325925,0.20410402,-0.12922585,0.35441574
128345951,0.21507509,-0.13652663,0.36477685
128365926,0.18999833,-0.1482079,0.366257
128385934,0.19940212,-0.121925056,0.366257
128405925,0.20567133,-0.13214615,0.3721776
128425923,0.2025367,-0.14382742,0.3558959
128445927,0.20096943,-0.13944694,0.36181653
128465925,0.2119405,-0.1379868,0.3603364
128485929,0.2119405,-0.1379868,0.36181653
128505929,0.18372913,-0.14236727,0.36477685
128525926,0.2103732,-0.14966805,0.36773717
128545952,0.2025367,-0.14236727,0.36181653
128565965,0.19940212,-0.15404852,0.3603364
128585979,0.20567133,-0.1482079,0.3529356
128606000,0.18999833,-0.14236727,0.36181653
128625923,0.19626753,-0.1379868,0.3529356
128645936,0.20880592,-0.13360633,0.35885626
128666041,0.20096943,-0.14674772,0.36477685
128685935,0.20410402,-0.12630552,0.36477685
128705970,0.20410402,-0.13652663,0.36477685
128725929,0.20567133,-0.1379868,0.3558959
128745937,0.18216185,-0.12776569,0.3603364
128765931,0.19783482,-0.15696883,0.36181653
128785923,0.20880592,-0.13360633,0.3603364
128805940,0.19783482,-0.13944694,0.3529356
128825949,0.21507509,-0.13360633,0.35885626
128845970,0.19940212,-0.14236727,0.3558959
128865983,0.19626753,-0.13214615,0.3603364
128886065,0.20880592,-0.13360633,0.3558959
128905954,0.18843102,-0.13360633,0.3529356
128925930,0.2025367,-0.13214615,0.3721776
128945923,0.20567133,-0.14236727,0.3603364
128965930,0.20410402,-0.13652663,0.36181653
128985953,0.19940212,-0.1379868,0.3692173
129005952,0.20880592,-0.12630552,0.36773717
129025927,0.17902727,-0.12630552,0.36181653
129045930,0.19940212,-0.13214615,0.3529356
129065936,0.20096943,-0.13944694,0.35441574
129085992,0.19940212,-0.1379868,0.3529356
129105993,0.19783482,-0.1379868,0.3529356
129145970,0.20880592,-0.13944694,0.36773717
129165977,0.18686375,-0.14236727,0.36181653
129185985,0.19940212,-0.13360633,0.36181653
129205990,0.19626753,-0.1379868,0.3603364
129226019,0.2025367,-0.12484538,0.36181653
129245998,0.20880592,-0.14674772,0.35885626
129265938,0.2103732,-0.12630552,0.35441574
129286016,0.19626753,-0.13360633,0.34997532
129306044,0.19940212,-0.13360633,0.3603364
129326041,0.19470023,-0.14966805,0.37365776
129345928,0.19313292,-0.1511282,0.36181653
129365923,0.20410402,-0.14236727,0.36477685
129385959,0.2025367,-0.13360633,0.3410944
129405935,0.2025367,-0.1379868,0.36181653
129425923,0.18843102,-0.14236727,0.36181653
129445923,0.20410402,-0.13944694,0.36477685
129465954,0.19470023,-0.13944694,0.35885626
129485982,0.2119405,-0.1379868,0.3558959
129505981,0.2166424,-0.1511282,0.3692173
129525970,0.18843102,-0.14674772,0.35885626
129546103,0.20096943,-0.13944694,0.36181653
129566048,0.2025367,-0.14382742,0.3603364
129585973,0.20410402,-0.14236727,0.3529356
129606030,0.19783482,-0.14236727,0.36181653
129625923,0.19626753,-0.14236727,0.366257
129645935,0.21507509,-0.13944694,0.36181653
129665932,0.18372913,-0.13652663,0.35885626
129685964,0.19626753,-0.13214615,0.3558959
129705930,0.20567133,-0.13360633,0.3558959
129725936,0.19940212,-0.1379868,0.36181653
129745923,0.2103732,-0.13652663,0.36773717
129765925,0.20880592,-0.14236727,0.3692173
129785925,0.19783482,-0.14674772,0.34553483
129805937,0.20880592,-0.13214615,0.37513793
129825929,0.20567133,-0.13214615,0.366257
129845928,0.19783482,-0.14236727,0.37069744
129865929,0.19626753,-0.1379868,0.366257
129885926,0.19626753,-0.14236727,0.36181653
129905955,0.20410402,-0.12922585,0.36181653
129925989,0.20096943,-0.12922585,0.35441574
129945978,0.20410402,-0.13652663,0.34849516
129965972,0.18999833,-0.13360633,0.3529356
129985938,0.18843102,-0.13944694,0.35441574
130005973,0.19626753,-0.14236727,0.3692173
130025981,0.20410402,-0.14236727,0.35441574
130045930,0.20880592,-0.13360633,0.3529356
130065923,0.20410402,-0.13652663,0.37069744
130085925,0.19940212,-0.1482079,0.3603364
130105962,0.19940212,-0.1482079,0.36181653
130125950,0.19940212,-0.1482079,0.3558959
130145923,0.19940212,-0.14382742,0.3529356
130165948,0.19940212,-0.14236727,0.3603364
130185929,0.19783482,-0.13944694,0.36773717
130205932,0.20880592,-0.13214615,0.36181653
130225952,0.19313292,-0.14236727,0.3558959
130245923,0.19626753,-0.1379868,0.3603364
130265953,0.19783482,-0.14674772,0.36181653
130285973,0.19783482,-0.14236727,0.36773717
130306096,0.19783482,-0.13652663,0.36773717
130326068,0.20880592,-0.14236727,0.3529356
130346073,0.2103732,-0.13360633,0.3529356
130365955,0.20567133,-0.14382742,0.3558959
130386024,0.2119405,-0.14236727,0.34997532
130405933,0.19470023,-0.123385206,0.35441574
130425963,0.2119405,-0.14236727,0.36773717
130445924,0.18059455,-0.14236727,0.36181653
130465995,0.20880592,-0.12922585,0.36773717
130485925,0.19470023,-0.14236727,0.36773717
130505948,0.2025367,-0.13214615,0.34997532
130525976,0.20880592,-0.14236727,0.3529356
130545932,0.18843102,-0.14236727,0.34849516
130565931,0.18686375,-0.14236727,0.3603364
130585923,0.19940212,-0.12776569,0.36181653
130605930,0.19470023,-0.13944694,0.36181653
130625927,0.2119405,-0.14382742,0.3558959
130645950,0.19940212,-0.1379868,0.36181653
130665923,0.18843102,-0.14236727,0.34849516
130685930,0.20880592,-0.13652663,0.35441574
130705976,0.19940212,-0.14236727,0.3529356
130725972,0.20410402,-0.12922585,0.36773717
130746055,0.2182097,-0.13360633,0.36773717
130766033,0.20880592,-0.14236727,0.36181653
130786086,0.20410402,-0.13944694,0.35441574
130805970,0.2119405,-0.14236727,0.3603364
130825971,0.18999833,-0.12776569,0.3558959
130845933,0.19626753,-0.1379868,0.34997532
130865953,0.19783482,-0.13944694,0.35441574
130885939,0.18372913,-0.14674772,0.36477685
130905928,0.19783482,-0.14236727,0.36773717
130925923,0.19470023,-0.12922585,0.36477685
130945927,0.2103732,-0.13944694,0.35441574
130965951,0.20880592,-0.14966805,0.3529356
130985966,0.19626753,-0.1379868,0.3529356
131005973,0.20410402,-0.13944694,0.36477685
131025991,0.19470023,-0.14236727,0.35885626
131045936,0.19940212,-0.13360633,0.366257
131065928,0.20410402,-0.13944694,0.35885626
131085925,0.20567133,-0.1379868,0.3603364
131105936,0.19783482,-0.13652663,0.36181653
131125929,0.18999833,-0.12922585,0.35441574
131145923,0.18999833,-0.13652663,0.36773717
131165933,0.20880592,-0.13944694,0.36181653
131185980,0.18999833,-0.13360633,0.36181653
131205936,0.19626753,-0.13360633,0.347015
131226047,0.20880592,-0.13214615,0.34997532
131245939,0.21507509,-0.13944694,0.35441574
131265950,0.20880592,-0.14236727,0.3529356
131285930,0.19940212,-0.14382742,0.3721776
131305931,0.2103732,-0.14966805,0.35441574
131325939,0.2025367,-0.13360633,0.37513793
131345927,0.2025367,-0.1482079,0.34997532
131365926,0.19470023,-0.12922585,0.35441574
131385936,0.2103732,-0.13944694,0.3529356
131405939,0.19783482,-0.12630552,0.3529356
131425957,0.19783482,-0.12922585,0.35885626
131445981,0.18372913,-0.11900475,0.36477685
131465998,0.18843102,-0.12922585,0.3529356
131485935,0.2103732,-0.13360633,0.35885626
131505939,0.20567133,-0.13214615,0.36181653
131525929,0.18372913,-0.14236727,0.37365776
131545948,0.2025367,-0.13214615,0.366257
131565949,0.20880592,-0.12484538,0.3603364
131585948,0.20567133,-0.13360633,0.3721776
131605989,0.19313292,-0.1379868,0.3603364
131626059,0.2025367,-0.13360633,0.3603364
131646068,0.2025367,-0.13360633,0.3558959
131666091,0.2025367,-0.1379868,0.3603364
131686062,0.19470023,-0.13360633,0.36181653
131706073,0.20410402,-0.13360633,0.36477685
131726071,0.19783482,-0.14236727,0.36477685
131746074,0.20567133,-0.14382742,0.3558959
131766073,0.19783482,-0.14236727,0.35441574
131786085,0.20096943,-0.13652663,0.35885626
131805960,0.19313292,-0.15258835,0.36181653
131825935,0.2103732,-0.12922585,0.366257
131845930,0.19783482,-0.13944694,0.37069744
131865933,0.2025367,-0.14382742,0.347015
131885970,0.19313292,-0.13214615,0.366257
131905937,0.21507509,-0.123385206,0.35441574
131925967,0.2166424,-0.14236727,0.36181653
131945928,0.2182097,-0.14674772,0.35885626
131965925,0.19470023,-0.13944694,0.3780982
131985930,0.20567133,-0.1482079,0.3440547
132005923,0.18999833,-0.14674772,0.36477685
132025992,0.19783482,-0.13944694,0.36181653
132045939,0.2103732,-0.13652663,0.36477685
132065983,0.20410402,-0.13944694,0.37069744
132085931,0.19626753,-0.13214615,0.3558959
132105923,0.20096943,-0.13944694,0.37365776
132125937,0.20410402,-0.13652663,0.3529356
132145963,0.19626753,-0.13214615,0.34997532
132165981,0.19470023,-0.13360633,0.33961424
132185997,0.19783482,-0.13652663,0.35441574
132205929,0.19940212,-0.12776569,0.3558959
132225937,0.19783482,-0.14674772,0.36477685
132245926,0.19626753,-0.14382742,0.366257
132265924,0.18059455,-0.1379868,0.347015
132285948,0.20410402,-0.14674772,0.36773717
132305927,0.20096943,-0.14674772,0.36477685
132325927,0.19470023,-0.14236727,0.35885626
132345924,0.2025367,-0.12776569,0.3721776
132365925,0.2025367,-0.13214615,0.3603364
132385923,0.19470023,-0.14236727,0.36181653
132405933,0.19783482,-0.13652663,0.36477685
132425970,0.19626753,-0.14236727,0.36181653
132445993,0.2025367,-0.1482079,0.34997532
132466086,0.2025367,-0.1379868,0.366257
132485991,0.20880592,-0.13360633,0.3558959
132505981,0.19470023,-0.13360633,0.35885626
132525930,0.18843102,-0.15258835,0.3529356
132545931,0.20410402,-0.13360633,0.35441574
132565932,0.20567133,-0.14382742,0.3603364
132585978,0.20096943,-0.14966805,0.36477685
132605935,0.20410402,-0.13652663,0.35885626
132625926,0.19313292,-0.12776569,0.3558959
132645924,0.19313292,-0.13360633,0.3692173
132665924,0.20880592,-0.117544584,0.3603364
132685924,0.20096943,-0.13652663,0.34553483
132705933,0.2025367,-0.13360633,0.36181653
132725935,0.20880592,-0.12922585,0.35885626
132745938,0.19313292,-0.13214615,0.3721776
132765965,0.19940212,-0.13360633,0.3603364
132785952,0.20880592,-0.13944694,0.35441574
132805971,0.18216185,-0.13360633,0.3603364
132825997,0.19940212,-0.13360633,0.36181653
132845970,0.18999833,-0.13214615,0.3603364
132866029,0.18686375,-0.13360633,0.34997532
132886063,0.19940212,-0.14382742,0.34997532
132906064,0.19470023,-0.13652663,0.36773717
132926071,0.19470023,-0.14236727,0.36477685
132945951,0.18999833,-0.14674772,0.36181653
132965930,0.19940212,-0.14382742,0.366257
132985923,0.2103732,-0.13944694,0.36477685
133005923,0.20096943,-0.13652663,0.36181653
133025931,0.20567133,-0.13360633,0.3529356
133045924,0.19783482,-0.13944694,0.3529356
133065951,0.20880592,-0.14236727,0.35885626
133085925,0.20410402,-0.12922585,0.37069744
133105938,0.20410402,-0.11900475,0.37069744
133125964,0.19940212,-0.13360633,0.366257
133145975,0.20567133,-0.14236727,0.3692173
133165971,0.2025367,-0.13360633,0.3603364
133186089,0.19940212,-0.12922585,0.36181653
133205934,0.19940212,-0.13360633,0.36181653
133225934,0.20567133,-0.14236727,0.3529356
133245930,0.2025367,-0.1511282,0.3692173
133265927,0.19940212,-0.1379868,0.3558959
133285998,0.19470023,-0.13944694,0.3529356
133305954,0.20880592,-0.1379868,0.3603364
133326035,0.18686375,-0.1379868,0.3603364
133345937,0.2025367,-0.1482079,0.3440547
133365924,0.2182097,-0.15404852,0.347015
133385924,0.20880592,-0.13652663,0.35441574
133405929,0.2119405,-0.1482079,0.36181653
133425929,0.2182097,-0.13360633,0.36181653
133445937,0.22604617,-0.14236727,0.366257
133465938,0.21507509,-0.13360633,0.35885626
133485924,0.2229116,-0.14382742,0.3692173
133505970,0.25269023,-0.158429,0.347015
133525959,0.23074807,-0.13944694,0.35885626
133545967,0.23388267,-0.15696883,0.34257454
133566009,0.2166424,-0.1511282,0.3558959
133585974,0.20410402,-0.14674772,0.33961424
133605994,0.22447887,-0.14674772,0.34849516
133625932,0.2119405,-0.1482079,0.347015
133645958,0.2166424,-0.15404852,0.3603364
133665923,0.2229116,-0.14236727,0.3529356
133685949,0.2103732,-0.13360633,0.3529356
133705993,0.22447887,-0.14966805,0.35441574
133725934,0.22447887,-0.14236727,0.34553483
133745970,0.2182097,-0.15258835,0.36477685
133765932,0.20880592,-0.14674772,0.36181653
133785925,0.22918077,-0.158429,0.3721776
133805937,0.20880592,-0.1379868,0.3558959
133825955,0.22604617,-0.1379868,0.36181653
133845974,0.21977697,-0.14236727,0.34553483
133865983,0.2229116,-0.14236727,0.347015
133886047,0.2229116,-0.15404852,0.3558959
133906062,0.2182097,-0.13652663,0.36181653
133925949,0.21977697,-0.14236727,0.3529356
133945923,0.21977697,-0.13360633,0.35885626
133965930,0.2182097,-0.14236727,0.347015
133985937,0.23701727,-0.14382742,0.36181653
134005930,0.2182097,-0.14382742,0.347015
134025923,0.2182097,-0.13944694,0.34553483
134045989,0.23231538,-0.14382742,0.3410944
134065928,0.2166424,-0.14236727,0.3558959
134085937,0.22447887,-0.15696883,0.36181653
134105931,0.2229116,-0.15404852,0.3529356
134125975,0.23074807,-0.15258835,0.35885626
134606058,0.23858455,-0.15404852,0.3529356
134625935,0.23231538,-0.15404852,0.3440547
134645933,0.23701727,-0.15404852,0.3440547
134665956,0.2229116,-0.15988915,0.34997532
134685980,0.23388267,-0.14966805,0.35441574
134705965,0.23231538,-0.1482079,0.34997532
134725977,0.22604617,-0.15404852,0.34997532
134745972,0.24015187,-0.14674772,0.3351738
134765980,0.2276135,-0.15988915,0.32629287
134785989,0.23858455,-0.15404852,0.3603364
134806004,0.23701727,-0.1482079,0.3529356
134825999,0.21977697,-0.15258835,0.34257454
134846002,0.24642104,-0.15988915,0.3603364
134865928,0.23701727,-0.1613493,0.3529356
134885932,0.23858455,-0.1482079,0.3410944
134905934,0.23231538,-0.158429,0.3558959
134925949,0.2276135,-0.15258835,0.34257454
134945939,0.23701727,-0.13360633,0.34257454
134966057,0.24642104,-0.1511282,0.3558959
134986055,0.24485376,-0.15988915,0.34553483
135006049,0.23858455,-0.1511282,0.33665392
135025985,0.23074807,-0.13360633,0.3529356
135046083,0.23701727,-0.15988915,0.34997532
135065923,0.2276135,-0.14236727,0.34553483
135085951,0.23231538,-0.14382742,0.3410944
135105926,0.23074807,-0.13944694,0.35885626
135125925,0.23074807,-0.14966805,0.3529356
135145925,0.23701727,-0.1379868,0.34997532
135165925,0.23701727,-0.14382742,0.3351738
135185926,0.23074807,-0.14966805,0.33961424
135205964,0.23701727,-0.14236727,0.3410944
135225931,0.24171914,-0.1482079,0.3529356
135245937,0.24485376,-0.16718994,0.34553483
135265964,0.23231538,-0.15988915,0.34997532
135285967,0.22447887,-0.15696883,0.35441574
135305973,0.22918077,-0.1511282,0.3410944
135326029,0.2276135,-0.15696883,0.34553483
135345926,0.2182097,-0.13214615,0.34997532
135365923,0.24015187,-0.15988915,0.33961424
135386007,0.25269023,-0.1482079,0.3440547
135405949,0.23701727,-0.14382742,0.3410944
135425976,0.22604617,-0.15988915,0.3529356
135445934,0.23074807,-0.15696883,0.34257454
135465950,0.2276135,-0.15988915,0.3529356
135485951,0.23231538,-0.1482079,0.3558959
135505935,0.22918077,-0.15988915,0.347015
135525924,0.2276135,-0.14966805,0.34257454
135545926,0.23701727,-0.14966805,0.34849516
135565931,0.24642104,-0.1686501,0.3410944
135585930,0.2276135,-0.13652663,0.35885626
135605935,0.24485376,-0.14674772,0.3351738
135625938,0.2229116,-0.14236727,0.3410944
135645950,0.23701727,-0.15258835,0.34849516
135665932,0.24015187,-0.15696883,0.3351738
135685948,0.24642104,-0.14382742,0.327773
135705966,0.23858455,-0.15404852,0.347015
135725972,0.21977697,-0.15988915,0.3529356
135745997,0.23701727,-0.14382742,0.3440547
135765929,0.24171914,-0.14382742,0.3529356
135785931,0.23858455,-0.1511282,0.347015
135806043,0.2182097,-0.14382742,0.3529356
136065923,0.25582483,-0.1613493,0.3440547
136085928,0.26522863,-0.16572978,0.347015
136105936,0.25582483,-0.17011026,0.34849516
136125923,0.27306512,-0.17595088,0.327773
136145938,0.26522863,-0.1715704,0.3322135
136165925,0.26993048,-0.16718994,0.3529356
136185950,0.27619973,-0.17011026,0.33369365
136205930,0.27776697,-0.16572978,0.30853105
136225980,0.26366132,-0.17303057,0.32925317
136245948,0.28403622,-0.1715704,0.3351738
136266017,0.27463242,-0.17741103,0.32333258
136285933,0.27463242,-0.16572978,0.33665392
136305923,0.27619973,-0.17011026,0.34257454
136325924,0.27463242,-0.17011026,0.32037222
136345923,0.27776697,-0.18763214,0.327773
136365927,0.27776697,-0.16572978,0.3440547
136385923,0.27619973,-0.17303057,0.32629287
136405930,0.27463242,-0.16718994,0.32629287
136425952,0.28873807,-0.17595088,0.32629287
136445976,0.28403622,-0.1686501,0.3351738
136465975,0.27306512,-0.17595088,0.3410944
136486031,0.2824689,-0.1715704,0.3351738
136505923,0.28403622,-0.1686501,0.3322135
136525925,0.28717077,-0.18325168,0.32333258
136545926,0.2824689,-0.16572978,0.32629287
136565929,0.28403622,-0.16572978,0.3322135
136585950,0.29030538,-0.15988915,0.32925317
136605980,0.26993048,-0.17303057,0.3351738
136625923,0.2824689,-0.1686501,0.3322135
136645995,0.2824689,-0.17595088,0.32629287
136665951,0.28873807,-0.1715704,0.327773
136686030,0.28403622,-0.17595088,0.3322135
136706028,0.27463242,-0.1686501,0.327773
136725973,0.27463242,-0.16572978,0.3322135
136746036,0.29343998,-0.18033135,0.32333258
136765937,0.28403622,-0.1715704,0.3410944
136785923,0.2824689,-0.17595088,0.3322135
136805923,0.2824689,-0.18617198,0.3322135
136825926,0.27463242,-0.17303057,0.3351738
136845937,0.27619973,-0.17741103,0.34553483
136865926,0.29030538,-0.17303057,0.34257454
136885936,0.28717077,-0.17741103,0.32333258
136905934,0.27306512,-0.1715704,0.3410944
136925949,0.28090158,-0.16718994,0.32925317
136945929,0.27619973,-0.18033135,0.32037222
136966064,0.28403622,-0.17011026,0.33369365
136985924,0.26522863,-0.16572978,0.327773
137005952,0.28090158,-0.16280948,0.32629287
137025923,0.26522863,-0.17741103,0.3322135
137045935,0.28090158,-0.18033135,0.32629287
137065984,0.29187268,-0.158429,0.3322135
137085969,0.27619973,-0.18033135,0.3351738
137105989,0.29187268,-0.17741103,0.32629287
137125950,0.28717077,-0.16280948,0.3351738
137145957,0.27306512,-0.19201262,0.3410944
137165993,0.28090158,-0.17011026,0.32925317
137185981,0.27776697,-0.17741103,0.32629287
137205932,0.27619973,-0.18033135,0.32333258
137225930,0.27619973,-0.16718994,0.32629287
137245932,0.27463242,-0.17595088,0.3322135
137265928,0.27463242,-0.16718994,0.32629287
137285923,0.27463242,-0.1613493,0.32629287
137305970,0.28403622,-0.17303057,0.33369365
137325956,0.27776697,-0.17595088,0.3322135
137345923,0.27463242,-0.17595088,0.3351738
137365923,0.27776697,-0.158429,0.33665392
137385931,0.27776697,-0.16572978,0.3322135
137405966,0.26993048,-0.16280948,0.3529356
137425968,0.25582483,-0.16280948,0.34257454
137445971,0.25269023,-0.158429,0.3351738
137466075,0.25269023,-0.16572978,0.327773
137485975,0.24642104,-0.15258835,0.34849516
137505972,0.25582483,-0.15258835,0.33369365
137526072,0.24015187,-0.16718994,0.34553483
137545964,0.24798834,-0.16572978,0.34997532
137565953,0.23701727,-0.16280948,0.34257454
137585932,0.24642104,-0.15696883,0.3351738
137605975,0.24015187,-0.17011026,0.34257454
137625965,0.25895944,-0.15988915,0.3410944
137645923,0.24171914,-0.1482079,0.3440547
137665923,0.25425756,-0.15696883,0.3529356
137685925,0.25582483,-0.1686501,0.33665392
137705930,0.25425756,-0.16280948,0.33961424
137725923,0.25112292,-0.16280948,0.34849516
137745924,0.25112292,-0.15988915,0.34257454
137765923,0.24485376,-0.16718994,0.34849516
137785932,0.24171914,-0.16572978,0.3351738
137805923,0.24642104,-0.158429,0.3351738
137825926,0.24171914,-0.1613493,0.3558959
137845937,0.23701727,-0.158429,0.34997532
137865968,0.24798834,-0.16572978,0.3410944
137886047,0.24171914,-0.15404852,0.34997532
137906017,0.24171914,-0.1613493,0.3410944
137926028,0.25895944,-0.15988915,0.3440547
137945969,0.25269023,-0.15988915,0.347015
137965931,0.24485376,-0.15988915,0.34553483
137985923,0.24171914,-0.15404852,0.347015
138005950,0.24485376,-0.14674772,0.34553483
138026024,0.24798834,-0.15988915,0.347015
138045955,0.24015187,-0.15696883,0.3529356
138065925,0.25112292,-0.16280948,0.33961424
138085927,0.26209402,-0.158429,0.33665392
138105923,0.23858455,-0.1613493,0.3558959
138125938,0.24171914,-0.1613493,0.3440547
138145978,0.24798834,-0.15988915,0.347015
138165995,0.24642104,-0.14674772,0.34553483
138186080,0.23701727,-0.15696883,0.33961424
138205926,0.24642104,-0.15404852,0.33665392
138225959,0.25425756,-0.15258835,0.3351738
138245931,0.25425756,-0.15988915,0.34553483
138265926,0.24642104,-0.1613493,0.3440547
138285964,0.24485376,-0.14966805,0.3529356
138305966,0.23701727,-0.1613493,0.34997532
138325991,0.25269023,-0.15988915,0.3440547
138346048,0.24485376,-0.14674772,0.34257454
138366047,0.23701727,-0.15404852,0.3529356
138386047,0.24642104,-0.16718994,0.3529356
138406032,0.24015187,-0.13944694,0.34849516
138426047,0.25425756,-0.15988915,0.3351738
138446048,0.25582483,-0.15258835,0.35441574
138466047,0.23388267,-0.15696883,0.35441574
138485934,0.24171914,-0.15988915,0.3440547
138505952,0.24171914,-0.15404852,0.3440547
138525926,0.25582483,-0.158429,0.3440547
138545927,0.24642104,-0.1482079,0.327773
138565955,0.24798834,-0.1613493,0.3351738
138585971,0.24171914,-0.1613493,0.3322135
138605993,0.23858455,-0.1482079,0.33665392
138625925,0.23701727,-0.15258835,0.32629287
138645924,-0.14540333,-0.1511282,0.34257454
138665929,0.23701727,-0.15258835,0.34257454
138685924,0.22447887,-0.15696883,0.3529356
138705924,0.2276135,-0.15258835,0.34257454
138726035,0.24642104,-0.158429,0.33665392
138745981,0.23231538,-0.158429,0.3410944
138765949,0.25269023,-0.14382742,0.3440547
138786166,0.24642104,-0.1482079,0.327773
138805969,0.24485376,-0.15988915,0.36181653
138825968,0.24015187,-0.15988915,0.3351738
138845950,0.25895944,-0.15404852,0.33665392
138865973,0.25425756,-0.15258835,0.3529356
138886027,0.25269023,-0.16572978,0.3322135
138906026,0.26366132,-0.15696883,0.33369365
138925926,0.24015187,-0.14236727,0.32925317
138945924,0.25269023,-0.16572978,0.3440547
138965923,0.25425756,-0.16718994,0.3351738
138985927,0.25112292,-0.16718994,0.34553483
139005926,0.24798834,-0.158429,0.3351738
139025936,0.26052672,-0.15696883,0.34553483
139045931,0.24485376,-0.15988915,0.34849516
139065961,0.25582483,-0.1613493,0.33665392
139085932,0.23858455,-0.1613493,0.3410944
139105924,0.24642104,-0.15696883,0.33961424
139125925,0.25269023,-0.15404852,0.3322135
139145934,0.25582483,-0.16280948,0.3351738
139165989,0.24485376,-0.17011026,0.3351738
139185952,0.25895944,-0.1511282,0.327773
139206024,0.25269023,-0.15404852,0.32629287
139225960,0.25582483,-0.16572978,0.33665392
139245926,0.25582483,-0.15988915,0.3410944
139265937,0.24171914,-0.15988915,0.3351738
139285954,0.24642104,-0.16280948,0.34257454
139305978,0.25425756,-0.15696883,0.33369365
139325978,0.24642104,-0.15258835,0.34257454
139345924,0.24798834,-0.1686501,0.3322135
139365923,0.25112292,-0.16280948,0.34257454
139385923,0.22918077,-0.1482079,0.347015
139405929,0.24642104,-0.1686501,0.33665392
139425932,0.24015187,-0.15696883,0.34257454
139445948,0.25112292,-0.16718994,0.32037222
139465966,0.25425756,-0.15696883,0.3351738
139485967,0.24642104,-0.16280948,0.32925317
139505989,0.25582483,-0.16572978,0.34997532
139526057,0.24798834,-0.158429,0.347015
139545983,0.24171914,-0.1511282,0.32185242
139566078,0.25425756,-0.16280948,0.34553483
139586075,0.25425756,-0.18325168,0.32925317
139606095,0.24798834,-0.158429,0.3410944
139626084,0.24798834,-0.1613493,0.3440547
139645939,0.25425756,-0.15696883,0.34849516
139665928,0.24798834,-0.1686501,0.347015
139685925,0.24798834,-0.15988915,0.3351738
139705959,0.25895944,-0.1613493,0.347015
139725924,0.26209402,-0.158429,0.3351738
139745929,0.23858455,-0.15988915,0.3558959
139765931,0.23858455,-0.1511282,0.3558959
139785923,0.24798834,-0.158429,0.3410944
139805983,0.24642104,-0.16280948,0.34849516
139825923,0.26679593,-0.16280948,0.33961424
139845937,0.25582483,-0.15988915,0.34553483
139865977,0.25269023,-0.158429,0.3410944
139885932,0.25269023,-0.15404852,0.3410944
139905950,0.26366132,-0.16280948,0.33369365
139925931,0.23388267,-0.16280948,0.34553483
139945924,0.23231538,-0.15404852,0.3410944
139965927,0.25425756,-0.15696883,0.34553483
139985938,0.24642104,-0.14966805,0.32629287
140006013,0.25582483,-0.1715704,0.3410944
140025998,0.23231538,-0.1511282,0.3410944
140046032,0.25895944,-0.158429,0.347015
140066020,0.25582483,-0.16572978,0.3351738
140085931,0.24485376,-0.17011026,0.32333258
140105925,0.26836318,-0.1482079,0.3440547
140125934,0.26522863,-0.1613493,0.3322135
140145964,0.25582483,-0.16718994,0.3351738
140165926,0.25112292,-0.16280948,0.3351738
140185936,0.24642104,-0.158429,0.33665392
140205928,0.25582483,-0.1613493,0.347015
140225936,0.26052672,-0.15988915,0.34257454
140245926,0.24485376,-0.15988915,0.34257454
140265934,0.23388267,-0.16718994,0.34257454
140505925,0.24171914,-0.1613493,0.33665392
140525951,0.24798834,-0.15988915,0.33665392
140565929,0.24798834,-0.15988915,0.33665392
140585926,0.25269023,-0.15988915,0.3440547
140605952,0.27306512,-0.16572978,0.3440547
140625926,0.24642104,-0.16572978,0.3440547
140645933,0.25269023,-0.158429,0.3440547
140665964,0.25582483,-0.16280948,0.33961424
140685924,0.24171914,-0.1613493,0.3410944
140705951,0.25269023,-0.15404852,0.3410944
140725962,0.25112292,-0.15988915,0.34257454
140745980,0.25112292,-0.14674772,0.34849516
140765924,0.25112292,-0.15258835,0.33961424
140786016,0.25582483,-0.16280948,0.34257454
140805923,0.26522863,-0.1613493,0.3351738
140825962,0.24642104,-0.17011026,0.34553483
140846000,0.25582483,-0.1715704,0.3410944
140865964,0.25425756,-0.15988915,0.34257454
140886017,0.24642104,-0.1686501,0.33665392
140905950,0.25112292,-0.16280948,0.3351738
140925935,0.25895944,-0.15404852,0.3410944
140945925,0.26522863,-0.15404852,0.3410944
140965926,0.24798834,-0.15988915,0.33665392
140985955,0.24798834,-0.1686501,0.3410944
141005973,0.25112292,-0.14966805,0.33369365
141026031,0.25112292,-0.15258835,0.32925317
141046049,0.25895944,-0.158429,0.34997532
141065923,0.24642104,-0.1613493,0.33665392
141085924,0.25425756,-0.16280948,0.3351738
141105967,0.24171914,-0.1613493,0.327773
141125956,0.26052672,-0.15696883,0.3529356
141145925,0.24015187,-0.15988915,0.32925317
141165930,0.24798834,-0.1613493,0.3440547
141185931,0.25582483,-0.15988915,0.347015
141205949,0.25582483,-0.15988915,0.33961424
141225980,0.25582483,-0.15696883,0.33369365
141245930,0.26836318,-0.16572978,0.347015
141265988,0.24642104,-0.16280948,0.3529356
141285988,0.26522863,-0.1613493,0.3410944
141305980,0.26052672,-0.15696883,0.33961424
141325964,0.25112292,-0.13652663,0.33961424
141345962,0.26209402,-0.1613493,0.33665392
141365964,0.25895944,-0.1511282,0.33665392
141385983,0.26366132,-0.14966805,0.34849516
141406006,0.25582483,0.21099085,0.3410944
141426015,0.24485376,-0.5278488,0.34257454
141446055,0.25425756,-0.15988915,0.34849516
141466064,0.26209402,-0.158429,0.327773
141486060,0.24798834,-0.1613493,0.347015
141505926,0.26209402,-0.1511282,0.347015
141525929,0.25112292,-0.15988915,0.3351738
141546064,0.25582483,-0.15404852,0.34997532
141565933,0.24642104,-0.16572978,0.3410944
141585929,0.26366132,-0.17011026,0.32925317
141605948,0.24798834,-0.15988915,0.33665392
141625930,0.24798834,-0.15404852,0.3322135
141645925,0.25112292,-0.16280948,0.34257454
141665968,0.25269023,-0.1715704,0.3410944
141686075,0.25582483,-0.16572978,0.347015
141706088,0.26052672,-0.15988915,0.34849516
141726102,0.25582483,-0.1613493,0.32629287
141746098,0.25582483,-0.1511282,0.347015
141766108,0.25895944,-0.1613493,0.3558959
141785924,0.24171914,-0.1482079,0.3322135
141805924,0.25269023,-0.17595088,0.3529356
141825925,0.25112292,-0.16280948,0.34553483
141845939,0.23231538,-0.15404852,0.3410944
141865969,0.25112292,-0.15696883,0.3351738
141885929,0.26209402,-0.158429,0.3440547
141905926,0.25112292,-0.15988915,0.3529356
141925955,0.25582483,-0.158429,0.3529356
141945935,0.25582483,-0.16280948,0.33961424
141965976,0.24642104,-0.15988915,0.3529356
141985930,0.25582483,-0.1686501,0.3351738
142005932,0.24485376,-0.15988915,0.35441574
142025925,0.24642104,-0.18033135,0.33369365
142045951,0.23701727,-0.15988915,0.34553483
142065933,0.25425756,-0.15988915,0.3529356
142085923,0.26522863,-0.1613493,0.33665392
142105975,0.25112292,-0.15696883,0.32925317
142125975,0.25582483,-0.15988915,0.33369365
142146055,0.25112292,-0.16718994,0.3529356
142165973,0.24798834,-0.1613493,0.3322135
142185983,0.24485376,-0.16718994,0.3529356
142205934,0.24798834,-0.15988915,0.3351738
142225949,0.24485376,-0.15988915,0.3351738
142245924,0.25582483,-0.15696883,0.33369365
142265954,0.24015187,-0.16718994,0.33961424
142285952,0.24798834,-0.16572978,0.327773
142305923,0.25269023,-0.158429,0.3351738
142325965,0.25112292,-0.15696883,0.3351738
142345923,0.25269023,-0.158429,0.3322135
142365923,0.26522863,-0.15404852,0.33665392
142385926,0.26052672,-0.16280948,0.32037222
142405927,0.24798834,-0.17595088,0.33665392
142425970,0.26209402,-0.1686501,0.3529356
142445993,0.26209402,-0.16572978,0.3410944
142465974,0.25269023,-0.158429,0.3410944
142485966,0.24171914,-0.1482079,0.3322135
142505974,0.24015187,-0.17303057,0.34553483
142526029,0.26679593,-0.15988915,0.34257454
142545991,0.25269023,-0.1686501,0.3440547
142566021,0.25895944,-0.1613493,0.34997532
142585997,0.26052672,-0.15696883,0.3351738
142605923,0.25269023,-0.1613493,0.3410944
142625927,0.24798834,-0.15404852,0.3440547
142646018,0.25582483,-0.1613493,0.3440547
143685923,0.18999833,-0.13944694,0.36773717
144825932,0.19470023,-0.123385206,0.35441574
144865954,0.20410402,-0.13360633,0.35885626
144885982,0.21507509,-0.14236727,0.36773717
144906041,0.19470023,-0.14236727,0.36773717
144925974,0.20410402,-0.14236727,0.36477685
144946023,0.18216185,-0.14236727,0.37513793
144966044,0.19626753,-0.1379868,0.3692173
144986148,0.19313292,-0.13360633,0.36181653
145006149,0.19783482,-0.14674772,0.37069744
145026092,0.19783482,-0.13360633,0.36181653
145046070,0.2025367,-0.12776569,0.3692173
145066091,0.20567133,-0.13214615,0.3529356
145086090,0.20096943,-0.14236727,0.36477685
145105936,0.19626753,-0.1379868,0.3721776
145125934,0.20880592,-0.13652663,0.3529356
145145929,0.20096943,-0.13652663,0.36477685
145165933,0.18686375,-0.1379868,0.3558959
145185932,0.19470023,-0.13360633,0.37365776
145205923,0.18372913,-0.12630552,0.35885626
145225952,0.20880592,-0.1482079,0.3529356
145245953,0.18059455,-0.13360633,0.36181653
145265927,0.20096943,-0.14674772,0.36477685
145285968,0.19470023,-0.13652663,0.36181653
145305973,0.2119405,-0.14382742,0.36181653
145326113,0.19783482,-0.13944694,0.36773717
145345938,0.19626753,-0.13360633,0.3603364
145365932,0.2025367,-0.1379868,0.366257
145385961,0.20410402,-0.13944694,0.3529356
145405923,0.19626753,-0.13360633,0.34997532
145425929,0.19470023,-0.13944694,0.35885626
145445930,0.20567133,-0.14236727,0.3529356
145465979,0.18843102,-0.12630552,0.36477685
145485949,0.20880592,-0.1379868,0.3558959
145506032,0.19470023,-0.13360633,0.37069744
145525932,0.18843102,-0.12922585,0.36181653
145545925,0.19940212,-0.14236727,0.3721776
145565924,0.20880592,-0.1379868,0.3558959
145585926,0.19626753,-0.13360633,0.3603364
145605927,0.18999833,-0.13360633,0.36477685
145625930,0.20880592,-0.13652663,0.37069744
145645927,0.20880592,-0.14236727,0.36181653
145665923,0.20096943,-0.13360633,0.36477685
145685924,0.18999833,-0.12484538,0.3558959
145705932,0.18999833,-0.13214615,0.347015
145725956,0.20096943,-0.14236727,0.36773717
145745982,0.19940212,-0.13360633,0.3529356
145765978,0.20567133,-0.12484538,0.3721776
145786030,0.19783482,-0.13944694,0.36181653
145805936,0.19470023,-0.123385206,0.34257454
145825950,0.19940212,-0.13214615,0.3692173
145845924,0.19626753,-0.13214615,0.366257
145865927,0.20096943,-0.14674772,0.36181653
145885991,0.2119405,-0.12776569,0.366257
145905965,0.2025367,-0.12776569,0.3603364
145926026,0.19313292,-0.12776569,0.366257
145945974,0.20096943,-0.13360633,0.36773717
145965987,0.19313292,-0.1379868,0.3692173
145986030,0.19470023,-0.12922585,0.34257454
146005997,0.19626753,-0.14382742,0.347015
146026049,0.19313292,-0.14382742,0.3692173
146046058,0.19940212,-0.13360633,0.3692173
146065974,0.19783482,-0.13944694,0.36181653
146085970,0.18999833,-0.14236727,0.36477685
146106105,0.20567133,-0.12484538,0.36181653
146126057,0.18999833,-0.14382742,0.3603364
146146024,0.19940212,-0.14236727,0.36181653
146165932,0.18843102,-0.14236727,0.35441574
146185953,0.20410402,-0.12630552,0.34553483
146205969,0.2025367,-0.1379868,0.3603364
146225923,0.20410402,-0.14236727,0.35441574
146245924,0.19626753,-0.1482079,0.3529356
146265925,0.19783482,-0.12922585,0.37069744
146285928,0.19783482,-0.14674772,0.36773717
146305998,0.19783482,-0.13652663,0.34849516
146325965,0.19470023,-0.14236727,0.36477685
146345986,0.19940212,-0.1482079,0.36181653
146365967,0.19783482,-0.13652663,0.36773717
146386087,0.2025367,-0.13214615,0.36181653
146405959,0.19313292,-0.14236727,0.34997532
146425948,0.19940212,-0.121925056,0.3603364
146445965,0.2025367,-0.14382742,0.3603364
146465992,0.19940212,-0.1379868,0.3603364
146485997,0.18372913,-0.14966805,0.34257454
146505926,0.18999833,-0.14236727,0.3603364
146526047,0.2025367,-0.13214615,0.36181653
146545977,0.20096943,-0.11900475,0.35885626
146565933,0.20096943,-0.13360633,0.37365776
146585925,0.18372913,-0.13944694,0.36773717
146605923,0.20096943,-0.13652663,0.35441574
146625923,0.18843102,-0.15258835,0.3529356
146645961,0.2025367,-0.13360633,0.3529356
146665924,0.2025367,-0.12776569,0.366257
146685955,0.19626753,-0.13214615,0.3558959
146705961,0.20567133,-0.1379868,0.3692173
146725999,0.19940212,-0.12776569,0.3558959
146746069,0.2103732,-0.12630552,0.35885626
146766051,0.19783482,-0.13944694,0.35885626
146785948,0.18999833,-0.14236727,0.3529356
146805933,0.20096943,-0.13944694,0.36181653
146825932,0.20880592,-0.123385206,0.36181653
146845953,0.2103732,-0.14966805,0.35885626
146865930,0.20410402,-0.12630552,0.37365776
146885932,0.19940212,-0.14382742,0.366257
146905936,0.17589265,-0.13214615,0.3721776
146925931,0.19626753,-0.13360633,0.36181653
146945949,0.2025367,-0.1379868,0.36181653
146965924,0.19626753,-0.121925056,0.3529356
146985949,0.20567133,-0.14236727,0.347015
147005926,0.19470023,-0.14236727,0.37069744
147025937,0.20880592,-0.14236727,0.3529356
147045931,0.19940212,-0.117544584,0.34997532
147065927,0.19940212,-0.1482079,0.3721776
147085938,0.19783482,-0.15696883,0.35441574
147105938,0.18999833,-0.12484538,0.36181653
147125932,0.19313292,-0.1379868,0.3603364
147146001,0.20567133,-0.14382742,0.3558959
147165994,0.20096943,-0.13652663,0.35885626
147186017,0.19940212,-0.14236727,0.3692173
147205929,0.19783482,-0.13652663,0.35885626
147225923,0.18686375,-0.1482079,0.3603364
147245928,0.19783482,-0.123385206,0.35885626
147265927,0.18999833,-0.1379868,0.3692173
147285960,0.19313292,-0.121925056,0.3603364
147305950,0.19783482,-0.13652663,0.37069744
147325923,0.2025367,-0.14236727,0.3529356
147345923,0.19470023,-0.13652663,0.36477685
147365926,0.20880592,-0.12922585,0.3780982
147385964,0.18999833,-0.14382742,0.3721776
147405937,0.20880592,-0.12484538,0.3558959
147425949,0.18843102,-0.14236727,0.37069744
147445968,0.19470023,-0.14966805,0.34849516
147465971,0.19626753,-0.13214615,0.3692173
147486033,0.18999833,-0.13214615,0.3529356
147505956,0.19470023,-0.12922585,0.36477685
147525937,0.19940212,-0.15404852,0.37513793
147545931,0.19940212,-0.1379868,0.3558959
147565940,0.18843102,-0.13944694,0.36181653
147585934,0.18999833,-0.13360633,0.36181653
147605970,0.18843102,-0.12922585,0.37069744
147625932,0.2025367,-0.1482079,0.3529356
147645923,0.19626753,-0.1379868,0.36181653
147665936,0.20096943,-0.12922585,0.36181653
147685924,0.19470023,-0.14966805,0.34849516
147705964,0.19313292,-0.12776569,0.347015
147725926,0.2103732,-0.12922585,0.3529356
147745936,0.2025367,-0.13360633,0.3558959
147765953,0.19470023,-0.14236727,0.36181653
147785952,0.20410402,-0.14674772,0.36181653
147805964,0.18686375,-0.1379868,0.3558959
147825991,0.20567133,-0.14236727,0.3558959
147846002,0.18686375,-0.1379868,0.36181653
147866013,0.20410402,-0.12922585,0.35885626
147886005,0.18686375,-0.13214615,0.3603364
147906014,0.2182097,-0.13360633,0.36181653
147926016,0.18372913,-0.13944694,0.36477685
147945979,0.20880592,-0.12922585,0.36181653
147965986,0.19313292,-0.12484538,0.3558959
147986109,0.19470023,-0.13652663,0.35441574
148006079,0.20567133,-0.14236727,0.366257
148026022,0.19470023,-0.12922585,0.35885626
148046132,0.19783482,-0.13944694,0.36181653
148065932,0.18686375,-0.12776569,0.3558959
148086020,0.19626753,-0.14236727,0.3529356
148105928,0.2025367,-0.12776569,0.366257
148125932,0.20880592,-0.13360633,0.36773717
148146053,0.2103732,-0.13360633,0.36181653
148166055,0.20410402,-0.13944694,0.35441574
148186078,0.20410402,-0.13360633,0.3603364
148205926,0.18999833,-0.13360633,0.3692173
148225923,0.18999833,-0.13944694,0.37069744
148245923,0.20410402,-0.14236727,0.3529356
148265924,0.18999833,-0.13360633,0.3603364
148285934,0.20567133,-0.13214615,0.37513793
148305923,0.20880592,-0.14674772,0.35441574
148325927,0.20567133,-0.14382742,0.3603364
148345927,0.2025367,-0.13214615,0.3558959
148365927,0.20410402,-0.13652663,0.36181653
148385926,0.19940212,-0.13360633,0.3603364
148406010,0.19470023,-0.13652663,0.35441574
148425939,0.19313292,-0.1482079,0.36181653
148446025,0.19626753,-0.1482079,0.3558959
148465937,0.19313292,-0.1379868,0.3692173
148485923,0.20096943,-0.13652663,0.35441574
148505951,0.19470023,-0.11608443,0.36181653
148525924,0.19470023,-0.13944694,0.35441574
148545939,0.18999833,-0.12922585,0.37365776
148565933,0.19940212,-0.1482079,0.36181653
148585971,0.20880592,-0.14236727,0.3529356
148605985,0.20410402,-0.12922585,0.37957835
148625975,0.18999833,-0.1379868,0.34997532
148645924,0.19783482,-0.14674772,0.35885626
148665934,0.19313292,-0.13360633,0.3529356
148685929,0.2025367,-0.121925056,0.36181653
148705926,0.18999833,-0.1482079,0.366257
148725929,0.18686375,-0.1511282,0.37513793
148745931,0.19940212,-0.1482079,0.3603364
148765935,0.19470023,-0.14674772,0.35441574
148785930,0.2025367,-0.1482079,0.36181653
148805923,0.19940212,-0.14382742,0.3603364
148825991,0.20567133,-0.1511282,0.3692173
148845957,0.19626753,-0.13214615,0.36181653
148866071,0.19940212,-0.14236727,0.36181653
148886050,0.18999833,-0.14382742,0.3692173
148906047,0.19313292,-0.1511282,0.36181653
148925932,0.19783482,-0.13360633,0.36181653
148945934,0.20096943,-0.14236727,0.3869791
148965956,0.18216185,-0.13360633,0.3529356
148985972,0.20410402,-0.13944694,0.35441574
149005965,0.18999833,-0.13214615,0.3558959
149025974,0.19783482,-0.13360633,0.34849516
149045985,0.19626753,-0.121925056,0.3603364
149065985,0.18059455,-0.13360633,0.35441574
149085982,0.20096943,-0.14236727,0.35885626
149105988,0.20880592,-0.13360633,0.37069744
149125923,0.19626753,-0.12776569,0.36181653
149145937,0.2119405,-0.13214615,0.3692173
149165938,0.19783482,-0.12630552,0.3529356
149185935,0.18372913,-0.13652663,0.3529356
149205925,0.19626753,-0.1379868,0.3529356
149225932,0.18372913,-0.13360633,0.37069744
149245975,0.19313292,-0.1379868,0.36181653
149265984,0.18686375,-0.15988915,0.3692173
149285970,0.19626753,-0.1511282,0.37957835
149305973,0.18372913,-0.13652663,0.35441574
149325977,0.19940212,-0.121925056,0.3558959
149345985,0.19940212,-0.14236727,0.366257
149365930,0.20880592,-0.13214615,0.3603364
149385978,0.19313292,-0.13214615,0.3603364
149405930,0.20880592,-0.1482079,0.34997532
149425950,0.19626753,-0.13360633,0.3603364
149445923,0.20880592,-0.13214615,0.3440547
149465924,0.2025367,-0.1379868,0.366257
149485940,0.20096943,-0.13360633,0.3529356
149505923,0.18216185,-0.14236727,0.3603364
149525932,0.19470023,-0.14674772,0.34849516
149545948,0.18999833,-0.14236727,0.35885626
149565940,0.18999833,-0.14236727,0.35885626
149585978,0.20096943,-0.12922585,0.35885626
149605973,0.20880592,-0.14236727,0.35885626
149626085,0.18372913,-0.14674772,0.36477685
149645985,0.19783482,-0.14966805,0.35441574
149665987,0.20880592,-0.13652663,0.37069744
149685950,0.19313292,-0.1482079,0.34997532
149706017,0.19626753,-0.13360633,0.34997532
149725956,0.19940212,-0.13214615,0.3692173
149745953,0.19940212,-0.13360633,0.3692173
149765930,0.19470023,-0.13652663,0.37069744
149785926,0.18686375,-0.14382742,0.36181653
149805931,0.19940212,-0.14236727,0.3603364
149825928,0.19783482,-0.14966805,0.36773717
149845924,0.20567133,-0.1482079,0.36181653
149865923,0.18686375,-0.1379868,0.3692173
149885928,0.2025367,-0.14236727,0.36181653
149905925,0.18843102,-0.13652663,0.35885626
149925928,0.19470023,-0.13652663,0.34257454
149945937,0.17902727,-0.12922585,0.3529356
149965928,0.18843102,-0.13652663,0.35885626
149985927,0.19313292,-0.13214615,0.3529356
150005955,0.19626753,-0.1379868,0.366257
150025969,0.19470023,-0.13944694,0.36477685
150045994,0.19940212,-0.1482079,0.3603364
150065923,0.19470023,-0.12922585,0.35885626
150085991,0.19783482,-0.14236727,0.36773717
150105934,0.18372913,-0.13360633,0.34553483
150125976,0.17589265,-0.1379868,0.366257
150145929,0.19313292,-0.1379868,0.3603364
150165924,0.19940212,-0.1511282,0.3603364
150185923,0.18999833,-0.12484538,0.366257
150205923,0.20410402,-0.14236727,0.36477685
150225926,0.19313292,-0.13214615,0.36181653
150245925,0.19470023,-0.14674772,0.36181653
150265925,0.2103732,-0.12922585,0.36181653
150285964,0.19626753,-0.13214615,0.366257
150305970,0.20567133,-0.1379868,0.3558959
150326021,0.19626753,-0.1482079,0.3558959
150346031,0.19783482,-0.12922585,0.36773717
150365926,0.20880592,-0.12630552,0.36477685
150386065,0.19626753,-0.12484538,0.3692173
150405923,0.2119405,-0.13214615,0.3603364
150425932,0.18999833,-0.14382742,0.3603364
150445954,0.20096943,-0.13652663,0.36181653
150465938,0.19940212,-0.1379868,0.34997532
150485939,0.20880592,-0.14236727,0.366257
150506020,0.20567133,-0.14382742,0.366257
150525949,0.19940212,-0.1511282,0.366257
150545974,0.18999833,-0.14236727,0.36477685
150565933,0.18999833,-0.1379868,0.3721776
150585923,0.18999833,-0.1482079,0.36181653
150605923,0.18372913,-0.13360633,0.3529356
150625932,0.19626753,-0.12484538,0.3692173
150645968,0.18999833,-0.12776569,0.366257
150665931,0.19940212,-0.1379868,0.36181653
150685962,0.19626753,-0.1379868,0.3529356
150705935,0.2166424,-0.14382742,0.3603364
150725954,0.19313292,-0.14382742,0.3529356
150745980,0.19783482,-0.13360633,0.35885626
150766007,0.19783482,-0.14674772,0.3529356
150786017,0.2025367,-0.14382742,0.3529356
150805923,0.19626753,-0.13360633,0.3529356
150825924,0.2025367,-0.13360633,0.366257
150845923,0.19626753,-0.15404852,0.3721776
150865948,0.18843102,-0.14236727,0.36181653
150885929,0.2025367,-0.13214615,0.36181653
150905927,0.19313292,-0.14236727,0.3529356
150925981,0.2025367,-0.13360633,0.3558959
150946065,0.20096943,-0.13360633,0.35885626
150966021,0.19470023,-0.13944694,0.3529356
150985970,0.19940212,-0.1482079,0.3529356
151005970,0.18999833,-0.13652663,0.35441574
151025972,0.20096943,-0.13652663,0.37069744
151046020,0.20880592,-0.13214615,0.366257
151066052,0.2025367,-0.14236727,0.3603364
151085932,0.19940212,-0.13214615,0.347015
151105924,0.19626753,-0.14382742,0.366257
151125931,0.19783482,-0.14236727,0.35441574
151145988,0.20410402,-0.13652663,0.35885626
151165934,0.19470023,-0.13360633,0.34257454
151185950,0.2025367,-0.1379868,0.3721776
151205962,0.19313292,-0.1379868,0.36181653
151225925,0.19626753,-0.1379868,0.3692173
151245923,0.19626753,-0.117544584,0.3558959
151265927,0.18999833,-0.13944694,0.35885626
151285938,0.19313292,-0.1379868,0.3440547
151305929,0.20410402,-0.15258835,0.36773717
151325933,0.19313292,-0.15404852,0.3558959
151345992,0.2025367,-0.14236727,0.3558959
151365978,0.20096943,-0.13944694,0.35441574
151386037,0.20410402,-0.14674772,0.35441574
151406051,0.2025367,-0.13214615,0.3603364
151425971,0.20880592,-0.12484538,0.3558959
151445977,0.19626753,-0.158429,0.3603364
151466048,0.18999833,-0.1482079,0.36181653
151486031,0.19783482,-0.12922585,0.35885626
151506070,0.19783482,-0.13652663,0.36477685
151526086,0.18216185,-0.14382742,0.3529356
151545923,0.19940212,-0.14236727,0.3603364
151565927,0.20567133,-0.13214615,0.3603364
151586106,0.19940212,-0.1379868,0.36181653
151605926,0.20096943,-0.13360633,0.34849516
151625929,0.19783482,-0.13944694,0.36477685
151645932,0.2025367,-0.13360633,0.3558959
151665955,0.19783482,-0.13652663,0.35885626
151685925,0.20567133,-0.13360633,0.366257
151705950,0.19626753,-0.1379868,0.3603364
151725966,0.19626753,-0.12484538,0.3558959
151745974,0.19783482,-0.13652663,0.36181653
151766110,0.2119405,-0.1482079,0.3603364
151785954,0.20567133,-0.1379868,0.3603364
151805976,0.19470023,-0.13944694,0.34553483
151825930,0.19626753,-0.13360633,0.3558959
151845931,0.21507509,-0.13360633,0.36477685
151865934,0.18999833,-0.14382742,0.366257
151885927,0.20096943,-0.13944694,0.35441574
151905964,0.19626753,-0.1379868,0.3603364
151925939,0.19626753,-0.13360633,0.347015
151946058,0.19783482,-0.14236727,0.3780982
151965951,0.19313292,-0.13360633,0.3558959
151985930,0.19940212,-0.12484538,0.36181653
152005924,0.18999833,-0.14674772,0.35441574
152025954,0.20880592,-0.12922585,0.36181653
152045935,0.19626753,-0.13214615,0.3603364
152065932,0.18999833,-0.14236727,0.36181653
152085932,0.20410402,-0.14236727,0.35441574
152105927,0.20567133,-0.13214615,0.3529356
152125927,0.19940212,-0.12776569,0.3603364
152145934,0.20410402,-0.13360633,0.3529356
152165962,0.19940212,-0.1482079,0.36181653
152186015,0.20096943,-0.12922585,0.35885626
152205994,0.20410402,-0.13944694,0.36477685
152226025,0.19626753,-0.1379868,0.366257
152245957,0.19626753,-0.14236727,0.35441574
152265929,0.19470023,-0.13652663,0.35441574
152285929,0.19783482,-0.14674772,0.35885626
152305926,0.19626753,-0.14382742,0.3410944
152325925,0.19940212,-0.14382742,0.366257
152345925,0.18999833,-0.12776569,0.34997532
152365953,0.19940212,-0.15404852,0.3529356
152385950,0.20880592,-0.14236727,0.3692173
152405966,0.20096943,-0.13652663,0.3529356
152426047,0.2119405,-0.13360633,0.36181653
152445985,0.19626753,-0.14382742,0.3558959
152465995,0.18843102,-0.15258835,0.35885626
152486057,0.2166424,-0.1511282,0.3558959
152505966,0.19940212,-0.12776569,0.3692173
152525974,0.20096943,-0.13944694,0.35441574
152545987,0.19470023,-0.14236727,0.34553483
152566077,0.19940212,-0.13214615,0.37957835
152585985,0.18999833,-0.14382742,0.36181653
152606038,0.18686375,-0.14236727,0.3692173
152625939,0.19470023,-0.13944694,0.35441574
152646067,0.19470023,-0.14674772,0.3529356
152665968,0.20880592,-0.12630552,0.35885626
152685933,0.18686375,-0.12776569,0.3558959
152705938,0.18686375,-0.14382742,0.3692173
152725994,0.19940212,-0.13214615,0.34997532
152745950,0.19940212,-0.14236727,0.36181653
152765934,0.19783482,-0.13944694,0.36181653
152785931,0.19940212,-0.12484538,0.3603364
152805938,0.20567133,-0.13360633,0.3603364
152825926,0.19940212,-0.12484538,0.366257
152845934,0.20880592,-0.14382742,0.3529356
152865956,0.19783482,-0.15988915,0.36181653
152885969,0.19783482,-0.12630552,0.35885626
152905987,0.20567133,-0.1482079,0.34997532
152926003,0.19940212,-0.14382742,0.366257
152945952,0.19783482,-0.14674772,0.35441574
152965926,0.20096943,-0.12922585,0.36773717
152985950,0.19626753,-0.13214615,0.36181653
153005928,0.20096943,-0.14236727,0.35441574
153025996,0.19470023,-0.123385206,0.35885626
153045938,0.18686375,-0.1379868,0.3558959
153065968,0.19470023,-0.13944694,0.37069744
153085964,0.19470023,-0.13944694,0.35885626
153105966,0.19783482,-0.12630552,0.35441574
153125949,0.18372913,-0.12922585,0.37069744
153145970,0.18216185,-0.14382742,0.34997532
153165970,0.19470023,-0.13360633,0.37069744
153186035,0.19940212,-0.13214615,0.347015
153205927,0.18686375,-0.1482079,0.36181653
153225933,0.20880592,-0.13214615,0.366257
153245934,0.19783482,-0.13360633,0.35885626
153265933,0.20096943,-0.14236727,0.36181653
153285923,0.20410402,-0.14236727,0.35885626
153305926,0.19940212,-0.121925056,0.3529356
153325926,0.20880592,-0.12776569,0.37513793
153345925,0.19626753,-0.13360633,0.36181653
153365931,0.2025367,-0.1511282,0.3558959
153385923,0.2025367,-0.13214615,0.36181653
153405929,0.2025367,-0.12776569,0.36181653
153425926,0.19626753,-0.12484538,0.34997532
153445983,0.19470023,-0.13944694,0.36181653
153465950,0.19470023,-0.11608443,0.37957835
153485998,0.2166424,-0.117544584,0.3558959
153505932,0.20410402,-0.13652663,0.35885626
153525983,0.22447887,-0.13944694,0.36773717
153545930,0.20096943,-0.14674772,0.35885626
153565950,0.20567133,-0.1482079,0.37513793
153585980,0.19313292,-0.1379868,0.36181653
153605980,0.18059455,-0.14674772,0.37069744
153625995,0.2025367,-0.14382742,0.366257
153646023,0.19940212,-0.158429,0.366257
153665928,0.19626753,-0.12776569,0.36181653
153685949,0.19470023,-0.13360633,0.3529356
153705938,0.19940212,-0.14236727,0.36181653
153725931,0.17902727,-0.13360633,0.34849516
153745934,0.19783482,-0.13944694,0.35885626
153765932,0.19470023,-0.14236727,0.37069744
153785924,0.18999833,-0.13360633,0.366257
153805923,0.20410402,-0.13652663,0.35885626
153825923,0.18372913,-0.14236727,0.37069744
153845927,0.2025367,-0.1379868,0.37513793
153866005,0.18999833,-0.13652663,0.36477685
153886072,0.19626753,-0.13214615,0.36181653
153906063,0.20567133,-0.1379868,0.3603364
153926049,0.18059455,-0.13360633,0.3603364
153945923,0.18372913,-0.13652663,0.35885626
153965928,0.18999833,-0.13360633,0.36477685
153985925,0.18216185,-0.13360633,0.3529356
154005949,0.19470023,-0.12922585,0.35441574
154025980,0.18843102,-0.14674772,0.36477685
154045938,0.18999833,-0.14236727,0.3692173
154065939,0.19313292,-0.14382742,0.366257
154085939,0.20410402,-0.14236727,0.36181653
154105924,0.20410402,-0.14236727,0.3529356
154125929,0.19940212,-0.15404852,0.366257
154145939,0.18999833,-0.14236727,0.36477685
154185931,0.18843102,-0.13360633,0.36181653
154205930,0.19313292,-0.13214615,0.3603364
154225975,0.19313292,-0.13360633,0.36181653
154245967,0.18999833,-0.13360633,0.3603364
154265991,0.19626753,-0.13360633,0.3558959
154286031,0.19470023,-0.12922585,0.35885626
154306061,0.19470023,-0.14236727,0.35441574
154326015,0.19783482,-0.14236727,0.35441574
154346024,0.19470023,-0.13360633,0.36181653
154366018,0.19940212,-0.14382742,0.3558959
154385982,0.18999833,-0.1379868,0.3558959
154406051,0.2025367,-0.13214615,0.3603364
154425996,0.19940212,-0.1379868,0.36181653
154446091,0.19940212,-0.12776569,0.3603364
154466033,0.19940212,-0.14236727,0.36181653
154485929,0.19470023,-0.14236727,0.35441574
154505938,0.19940212,-0.1482079,0.34997532
154525926,0.19313292,-0.14236727,0.347015
154545928,0.20880592,-0.13652663,0.35441574
154565950,0.20096943,-0.14966805,0.3529356
154585966,0.19940212,-0.1511282,0.366257
154605979,0.19783482,-0.15258835,0.36477685
154626067,0.19783482,-0.13652663,0.36477685
154645928,0.18843102,-0.14236727,0.36181653
154665924,0.20096943,-0.13944694,0.36773717
154685923,0.19626753,-0.12776569,0.347015
154705981,0.19940212,-0.117544584,0.3603364
154725933,0.18999833,-0.12776569,0.3529356
154745972,0.19470023,-0.13360633,0.35885626
154765955,0.20410402,-0.13652663,0.36477685
154785924,0.20880592,-0.14674772,0.36477685
154805926,0.20880592,-0.12776569,0.3692173
154825929,0.19313292,-0.13360633,0.3603364
154845928,0.18686375,-0.13214615,0.3529356
154865930,0.2025367,-0.1511282,0.3529356
154885952,0.20567133,-0.13360633,0.347015
154905923,0.2025367,-0.14236727,0.34997532
154925923,0.20410402,-0.13360633,0.35885626
154945933,0.18999833,-0.12922585,0.36181653
154965928,0.20567133,-0.1379868,0.34997532
154985949,0.18999833,-0.13360633,0.35441574
155005948,0.19940212,-0.14236727,0.34997532
155025964,0.19940212,-0.13214615,0.34997532
155045987,0.18999833,-0.13652663,0.36477685
155065924,0.18686375,-0.14236727,0.3721776
155086067,0.19940212,-0.1379868,0.34997532
155105981,0.2025367,-0.14236727,0.3603364
155125992,0.19783482,-0.12922585,0.36773717
155145938,0.19626753,-0.1511282,0.347015
155165970,0.18999833,-0.1379868,0.3558959
155185932,0.19313292,-0.12776569,0.3558959
155205935,0.19626753,-0.13360633,0.36181653
155225939,0.2025367,-0.14236727,0.3692173
155245924,0.20567133,-0.13214615,0.3603364
155265923,0.20880592,-0.13360633,0.366257
155285938,0.20567133,-0.13214615,0.3529356
155305966,0.19313292,-0.14236727,0.3558959
155325982,0.19940212,-0.14382742,0.34997532
155346047,0.18999833,-0.13360633,0.3603364
155365936,0.19783482,-0.13360633,0.36181653
155385952,0.20410402,-0.14674772,0.35885626
155405966,0.18843102,-0.13652663,0.36477685
155425976,0.19470023,-0.14236727,0.36181653
155445979,0.19940212,-0.1379868,0.3558959
155465991,0.20096943,-0.13652663,0.36477685
155485983,0.19940212,-0.13360633,0.3529356
155505986,0.19626753,-0.13360633,0.36181653
155526050,0.18843102,-0.14236727,0.3529356
155546059,0.18999833,-0.13652663,0.36181653
155565929,0.20410402,-0.13360633,0.36773717
155586023,0.20880592,-0.13214615,0.3558959
155605963,0.20410402,-0.13944694,0.38253868
155625923,0.19313292,-0.13214615,0.3558959
155645934,0.2025367,-0.12776569,0.34997532
155665963,0.19626753,-0.12484538,0.366257
155685927,0.20096943,-0.123385206,0.35441574
155705932,0.19940212,-0.1379868,0.3603364
155725950,0.20880592,-0.12922585,0.35441574
155745974,0.19470023,-0.13652663,0.34849516
155765979,0.18372913,-0.13360633,0.35441574
155785929,0.2025367,-0.12776569,0.3603364
155805993,0.2025367,-0.13360633,0.3603364
155825923,0.19783482,-0.13944694,0.3529356
155845949,0.20567133,-0.14236727,0.36181653
155865934,0.19783482,-0.13360633,0.35885626
155885924,0.19626753,-0.13214615,0.3558959
155905926,0.19626753,-0.14236727,0.3558959
155925923,0.18216185,-0.1482079,0.3558959
155945923,0.18843102,-0.14236727,0.36477685
155965980,0.20096943,-0.14674772,0.36773717
155985932,0.18686375,-0.13360633,0.34997532
156005980,0.19626753,-0.13360633,0.37513793
156025983,0.18999833,-0.12630552,0.37069744
156046034,0.19626753,-0.1379868,0.3529356
156066047,0.18843102,-0.13652663,0.34849516
156085931,0.19626753,-0.14236727,0.3558959
156105933,0.19783482,-0.13360633,0.36181653
156125934,0.19626753,-0.14236727,0.36181653
156145953,0.19313292,-0.1379868,0.366257
156165923,0.19313292,-0.13360633,0.3692173
156185930,0.18999833,-0.13944694,0.35441574
156205927,0.20567133,-0.14236727,0.3529356
156225931,0.18843102,-0.14236727,0.36181653
156245928,0.19783482,-0.13652663,0.3529356
156265925,0.19626753,-0.14236727,0.3603364
156285929,0.19783482,-0.13360633,0.35441574
156305937,0.20880592,-0.1379868,0.36181653
156325925,0.20096943,-0.13360633,0.36773717
156345930,0.19470023,-0.13360633,0.36181653
156365923,0.21507509,-0.13944694,0.35885626
156385992,0.19940212,-0.121925056,0.347015
156405976,0.2182097,-0.121925056,0.36181653
156426032,0.19626753,-0.1379868,0.3529356
156445970,0.2025367,-0.1482079,0.3558959
156465975,0.18372913,-0.13360633,0.3529356
156485994,0.2103732,-0.14236727,0.36181653
156505927,0.19783482,-0.12922585,0.36181653
156525925,0.19313292,-0.13214615,0.347015
156545923,0.19783482,-0.13944694,0.3529356
156565937,0.19783482,-0.14236727,0.3529356
156585979,0.20880592,-0.13360633,0.3529356
156605929,0.20410402,-0.13652663,0.37069744
156625965,0.19940212,-0.12776569,0.3603364
156645949,0.19626753,-0.1379868,0.3440547
156665923,0.20880592,-0.14674772,0.36181653
156685923,0.19313292,-0.14236727,0.3603364
156705967,0.20410402,-0.13944694,0.3529356
156725951,0.2025367,-0.14382742,0.36181653
156745987,0.18843102,-0.13360633,0.36477685
156765970,0.19470023,-0.13360633,0.35441574
156785923,0.19313292,-0.13214615,0.3603364
156805996,0.19313292,-0.12776569,0.3558959
156825939,0.18999833,-0.13944694,0.35885626
156845973,0.20880592,-0.14236727,0.36477685
156865971,0.20410402,-0.13652663,0.36773717
156885979,0.19626753,-0.1482079,0.347015
156905924,0.18999833,-0.14236727,0.3529356
156925949,0.20410402,-0.13944694,0.35885626
156945923,0.19626753,-0.12776569,0.3529356
156965937,0.19313292,-0.12776569,0.366257
156985923,0.18999833,-0.13360633,0.3603364
157005933,0.19470023,-0.13944694,0.3529356
157025936,0.20096943,-0.12922585,0.3529356
157045931,0.19783482,-0.14966805,0.36181653
157065986,0.19940212,-0.1511282,0.3692173
157085929,0.19313292,-0.12776569,0.34997532
157105957,0.18372913,-0.14966805,0.3529356
157125931,0.19313292,-0.14382742,0.34997532
157145938,0.19313292,-0.13360633,0.3603364
157165960,0.2025367,-0.14236727,0.3603364
157185992,0.19470023,-0.13652663,0.36773717
157206063,0.20096943,-0.13652663,0.36773717
157226065,0.19626753,-0.13360633,0.3529356
157245930,0.2025367,-0.12776569,0.3692173
157265972,0.18372913,-0.13944694,0.36181653
157285929,0.19940212,-0.12484538,0.36181653
157305926,0.20096943,-0.13652663,0.3529356
157325930,0.20410402,-0.12630552,0.3529356
157345933,0.20410402,-0.14236727,0.35441574
157365939,0.19470023,-0.13652663,0.35885626
157385948,0.20410402,-0.13360633,0.35441574
157405951,0.19940212,-0.121925056,0.36181653
157425970,0.20096943,-0.13944694,0.36477685
157445972,0.2025367,-0.14236727,0.34997532
157465984,0.2119405,-0.14382742,0.34997532
157486041,0.18999833,-0.13944694,0.36477685
157505923,0.20880592,-0.15696883,0.36181653
157525939,0.19626753,-0.13360633,0.366257
157545923,0.19313292,-0.1379868,0.37513793
157565936,0.20880592,-0.1482079,0.36181653
157585938,0.19313292,-0.158429,0.3603364
157605930,0.19783482,-0.13944694,0.35441574
157625934,0.19783482,-0.14966805,0.36181653
157645987,0.20410402,-0.13360633,0.36477685
157665958,0.20410402,-0.15988915,0.37365776
157685970,0.18686375,-0.12776569,0.366257
157706071,0.18999833,-0.14674772,0.366257
157725969,0.18999833,-0.13214615,0.366257
157745966,0.19313292,-0.14382742,0.3603364
157765972,0.19626753,-0.13360633,0.3529356
157786078,0.20410402,-0.13360633,0.35441574
157806047,0.18999833,-0.13652663,0.36773717
157826057,0.19783482,-0.13652663,0.36477685
157846057,0.19940212,-0.12484538,0.34997532
157866048,0.19940212,-0.13360633,0.3603364
157886047,0.18686375,-0.13214615,0.3529356
157906072,0.19626753,-0.1482079,0.3603364
157925984,0.19783482,-0.13652663,0.36181653
157946093,0.19626753,-0.14236727,0.366257
157965968,0.20410402,-0.14674772,0.36477685
157985956,0.19783482,-0.13360633,0.35441574
158005934,0.19313292,-0.13214615,0.3692173
158025934,0.2025367,-0.1379868,0.3558959
158045939,0.19783482,-0.12922585,0.36181653
158065998,0.19940212,-0.13360633,0.37957835
158085963,0.21507509,-0.13360633,0.3529356
158105978,0.20096943,-0.13360633,0.35441574
158125990,0.2025367,-0.13360633,0.3692173
158145970,0.2182097,-0.13944694,0.36773717
158165973,0.2025367,-0.14382742,0.366257
158185970,0.20096943,-0.13652663,0.35885626
158206031,0.20567133,-0.12776569,0.3558959
158225937,0.19940212,-0.12776569,0.36181653
158245939,0.20096943,-0.12922585,0.34849516
158265927,0.2103732,-0.12922585,0.35885626
158285932,0.20096943,-0.14674772,0.36181653
158305929,0.19626753,-0.14382742,0.3558959
158325937,0.19470023,-0.15258835,0.34553483
158345927,0.18999833,-0.14674772,0.36773717
158365927,0.19940212,-0.13214615,0.3529356
158385932,0.18843102,-0.13944694,0.3529356
158405927,0.20567133,-0.14236727,0.36181653
158425927,0.19783482,-0.12922585,0.36773717
158445923,0.20096943,-0.13652663,0.36773717
158465934,0.20096943,-0.14236727,0.35885626
158485996,0.18999833,-0.15404852,0.3440547
158505949,0.20096943,-0.13944694,0.37069744
158525970,0.20096943,-0.13360633,0.3529356
158545986,0.18999833,-0.1379868,0.3529356
158565933,0.18999833,-0.13214615,0.3692173
158585951,0.18999833,-0.13360633,0.36181653
158605974,0.19470023,-0.13652663,0.35885626
158625986,0.18843102,-0.13652663,0.36477685
158645999,0.2119405,-0.13360633,0.3558959
158665952,0.19470023,-0.14236727,0.36773717
158685933,0.18843102,-0.12630552,0.36773717
158705925,0.19940212,-0.1379868,0.3603364
158725927,0.20410402,-0.14236727,0.35885626
158745923,0.2103732,-0.13944694,0.35441574
158765939,0.20096943,-0.13944694,0.34849516
158785950,0.19783482,-0.13360633,0.35441574
158805996,0.21507509,-0.14236727,0.3529356
158825938,0.19626753,-0.13214615,0.3558959
158845982,0.19940212,-0.13214615,0.34997532
158866079,0.19626753,-0.13214615,0.3558959
158886076,0.20410402,-0.13652663,0.35885626
158906068,0.19783482,-0.14236727,0.34257454
158926095,0.20410402,-0.12630552,0.37069744
158946078,0.18999833,-0.13944694,0.37069744
158966081,0.19940212,-0.13360633,0.36181653
158985932,0.19313292,-0.12776569,0.37513793
159005925,0.2025367,-0.12484538,0.3692173
159025951,0.2025367,-0.1511282,0.347015
159045924,0.20096943,-0.13652663,0.35441574
159065930,0.20410402,-0.13652663,0.35885626
