timestamp,ref_timestamp,ref_lat,ref_lon,x,y,z,delta_xy[0],delta_xy[1],delta_z,vx,vy,vz,z_deriv,delta_vxy[0],delta_vxy[1],delta_vz,ax,ay,az,heading,delta_heading,ref_alt,dist_bottom,eph,epv,evh,evv,vxy_max,vz_max,hagl_min,hagl_max,xy_valid,z_valid,v_xy_valid,v_z_valid,xy_reset_counter,z_reset_counter,vxy_reset_counter,vz_reset_counter,heading_reset_counter,xy_global,z_global,dist_bottom_valid
128204875,15264851,49.0896256,2.1103528,-0.88600093,0.1385434,-0.5526854,0.0007406403,-0.003378704,0.0,-0.0014798865,-0.009738634,-0.0043934565,0.015248032,0.0024132254,-0.020157471,0.022179201,0.017100597,0.033088066,-0.020673653,0.64736575,-0.0019224319,85.56228,0.1,0.2426741,0.391688,0.12861435,0.105282806,inf,inf,inf,inf,1,1,1,1,2,0,2,1,3,1,1,1
128304852,15264851,49.0896256,2.1103528,-0.88727707,0.13958868,-0.55419904,0.0007406403,-0.003378704,0.0,-0.0029639541,-0.0071937554,-0.0028512897,0.013717699,0.0024132254,-0.020157471,0.022179201,-0.007173654,0.0018338157,0.027758198,0.6474654,-0.0019224319,85.56228,0.1,0.251575,0.39347893,0.13313702,0.106683865,inf,inf,inf,inf,1,1,1,1,2,0,2,1,3,1,1,1
128404848,15264851,49.0896256,2.1103528,-0.88768166,0.1418822,-0.55584484,0.0007406403,-0.003378704,0.0,-0.002486126,-0.007624591,-0.0065164464,0.0072057126,0.0024132254,-0.020157471,0.022179201,0.020659445,-0.053883076,0.007936169,0.6473543,-0.0019224319,85.56228,0.1,0.24211882,0.39088142,0.12851253,0.10518978,inf,inf,inf,inf,1,1,1,1,2,0,2,1,3,1,1,1
128504848,15264851,49.0896256,2.1103528,-0.887868,0.14334105,-0.557432,0.0007406403,-0.003378704,0.0,-0.0039952737,-0.006752597,-0.0024089895,0.008980801,0.0024132254,-0.020157471,0.022179201,-0.006584618,0.07323204,0.12695995,0.6479626,-0.0019224319,85.56228,0.1,0.25100806,0.392663,0.1330297,0.10658814,inf,inf,inf,inf,1,1,1,1,2,0,2,1,3,1,1,1
128604848,15264851,49.0896256,2.1103528,-0.88802093,0.14549044,-0.5584107,0.0007406403,-0.003378704,0.0,-0.0054359795,-0.0044111894,-0.003218913,0.006286734,0.0024132254,-0.020157471,0.022179201,-0.047752447,0.026115581,-0.13893276,0.6477797,-0.0019224319,85.56228,0.1,0.24155824,0.3925379,0.12842229,0.10536561,inf,inf,inf,inf,1,1,1,1,2,0,2,1,3,1,1,1
128704871,15264851,49.0896256,2.1103528,-0.8881017,0.14733526,-0.55948484,0.0007406403,-0.003378704,0.0,-0.0018291663,-0.0013050004,-0.0058686445,0.0024012804,0.0024132254,-0.020157471,0.022179201,0.05072548,0.0008280024,0.12816466,0.64690244,-0.0019224319,85.56228,0.1,0.25043774,0.39435273,0.13292612,0.10677368,inf,inf,inf,inf,1,1,1,1,2,0,2,1,3,1,1,1
128804850,15264851,49.0896256,2.1103528,-0.8867268,0.14967994,-0.56077224,0.0007406403,-0.003378704,0.0,-0.0019968492,-0.001541286,-0.004889184,0.0016473405,0.0024132254,-0.020157471,0.022179201,-0.021309873,0.019327933,-0.12667648,0.64734495,-0.0019224319,85.56228,0.1,0.24099417,0.39175072,0.12833965,0.10527927,inf,inf,inf,inf,1,1,1,1,2,0,2,1,3,1,1,1
128904884,15264851,49.0896256,2.1103528,-0.8857245,0.15148494,-0.56175727,0.0007406403,-0.003378704,0.0,-0.0020299794,0.0007089397,-0.005372706,0.00039630805,0.0024132254,-0.020157471,0.022179201,0.08764874,0.03290484,0.10285174,0.6472967,-0.0019224319,85.56228,0.1,0.24986613,0.39354774,0.13284981,0.106682405,inf,inf,inf,inf,1,1,1,1,2,0,2,1,3,1,1,1
129004851,15264851,49.0896256,2.1103528,-0.8847423,0.15379314,-0.5607444,0.0007406403,-0.003378704,0.0,-0.0010814548,0.00067871634,-0.00927502,-0.0024114659,0.0024132254,-0.020157471,0.022179201,-0.042712525,-0.05263669,-0.086054794,0.6473792,-0.0019224319,85.56228,0.10287842,0.24047354,0.39096335,0.12827258,0.10519239,inf,inf,inf,inf,1,1,1,1,2,0,2,1,3,1,1,1
129104886,15264851,49.0896256,2.1103528,-0.8840642,0.15533014,-0.55955607,0.0007406403,-0.003378704,0.0,0.00073359953,0.00017698976,-0.0048906906,0.0032564476,0.0024132254,-0.020157471,0.022179201,0.03291034,0.024144357,-0.057625387,0.6476489,-0.0019224319,85.56228,0.1026223,0.24934039,0.39275962,0.13278623,0.106594995,inf,inf,inf,inf,1,1,1,1,2,0,2,1,3,1,1,1
129204848,15264851,49.0896256,2.1103528,-0.8846036,0.15620732,-0.558993,0.0007406403,-0.003378704,0.0,-0.0013332799,0.0011802446,-0.00721097,0.0013609431,0.0024132254,-0.020157471,0.022179201,0.008600678,-0.0042701364,0.023459453,0.64787436,-0.0019224319,85.56228,0.1,0.23994564,0.390192,0.12821199,0.10510908,inf,inf,inf,inf,1,1,1,1,2,0,2,1,3,1,1,1
129304848,15264851,49.0896256,2.1103528,-0.88536173,0.15680581,-0.55899173,0.0007406403,-0.003378704,0.0,-0.0016011143,0.0023711713,-0.006549648,0.0018866508,0.0024132254,-0.020157471,0.022179201,0.040327083,0.009635281,0.000104244085,0.64772284,-0.0019224319,85.56228,0.1,0.24880804,0.39446062,0.13272704,0.10678358,inf,inf,inf,inf,1,1,1,1,2,0,2,1,3,1,1,1
129404871,15264851,49.0896256,2.1103528,-0.8841443,0.15809813,-0.5577703,0.0007406403,-0.003378704,0.0,-0.0013520054,0.0036929117,-0.0053083086,0.004141492,0.0024132254,-0.020157471,0.022179201,-0.004643491,0.03274244,-0.016021045,0.6478759,-0.0019224319,85.56228,0.102170974,0.23945685,0.39186946,0.12814629,0.10529204,inf,inf,inf,inf,1,1,1,1,2,0,2,1,3,1,1,1
129504848,15264851,49.0896256,2.1103528,-0.8831312,0.15923588,-0.5572424,0.0007406403,-0.003378704,0.0,-0.0020879,0.004031545,-0.005249283,0.004360907,0.0024132254,-0.020157471,0.022179201,-0.008676256,0.012574549,0.051414028,0.6477674,-0.0019224319,85.56228,0.100003034,0.24831717,0.3936813,0.13267532,0.106698945,inf,inf,inf,inf,1,1,1,1,2,0,2,1,3,1,1,1
129604857,15264851,49.0896256,2.1103528,-0.8833797,0.16016798,-0.55787915,0.0007406403,-0.003378704,0.0,-0.0020120942,0.004440453,-0.0052640247,0.0032139923,0.0024132254,-0.020157471,0.022179201,-0.0072461097,-0.007905713,-0.029505545,0.64762574,-0.0019224319,85.56228,0.1,0.23900254,0.3911062,0.12809516,0.10521133,inf,inf,inf,inf,1,1,1,1,2,0,2,1,3,1,1,1
129704848,15264851,49.0896256,2.1103528,-0.88374895,0.16083099,-0.5595074,0.0007406403,-0.003378704,0.0,-0.0017684327,0.0032500506,-0.0038723159,0.0026611509,0.0024132254,-0.020157471,0.022179201,-0.0052957633,-0.017419694,0.013115068,0.6476163,-0.0019224319,85.56228,0.1,0.24786222,0.39289176,0.1326174,0.106610626,inf,inf,inf,inf,1,1,1,1,2,0,2,1,3,1,1,1
129804848,15264851,49.0896256,2.1103528,-0.8810539,0.16223007,-0.5637008,0.0007406403,-0.003378704,0.0,0.00046692777,0.003564523,-0.0055614957,-0.0032555112,0.0024132254,-0.020157471,0.022179201,-0.010638881,-0.010147112,0.047502477,0.64789325,-0.0019224319,85.56228,0.1,0.23853317,0.39031705,0.12804233,0.10512285,inf,inf,inf,inf,1,1,1,1,2,0,2,1,3,1,1,1
129904861,15264851,49.0896256,2.1103528,-0.8786273,0.16342884,-0.5666228,0.0007406403,-0.003378704,0.0,0.0012046155,0.005053285,-0.006390347,-0.006584052,0.0024132254,-0.020157471,0.022179201,0.0036535938,0.015944285,-0.06403598,0.64803314,-0.0019224319,85.56228,0.1,0.24739194,0.39458576,0.13256504,0.10679679,inf,inf,inf,inf,1,1,1,1,2,0,2,1,3,1,1,1
130004851,15264851,49.0896256,2.1103528,-0.8782762,0.16272672,-0.56407183,0.0007406403,-0.003378704,0.0,0.00084314717,0.0036176974,-0.0037504742,-0.00074766326,0.0024132254,-0.020157471,0.022179201,-0.03899072,0.010759858,-0.007379244,0.6482354,-0.0019224319,85.56228,0.1062679,0.23805039,0.39197958,0.1279726,0.10530135,inf,inf,inf,inf,1,1,1,1,2,0,2,1,3,1,1,1
130104849,15264851,49.0896256,2.1103528,-0.878314,0.16199602,-0.5615079,0.0007406403,-0.003378704,0.0,-0.0009135005,0.0044677616,-0.0030752423,0.0025490595,0.0024132254,-0.020157471,0.022179201,-0.0010263617,0.029090783,0.016868342,0.64820445,-0.0019224319,85.56228,0.10480282,0.24690795,0.39378917,0.13250448,0.1067076,inf,inf,inf,inf,1,1,1,1,2,0,2,1,3,1,1,1
130204849,15264851,49.0896256,2.1103528,-0.8775697,0.16229723,-0.5603414,0.0007406403,-0.003378704,0.0,0.000522925,0.004142353,-0.0018680285,0.004543348,0.0024132254,-0.020157471,0.022179201,7.902999e-05,-0.0003618282,-0.0025432536,0.6480596,-0.0019224319,85.56228,0.10229358,0.23760186,0.39120027,0.1279199,0.10521655,inf,inf,inf,inf,1,1,1,1,2,0,2,1,3,1,1,1
130304849,15264851,49.0896256,2.1103528,-0.8768813,0.16254951,-0.5587749,0.0007406403,-0.003378704,0.0,0.0010791752,0.00402724,-0.0018960875,0.0055743847,0.0024132254,-0.020157471,0.022179201,0.018857874,0.019431386,0.0017466465,0.64811426,-0.0019224319,85.56228,0.100218624,0.24645975,0.392992,0.1324478,0.10661769,inf,inf,inf,inf,1,1,1,1,2,0,2,1,3,1,1,1
130404852,15264851,49.0896256,2.1103528,-0.8752523,0.16242324,-0.5569531,0.0007406403,-0.003378704,0.0,0.001642815,0.0032461062,-0.002441036,0.0062593757,0.0024132254,-0.020157471,0.022179201,0.0155087765,-0.0075161597,-0.023669712,0.6482067,-0.0019224319,85.56228,0.10269293,0.23722835,0.39042023,0.12788367,0.10513093,inf,inf,inf,inf,1,1,1,1,2,0,2,1,3,1,1,1
130504848,15264851,49.0896256,2.1103528,-0.87377036,0.16222166,-0.5556347,0.0007406403,-0.003378704,0.0,0.0034533418,0.0030992602,-0.0030096818,0.0063335258,0.0024132254,-0.020157471,0.022179201,-0.015249131,0.022057045,0.0014862014,0.6484946,-0.0019224319,85.56228,0.1,0.24608916,0.3922111,0.13241377,0.10653143,inf,inf,inf,inf,1,1,1,1,2,0,2,1,3,1,1,1
130604852,15264851,49.0896256,2.1103528,-0.87188613,0.16061541,-0.554718,0.0007406403,-0.003378704,0.0,0.0026708592,0.0024594767,-0.0012119791,0.008255394,0.0024132254,-0.020157471,0.022179201,0.013113625,0.031655002,-0.014141336,0.64855254,-0.0019224319,85.56228,0.10033539,0.2368739,0.3921016,0.1278474,0.105314314,inf,inf,inf,inf,1,1,1,1,2,0,2,1,3,1,1,1
130704861,15264851,49.0896256,2.1103528,-0.87026095,0.15921168,-0.5541963,0.0007406403,-0.003378704,0.0,0.00410813,0.000984084,-0.0021531275,0.0070382673,0.0024132254,-0.020157471,0.022179201,-0.011820656,-0.014916505,-0.0020105615,0.64871085,-0.0019224319,85.56228,0.1,0.24573804,0.3939173,0.13237594,0.10672208,inf,inf,inf,inf,1,1,1,1,2,0,2,1,3,1,1,1
130804868,15264851,49.0896256,2.1103528,-0.8672258,0.15833072,-0.5534079,0.0007406403,-0.003378704,0.0,0.0047218697,0.0020675764,-0.0022707933,0.006958448,0.0024132254,-0.020157471,0.022179201,0.0070951274,0.02261986,0.009637667,0.64878696,-0.0019224319,85.56228,0.1,0.23668526,0.3913451,0.12791231,0.10524699,inf,inf,inf,inf,1,1,1,1,2,0,2,1,3,1,1,1
130904848,15264851,49.0896256,2.1103528,-0.86476463,0.15769261,-0.55284464,0.0007406403,-0.003378704,0.0,0.00651194,0.0013536593,-0.001631217,0.0073383898,0.0024132254,-0.020157471,0.022179201,0.036976155,-0.0024771977,-0.002348101,0.6486778,-0.0019224319,85.56228,0.1,0.2455649,0.39315233,0.13244282,0.10665193,inf,inf,inf,inf,1,1,1,1,2,0,2,1,3,1,1,1
131004886,15264851,49.0896256,2.1103528,-0.8607834,0.15539972,-0.55109656,0.0007406403,-0.003378704,0.0,0.008317186,-0.0011694662,-0.0009937873,0.008906287,0.0024132254,-0.020157471,0.022179201,-0.015283139,-0.0028875868,0.030157954,0.64885736,-0.0019224319,85.56228,0.103574306,0.23649427,0.39059517,0.12795667,0.105179526,inf,inf,inf,inf,1,1,1,1,2,0,2,1,3,1,1,1
131104848,15264851,49.0896256,2.1103528,-0.8575665,0.15349914,-0.5489278,0.0007406403,-0.003378704,0.0,0.009700707,-0.0015902705,-0.0014293503,0.009620846,0.0024132254,-0.020157471,0.022179201,0.023954153,-0.0059378557,0.007529857,0.6488602,-0.0019224319,85.56228,0.103785604,0.24538724,0.39240223,0.13249137,0.1065838,inf,inf,inf,inf,1,1,1,1,2,0,2,1,3,1,1,1
131204886,15264851,49.0896256,2.1103528,-0.8539888,0.15085943,-0.5441027,0.0007406403,-0.003378704,0.0,0.011223313,-0.0028788259,0.00090209726,0.015505463,0.0024132254,-0.020157471,0.022179201,0.0155625325,0.013726558,0.0016600485,0.64903295,-0.0019224319,85.56228,0.10793516,0.2362397,0.38985234,0.1279024,0.10510043,inf,inf,inf,inf,1,1,1,1,2,0,2,1,3,1,1,1
131304853,15264851,49.0896256,2.1103528,-0.85096925,0.14865518,-0.540357,0.0007406403,-0.003378704,0.0,0.011160383,-0.002758189,0.0013130009,0.01785389,0.0024132254,-0.020157471,0.022179201,-0.013439088,-0.021181224,0.0020999936,0.64907,-0.0019224319,85.56228,0.10358325,0.2451348,0.39412534,0.13243452,0.10677576,inf,inf,inf,inf,1,1,1,1,2,0,2,1,3,1,1,1
131404849,15264851,49.0896256,2.1103528,-0.8457342,0.14722955,-0.53879994,0.0007406403,-0.003378704,0.0,0.013488854,-0.0028581428,0.0017498845,0.017778724,0.0024132254,-0.020157471,0.022179201,0.03335638,0.012129778,-0.0066043837,0.6491016,-0.0019224319,85.56228,0.1,0.23598388,0.39150932,0.12784527,0.1052754,inf,inf,inf,inf,1,1,1,1,2,0,2,1,3,1,1,1
131504853,15264851,49.0896256,2.1103528,-0.84116787,0.14614491,-0.5373286,0.0007406403,-0.003378704,0.0,0.014285699,-0.0028890346,0.0009606764,0.016487507,0.0024132254,-0.020157471,0.022179201,0.015673999,0.0047007655,-0.008278239,0.6490071,-0.0019224319,85.56228,0.1,0.2448802,0.39328894,0.132375,0.10667245,inf,inf,inf,inf,1,1,1,1,2,0,2,1,3,1,1,1
131604850,15264851,49.0896256,2.1103528,-0.8355465,0.14534524,-0.5370361,0.0007406403,-0.003378704,0.0,0.017514529,-0.0034402409,0.0013892669,0.015424198,0.0024132254,-0.020157471,0.022179201,0.008990213,-0.052954175,-0.004717897,0.64894986,-0.0019224319,85.56228,0.1,0.23572625,0.39069274,0.12778752,0.1051778,inf,inf,inf,inf,1,1,1,1,2,0,2,1,3,1,1,1
131704867,15264851,49.0896256,2.1103528,-0.8306716,0.14466254,-0.5378864,0.0007406403,-0.003378704,0.0,0.018468088,-0.0030478255,0.0005741964,0.012181071,0.0024132254,-0.020157471,0.022179201,-0.0042184284,-0.002022923,0.012293367,0.64904433,-0.0019224319,85.56228,0.1,0.24462338,0.39496246,0.13231827,0.106850795,inf,inf,inf,inf,1,1,1,1,2,0,2,1,3,1,1,1
131804952,15264851,49.0896256,2.1103528,-0.82478625,0.1455271,-0.5400216,0.0007406403,-0.003378704,0.0,0.020120436,-0.0013595278,0.0009181411,0.009183242,0.0024132254,-0.020157471,0.022179201,0.029857937,0.0016930959,-6.251046e-07,0.6489804,-0.0019224319,85.56228,0.1,0.23546655,0.39233604,0.12772729,0.105349205,inf,inf,inf,inf,1,1,1,1,2,0,2,1,3,1,1,1
131904948,15264851,49.0896256,2.1103528,-0.819712,0.1463778,-0.5410869,0.0007406403,-0.003378704,0.0,0.021093735,-0.000948,0.00010297315,0.006543224,0.0024132254,-0.020157471,0.022179201,0.010029691,0.016958578,0.000166935,0.6490721,-0.0019224319,85.56228,0.1,0.24436393,0.3941392,0.1322569,0.10675355,inf,inf,inf,inf,1,1,1,1,2,0,2,1,3,1,1,1
132004848,15264851,49.0896256,2.1103528,-0.8140759,0.14710183,-0.5425959,0.0007406403,-0.003378704,0.0,0.021642346,0.0012215589,-0.0014797479,0.0029666286,0.0024132254,-0.020157471,0.022179201,0.014466203,0.016149,-0.0180373,0.6490902,-0.0019224319,85.56228,0.1,0.23520501,0.39153165,0.12766898,0.10525714,inf,inf,inf,inf,1,1,1,1,2,0,2,1,3,1,1,1
132104848,15264851,49.0896256,2.1103528,-0.80933034,0.14782438,-0.54301685,0.0007406403,-0.003378704,0.0,0.022332152,0.0013820952,-0.0027359754,0.0011758618,0.0024132254,-0.020157471,0.022179201,0.009764224,0.008456213,-0.04291625,0.6489073,-0.0019224319,85.56228,0.1,0.24410227,0.3933253,0.13219512,0.10665869,inf,inf,inf,inf,1,1,1,1,2,0,2,1,3,1,1,1
132204848,15264851,49.0896256,2.1103528,-0.803474,0.14629865,-0.54261565,0.0007406403,-0.003378704,0.0,0.023916693,0.0001724528,-0.0023640974,0.0019822128,0.0024132254,-0.020157471,0.022179201,0.0022220116,-0.0065365904,0.04821765,0.6488458,-0.0019224319,85.56228,0.10134271,0.23498714,0.39073598,0.12761818,0.105167106,inf,inf,inf,inf,1,1,1,1,2,0,2,1,3,1,1,1
132304850,15264851,49.0896256,2.1103528,-0.7983864,0.14485016,-0.5417909,0.0007406403,-0.003378704,0.0,0.025775861,-0.00027076737,-0.0027697838,0.0023914394,0.0024132254,-0.020157471,0.022179201,-0.009244313,0.0051092594,-0.019441048,0.6490188,-0.0019224319,85.56228,0.10264656,0.24388546,0.39252037,0.13214567,0.10656594,inf,inf,inf,inf,1,1,1,1,2,0,2,1,3,1,1,1
132404859,15264851,49.0896256,2.1103528,-0.792167,0.1441186,-0.5407517,0.0007406403,-0.003378704,0.0,0.026993543,-0.0006372495,-0.0029181405,0.0031629854,0.0024132254,-0.020157471,0.022179201,0.016348211,0.012320484,0.019406715,0.6490367,-0.0019224319,85.56228,0.10200021,0.23476093,0.39240026,0.12756848,0.105345316,inf,inf,inf,inf,1,1,1,1,2,0,2,1,3,1,1,1
132504907,15264851,49.0896256,2.1103528,-0.7867174,0.14355655,-0.5397578,0.0007406403,-0.003378704,0.0,0.02839117,-0.0010667004,-0.0027811446,0.0040999013,0.0024132254,-0.020157471,0.022179201,0.032898482,-0.000601596,0.024048306,0.6491627,-0.0019224319,85.56228,0.100957066,0.24365965,0.39421794,0.13209349,0.10675388,inf,inf,inf,inf,1,1,1,1,2,0,2,1,3,1,1,1
132604855,15264851,49.0896256,2.1103528,-0.7811556,0.14224878,-0.5397618,0.0007406403,-0.003378704,0.0,0.028595654,-0.000840676,-0.0027470374,0.0038631144,0.0024132254,-0.020157471,0.022179201,-0.00754018,0.0048144776,-0.016104922,0.64928794,-0.0019224319,85.56228,0.1,0.23452722,0.391623,0.12751564,0.10526137,inf,inf,inf,inf,1,1,1,1,2,0,2,1,3,1,1,1
132704866,15264851,49.0896256,2.1103528,-0.77642155,0.1411846,-0.5392078,0.0007406403,-0.003378704,0.0,0.028408514,-0.0010305778,-0.0031864655,0.003736165,0.0024132254,-0.020157471,0.022179201,0.0016095226,0.0015199245,0.007834047,0.64925545,-0.0019224319,85.56228,0.10175213,0.24342586,0.3934313,0.13204154,0.10666699,inf,inf,inf,inf,1,1,1,1,2,0,2,1,3,1,1,1
132804872,15264851,49.0896256,2.1103528,-0.77115816,0.14051193,-0.53941303,0.0007406403,-0.003378704,0.0,0.02962361,-0.0011144502,-0.002764591,0.0036966482,0.0024132254,-0.020157471,0.022179201,0.040050726,0.0017561188,0.042409703,0.6492382,-0.0019224319,85.56228,0.1,0.23433258,0.39083642,0.12747271,0.10517419,inf,inf,inf,inf,1,1,1,1,2,0,2,1,3,1,1,1
132904872,15264851,49.0896256,2.1103528,-0.76646745,0.13996089,-0.5399515,0.0007406403,-0.003378704,0.0,0.03085488,-0.0020696737,-0.0027289211,0.00292084,0.0024132254,-0.020157471,0.022179201,0.013226434,-0.0073504606,0.0031195078,0.64920473,-0.0019224319,85.56228,0.1,0.24323215,0.3951037,0.13199945,0.10684663,inf,inf,inf,inf,1,1,1,1,2,0,2,1,3,1,1,1
133004886,15264851,49.0896256,2.1103528,-0.76134187,0.13934892,-0.5430489,0.0007406403,-0.003378704,0.0,0.031491157,-0.002447962,-0.0032544313,-0.00078105927,0.0024132254,-0.020157471,0.022179201,0.006184634,0.0019872005,0.009015509,0.6492358,-0.0019224319,85.56228,0.1,0.23417115,0.39246222,0.12743255,0.10534255,inf,inf,inf,inf,1,1,1,1,2,0,2,1,3,1,1,1
133104863,15264851,49.0896256,2.1103528,-0.7567982,0.13886665,-0.5455253,0.0007406403,-0.003378704,0.0,0.031819083,-0.0017283255,-0.0044234167,-0.0040497505,0.0024132254,-0.020157471,0.022179201,0.017541535,-0.012011499,-0.016687261,0.6493115,-0.0019224319,85.56228,0.1,0.24307223,0.39424318,0.1319589,0.106741756,inf,inf,inf,inf,1,1,1,1,2,0,2,1,3,1,1,1
133204875,15264851,49.0896256,2.1103528,-0.75237495,0.13890724,-0.5487404,0.0007406403,-0.003378704,0.0,0.031319786,-0.0014445793,-0.005860426,-0.00798744,0.0024132254,-0.020157471,0.022179201,-0.015365822,0.0126525415,-0.0270636,0.6493811,-0.0019224319,85.56228,0.1,0.23409776,0.39162982,0.12748536,0.10525713,inf,inf,inf,inf,1,1,1,1,2,0,2,1,3,1,1,1
133304880,15264851,49.0896256,2.1103528,-0.7485499,0.13896,-0.55111617,0.0007406403,-0.003378704,0.0,0.030302024,-0.0004689409,-0.006085938,-0.009464833,0.0024132254,-0.020157471,0.022179201,-0.031707186,0.012855713,0.023369284,0.6493892,-0.0019224319,85.56228,0.1,0.24301049,0.3934109,0.13201214,0.10665633,inf,inf,inf,inf,1,1,1,1,2,0,2,1,3,1,1,1
133404848,15264851,49.0896256,2.1103528,-0.7449055,0.13925236,-0.55243057,0.0007406403,-0.003378704,0.0,0.02934244,0.00404331,-0.0069229747,-0.010318687,0.0024132254,-0.020157471,0.022179201,0.59798086,-0.11697295,-0.39642918,0.64928186,-0.0019224319,85.56228,0.101549834,0.23393968,0.39080954,0.12744069,0.105162695,inf,inf,inf,inf,1,1,1,1,2,0,2,1,3,1,1,1
133504849,15264851,49.0896256,2.1103528,-0.74146193,0.1394605,-0.552632,0.0007406403,-0.003378704,0.0,0.03315081,-0.0018824749,-0.0051901126,-0.00758923,0.0024132254,-0.020157471,0.022179201,0.034507792,0.6131372,0.23357432,0.6495327,-0.0019224319,85.56228,0.10137829,0.24285218,0.39507455,0.13196252,0.10683544,inf,inf,inf,inf,1,1,1,1,2,0,2,1,3,1,1,1
133604848,15264851,49.0896256,2.1103528,-0.73759305,0.13877074,-0.55028677,0.0007406403,-0.003378704,0.0,0.031446826,-0.0014925502,-0.0042895055,-0.0033847725,0.0024132254,-0.020157471,0.022179201,0.5219825,-0.39087468,0.3999835,0.6497891,-0.0019224319,85.56228,0.1070936,0.23386821,0.39245898,0.12748954,0.10535062,inf,inf,inf,inf,1,1,1,1,2,0,2,1,3,1,1,1
133704851,15264851,49.0896256,2.1103528,-0.7341634,0.13810237,-0.5479096,0.0007406403,-0.003378704,0.0,0.02877733,-0.00037609556,-0.0042811767,-0.0005819312,0.0024132254,-0.020157471,0.022179201,0.090231024,-0.089240685,-0.107252784,0.64995426,-0.0019224319,85.56228,0.10574761,0.24279062,0.39425647,0.1320042,0.10675494,inf,inf,inf,inf,1,1,1,1,2,0,2,1,3,1,1,1
133804848,15264851,49.0896256,2.1103528,-0.7315231,0.13927011,-0.5462277,0.0007406403,-0.003378704,0.0,0.027310582,0.0011870961,-0.0040722927,0.0013155385,0.0024132254,-0.020157471,0.022179201,-0.05903375,0.07888548,0.0059386683,0.65009725,-0.0019224319,85.56228,0.103281826,0.23372456,0.39165074,0.12747855,0.1052718,inf,inf,inf,inf,1,1,1,1,2,0,2,1,3,1,1,1
133904875,15264851,49.0896256,2.1103528,-0.72918135,0.14016818,-0.5450786,0.0007406403,-0.003378704,0.0,0.026635244,0.0013964409,-0.0038321547,0.0024876455,0.0024132254,-0.020157471,0.022179201,0.00019147959,0.013906465,0.22189678,0.6500015,-0.0019224319,85.56228,0.10218701,0.24265283,0.3934398,0.13202573,0.106673546,inf,inf,inf,inf,1,1,1,1,2,0,2,1,3,1,1,1
134004848,15264851,49.0896256,2.1103528,-0.7262919,0.14081828,-0.5446907,0.0007406403,-0.003378704,0.0,0.026575077,0.00021131996,-0.001648902,0.0047011734,0.0024132254,-0.020157471,0.022179201,-0.12344153,-0.07851367,-0.08891766,0.64998364,-0.0019224319,85.56228,0.100862294,0.23340927,0.39085338,0.12739015,0.10518309,inf,inf,inf,inf,1,1,1,1,2,0,2,1,3,1,1,1
134104861,15264851,49.0896256,2.1103528,-0.723599,0.14125131,-0.5438005,0.0007406403,-0.003378704,0.0,0.026672063,0.0013727196,-0.005747931,0.001266751,0.0024132254,-0.020157471,0.022179201,0.053075455,0.030693093,-0.15219702,0.6500808,-0.0019224319,85.56228,0.10344723,0.24232957,0.39263338,0.13191131,0.10658205,inf,inf,inf,inf,1,1,1,1,2,0,2,1,3,1,1,1
134604858,15264851,49.0896256,2.1103528,-0.7042257,0.14711729,-0.5370308,0.0007406403,-0.003378704,0.0,0.025490906,0.0039672228,-0.00382725,0.0066579725,0.0024132254,-0.020157471,0.022179201,-0.06249721,0.111595996,-0.5629765,0.64903754,-0.0019224319,85.56228,0.10362187,0.23230943,0.390912,0.1271111,0.105182774,inf,inf,inf,inf,1,1,1,1,2,0,2,1,3,1,1,1
134704851,15264851,49.0896256,2.1103528,-0.69981605,0.1488535,-0.5355804,0.0007406403,-0.003378704,0.0,0.026849506,0.0053855963,-0.002392337,0.008837862,0.0024132254,-0.020157471,0.022179201,0.10357293,0.022617811,0.62742436,0.6488172,-0.0019224319,85.56228,0.102270275,0.24120714,0.39269024,0.13163759,0.106581226,inf,inf,inf,inf,1,1,1,1,2,0,2,1,3,1,1,1
134804854,15264851,49.0896256,2.1103528,-0.6922834,0.1506965,-0.5340382,0.0007406403,-0.003378704,0.0,0.027188268,0.0063191974,-0.005392478,0.0066020982,0.0024132254,-0.020157471,0.022179201,0.019836217,0.0894679,-0.31362718,0.6488887,-0.0019224319,85.56228,0.103643686,0.23202473,0.39256504,0.12706192,0.10535922,inf,inf,inf,inf,1,1,1,1,2,0,2,1,3,1,1,1
134904848,15264851,49.0896256,2.1103528,-0.68575794,0.15229143,-0.5324605,0.0007406403,-0.003378704,0.0,0.027752314,0.0067456136,-0.0020525926,0.010675853,0.0024132254,-0.020157471,0.022179201,-0.1257409,-0.13489497,0.065307125,0.6492094,-0.0019224319,85.56228,0.10311684,0.24091981,0.39437675,0.13157886,0.10676741,inf,inf,inf,inf,1,1,1,1,2,0,2,1,3,1,1,1
135004868,15264851,49.0896256,2.1103528,-0.677547,0.15508866,-0.5323467,0.0007406403,-0.003378704,0.0,0.02886202,0.00961337,-0.0061467686,0.0057682823,0.0024132254,-0.020157471,0.022179201,0.09535535,0.08056057,0.108697295,0.64933074,-0.0019224319,85.56228,0.1,0.23178652,0.39177424,0.12702128,0.10527351,inf,inf,inf,inf,1,1,1,1,2,0,2,1,3,1,1,1
135104849,15264851,49.0896256,2.1103528,-0.67054784,0.15756983,-0.5322951,0.0007406403,-0.003378704,0.0,0.0300406,0.009681295,-0.0037310831,0.007430238,0.0024132254,-0.020157471,0.022179201,0.15621108,0.24537477,-0.41766098,0.6493346,-0.0019224319,85.56228,0.10012165,0.24068074,0.39356843,0.13153474,0.10667658,inf,inf,inf,inf,1,1,1,1,2,0,2,1,3,1,1,1
135204872,15264851,49.0896256,2.1103528,-0.66186935,0.16022016,-0.53392345,0.0007406403,-0.003378704,0.0,0.033386096,0.009842189,-0.0033746846,0.005473965,0.0024132254,-0.020157471,0.022179201,0.18468547,0.04853869,0.1446536,0.64929366,-0.0019224319,85.56228,0.1,0.23158908,0.3909836,0.12698802,0.10518719,inf,inf,inf,inf,1,1,1,1,2,0,2,1,3,1,1,1
135304896,15264851,49.0896256,2.1103528,-0.65441126,0.16244161,-0.5344873,0.0007406403,-0.003378704,0.0,0.033630434,0.010817493,-0.005608509,0.0023360853,0.0024132254,-0.020157471,0.022179201,0.017442293,0.058812045,-0.02899819,0.6490917,-0.0019224319,85.56228,0.10147712,0.24048379,0.3927772,0.13151287,0.1065897,inf,inf,inf,inf,1,1,1,1,2,0,2,1,3,1,1,1
135404882,15264851,49.0896256,2.1103528,-0.64719194,0.16448222,-0.5343716,0.0007406403,-0.003378704,0.0,0.033300936,0.009439634,-0.0034268668,0.004237567,0.0024132254,-0.020157471,0.022179201,-0.21231641,-0.05235427,-0.04451112,0.6487578,-0.0019224319,85.56228,0.10093525,0.23131803,0.3902023,0.12686016,0.10509094,inf,inf,inf,inf,1,1,1,1,2,0,2,1,3,1,1,1
135504856,15264851,49.0896256,2.1103528,-0.6409861,0.16630511,-0.53395754,0.0007406403,-0.003378704,0.0,0.032933455,0.011068757,-0.0027986108,0.0049737324,0.0024132254,-0.020157471,0.022179201,0.009759012,-0.1696201,0.34143427,0.64850545,-0.0019224319,85.56228,0.10055557,0.24020311,0.39446792,0.13138594,0.10676505,inf,inf,inf,inf,1,1,1,1,2,0,2,1,3,1,1,1
135604848,15264851,49.0896256,2.1103528,-0.6334832,0.16747952,-0.53114146,0.0007406403,-0.003378704,0.0,0.03370122,0.012008579,-0.0044598887,0.005700675,0.0024132254,-0.020157471,0.022179201,0.20029873,0.2236384,-0.3706682,0.6479599,-0.0019224319,85.56228,0.106231004,0.23119266,0.3918772,0.12685451,0.10527494,inf,inf,inf,inf,1,1,1,1,2,0,2,1,3,1,1,1
135704854,15264851,49.0896256,2.1103528,-0.62700224,0.16845506,-0.52785397,0.0007406403,-0.003378704,0.0,0.034594014,0.011151682,-0.00081084075,0.011807692,0.0024132254,-0.020157471,0.022179201,-0.014177804,0.056727298,0.24807845,0.6477051,-0.0019224319,85.56228,0.105784446,0.24008137,0.3936861,0.13137408,0.10668175,inf,inf,inf,inf,1,1,1,1,2,0,2,1,3,1,1,1
135804848,15264851,49.0896256,2.1103528,-0.61838526,0.1706113,-0.5228836,0.0007406403,-0.003378704,0.0,0.03521663,0.010838224,-0.0019160751,0.014464695,0.0024132254,-0.020157471,0.022179201,-0.033162538,-0.17075016,-0.23220976,0.64746785,-0.0019224319,85.56228,0.110281914,0.23098499,0.39110446,0.12675972,0.10518201,inf,inf,inf,inf,1,1,1,1,2,0,2,1,3,1,1,1
136104851,15264851,49.0896256,2.1103528,-0.59134936,0.17776334,-0.5092875,0.0007406403,-0.003378704,0.0,0.041862898,0.014691244,0.003780204,0.027075114,0.0024132254,-0.020157471,0.022179201,-0.15995108,0.122386605,0.25724304,0.64714646,-0.0019224319,85.56228,0.1075767,0.23980062,0.39457858,0.13128954,0.10676925,inf,inf,inf,inf,1,1,1,1,2,0,2,1,3,1,1,1
136204848,15264851,49.0896256,2.1103528,-0.58289605,0.17953634,-0.5050646,0.0007406403,-0.003378704,0.0,0.044321805,0.018350724,0.003670828,0.028208293,0.0024132254,-0.020157471,0.022179201,0.02163011,0.6786892,-0.32664815,0.6471937,-0.0019224319,85.56228,0.10322085,0.23085874,0.3919737,0.12677185,0.10527593,inf,inf,inf,inf,1,1,1,1,2,0,2,1,3,1,1,1
136304848,15264851,49.0896256,2.1103528,-0.57545614,0.1812342,-0.5019992,0.0007406403,-0.003378704,0.0,0.046879556,0.011987882,0.005913696,0.030409712,0.0024132254,-0.020157471,0.022179201,0.19041814,-0.69773036,0.3302699,0.64726067,-0.0019224319,85.56228,0.101009876,0.23975152,0.39378032,0.13130037,0.10668221,inf,inf,inf,inf,1,1,1,1,2,0,2,1,3,1,1,1
136404851,15264851,49.0896256,2.1103528,-0.56738764,0.1831014,-0.50080127,0.0007406403,-0.003378704,0.0,0.041586503,0.011376187,0.006274742,0.029043488,0.0024132254,-0.020157471,0.022179201,-0.2815258,-1.7457416,0.45490295,0.64692974,-0.0019224319,85.56228,0.1,0.23092286,0.39119983,0.12687829,0.105206616,inf,inf,inf,inf,1,1,1,1,2,0,2,1,3,1,1,1
136504848,15264851,49.0896256,2.1103528,-0.5608075,0.18458523,-0.500008,0.0007406403,-0.003378704,0.0,0.039754648,0.01076411,0.0037715293,0.024671646,0.0024132254,-0.020157471,0.022179201,-0.51175106,-0.7072849,0.167551,0.6464107,-0.0019224319,85.56228,0.1,0.23983154,0.39298964,0.13141699,0.10660794,inf,inf,inf,inf,1,1,1,1,2,0,2,1,3,1,1,1
136604849,15264851,49.0896256,2.1103528,-0.55212885,0.18563066,-0.50153893,0.0007406403,-0.003378704,0.0,0.035218835,0.00856182,0.0023753615,0.019332735,0.0024132254,-0.020157471,0.022179201,0.028912328,0.38925058,-0.7820786,0.6457051,-0.0019224319,85.56228,0.1,0.23088121,0.39041856,0.12687843,0.10512194,inf,inf,inf,inf,1,1,1,1,2,0,2,1,3,1,1,1
136704859,15264851,49.0896256,2.1103528,-0.54470086,0.18646239,-0.502676,0.0007406403,-0.003378704,0.0,0.034795847,0.010198748,-0.0016773487,0.012367979,0.0024132254,-0.020157471,0.022179201,0.07908543,0.72352004,-0.38920274,0.645018,-0.0019224319,85.56228,0.1,0.23979309,0.39220768,0.13141066,0.10652243,inf,inf,inf,inf,1,1,1,1,2,0,2,1,3,1,1,1
136804878,15264851,49.0896256,2.1103528,-0.5365771,0.18787155,-0.50263226,0.0007406403,-0.003378704,0.0,0.029295666,0.0024637387,-0.005544141,0.007345851,0.0024132254,-0.020157471,0.022179201,0.07354641,0.081349105,-0.27887648,0.6442944,-0.0019224319,85.56228,0.1,0.23084933,0.39209884,0.12685972,0.10530591,inf,inf,inf,inf,1,1,1,1,2,0,2,1,3,1,1,1
136904855,15264851,49.0896256,2.1103528,-0.53070307,0.18833451,-0.50252885,0.0007406403,-0.003378704,0.0,0.021314796,-0.0055816197,-0.0015308886,0.010567327,0.0024132254,-0.020157471,0.022179201,-0.095131084,-0.55294025,0.8066288,0.6430258,-0.0019224319,85.56228,0.1,0.23976395,0.39391294,0.13139169,0.10671337,inf,inf,inf,inf,1,1,1,1,2,0,2,1,3,1,1,1
137004854,15264851,49.0896256,2.1103528,-0.52366567,0.18949395,-0.5046915,0.0007406403,-0.003378704,0.0,0.033742912,3.651138e-05,-0.0032883107,0.0059736674,0.0024132254,-0.020157471,0.022179201,-0.0603738,-0.40050706,0.10874081,0.6419522,-0.0019224319,85.56228,0.1,0.23082542,0.39133438,0.12687403,0.1052253,inf,inf,inf,inf,1,1,1,1,2,0,2,1,3,1,1,1
137104883,15264851,49.0896256,2.1103528,-0.51637393,0.19147812,-0.5063857,0.0007406403,-0.003378704,0.0,0.046337895,0.014446134,-0.0019362704,0.005115162,0.0024132254,-0.020157471,0.022179201,0.40556452,0.67943245,-0.61114925,0.6417222,-0.0019224319,85.56228,0.1,0.239743,0.39313933,0.13139895,0.10663041,inf,inf,inf,inf,1,1,1,1,2,0,2,1,3,1,1,1
137204848,15264851,49.0896256,2.1103528,-0.51017165,0.19322465,-0.5061167,0.0007406403,-0.003378704,0.0,0.04143735,0.010327628,-0.004398885,0.0025009082,0.0024132254,-0.020157471,0.022179201,-0.14934683,0.67405003,-0.23286828,0.6412463,-0.0019224319,85.56228,0.10119936,0.230807,0.3905765,0.12685975,0.10514697,inf,inf,inf,inf,1,1,1,1,2,0,2,1,3,1,1,1
137304894,15264851,49.0896256,2.1103528,-0.5051294,0.19398236,-0.5049083,0.0007406403,-0.003378704,0.0,0.038661662,0.0062422054,0.0012058618,0.008867811,0.0024132254,-0.020157471,0.022179201,-0.32034105,-0.35220376,0.5978916,0.641235,-0.0019224319,85.56228,0.1005058,0.2397261,0.3923808,0.13136299,0.10655133,inf,inf,inf,inf,1,1,1,1,2,0,2,1,3,1,1,1
137404855,15264851,49.0896256,2.1103528,-0.4990553,0.19581912,-0.5044128,0.0007406403,-0.003378704,0.0,0.03939971,0.006134947,0.0012774939,0.008815538,0.0024132254,-0.020157471,0.022179201,0.07833656,-0.9860141,0.551865,0.6406247,-0.0019224319,85.56228,0.1,0.23079377,0.38983294,0.12683201,0.105070375,inf,inf,inf,inf,1,1,1,1,2,0,2,1,3,1,1,1
137504948,15264851,49.0896256,2.1103528,-0.49370012,0.19743831,-0.5045755,0.0007406403,-0.003378704,0.0,0.03834922,0.0016289578,-0.00093620614,0.0058305427,0.0024132254,-0.020157471,0.022179201,0.4189005,-1.0495921,0.35415268,0.64016974,-0.0019224319,85.56228,0.1,0.23971437,0.3941115,0.13136244,0.10674802,inf,inf,inf,inf,1,1,1,1,2,0,2,1,3,1,1,1
137604849,15264851,49.0896256,2.1103528,-0.48554647,0.20022121,-0.5039682,0.0007406403,-0.003378704,0.0,0.034673683,0.0061559975,-0.0006461424,0.0063736304,0.0024132254,-0.020157471,0.022179201,0.45085967,-0.86678576,0.1195222,0.6400092,-0.0019224319,85.56228,0.1,0.23078287,0.39153832,0.12682156,0.105261,inf,inf,inf,inf,1,1,1,1,2,0,2,1,3,1,1,1
137704851,15264851,49.0896256,2.1103528,-0.47798848,0.20312466,-0.5021972,0.0007406403,-0.003378704,0.0,0.042221904,0.021159302,-0.0012478217,0.006936435,0.0024132254,-0.020157471,0.022179201,-0.588045,1.1731905,0.16083916,0.6393787,-0.0019224319,85.56228,0.10259357,0.23970473,0.39335844,0.13135949,0.10666913,inf,inf,inf,inf,1,1,1,1,2,0,2,1,3,1,1,1
137804848,15264851,49.0896256,2.1103528,-0.46971413,0.20615195,-0.4980694,0.0007406403,-0.003378704,0.0,0.050065454,0.012465575,0.0026596766,0.01395765,0.0024132254,-0.020157471,0.022179201,0.04416636,-0.24761511,-0.09257962,0.63867193,-0.0019224319,85.56228,0.107160926,0.23077475,0.39079976,0.12681304,0.105185136,inf,inf,inf,inf,1,1,1,1,2,0,2,1,3,1,1,1
137904848,15264851,49.0896256,2.1103528,-0.4624088,0.20845294,-0.4951995,0.0007406403,-0.003378704,0.0,0.045410007,0.01469695,0.00052650133,0.013380402,0.0024132254,-0.020157471,0.022179201,0.13820623,0.026159896,-0.32235405,0.63914096,-0.0019224319,85.56228,0.10131255,0.2396977,0.39261895,0.13133116,0.106593,inf,inf,inf,inf,1,1,1,1,2,0,2,1,3,1,1,1
138004848,15264851,49.0896256,2.1103528,-0.45342517,0.21060176,-0.49035817,0.0007406403,-0.003378704,0.0,0.049809054,0.014969691,0.0032325054,0.0191401,0.0024132254,-0.020157471,0.022179201,-0.04557713,-0.16894846,-0.038603056,0.63874996,-0.0019224319,85.56228,0.10794434,0.23076919,0.39007422,0.12679835,0.10511212,inf,inf,inf,inf,1,1,1,1,2,0,2,1,3,1,1,1
138104848,15264851,49.0896256,2.1103528,-0.4455122,0.21254008,-0.48533285,0.0007406403,-0.003378704,0.0,0.047405723,0.012892663,0.0063412655,0.0250598,0.0024132254,-0.020157471,0.022179201,0.13149898,0.0660223,0.39679092,0.63859844,-0.0019224319,85.56228,0.1073156,0.23969303,0.39187565,0.13132213,0.106513895,inf,inf,inf,inf,1,1,1,1,2,0,2,1,3,1,1,1
138204875,15264851,49.0896256,2.1103528,-0.43641084,0.2155367,-0.48212257,0.0007406403,-0.003378704,0.0,0.048869576,0.016865972,0.0057720696,0.024993401,0.0024132254,-0.020157471,0.022179201,-0.1793272,0.1334337,-0.3275666,0.63858026,-0.0019224319,85.56228,0.100519,0.23076528,0.39178497,0.12678488,0.10530137,inf,inf,inf,inf,1,1,1,1,2,0,2,1,3,1,1,1
138304848,15264851,49.0896256,2.1103528,-0.4285766,0.21832068,-0.4800534,0.0007406403,-0.003378704,0.0,0.04905461,0.016175397,0.0046662856,0.023257982,0.0024132254,-0.020157471,0.022179201,0.26824787,0.101219825,-0.28418097,0.6382742,-0.0019224319,85.56228,0.1,0.2396898,0.39361957,0.13131674,0.10671265,inf,inf,inf,inf,1,1,1,1,2,0,2,1,3,1,1,1
138404860,15264851,49.0896256,2.1103528,-0.41958344,0.2208955,-0.47806892,0.0007406403,-0.003378704,0.0,0.04802298,0.0142804105,0.0050458685,0.023006681,0.0024132254,-0.020157471,0.022179201,-0.2714835,-0.29484558,-0.071426354,0.6380178,-0.0019224319,85.56228,0.1,0.23076262,0.39106286,0.12678714,0.105228126,inf,inf,inf,inf,1,1,1,1,2,0,2,1,3,1,1,1
138504898,15264851,49.0896256,2.1103528,-0.411811,0.222926,-0.47542346,0.0007406403,-0.003378704,0.0,0.04889229,0.013186678,0.005516092,0.023560155,0.0024132254,-0.020157471,0.022179201,0.29286492,-0.008730025,0.07361014,0.6378149,-0.0019224319,85.56228,0.1,0.23968759,0.39288786,0.13131163,0.10663617,inf,inf,inf,inf,1,1,1,1,2,0,2,1,3,1,1,1
138604918,15264851,49.0896256,2.1103528,-0.40338945,0.22554435,-0.47349966,0.0007406403,-0.003378704,0.0,0.049217075,0.011283103,0.0072129807,0.024633938,0.0024132254,-0.020157471,0.022179201,-0.15439855,-0.18366379,0.3645383,0.63780546,-0.0019224319,85.56228,0.1,0.2307603,0.39034465,0.12677456,0.10515457,inf,inf,inf,inf,1,1,1,1,2,0,2,1,3,1,1,1
138704851,15264851,49.0896256,2.1103528,-0.3961402,0.22781494,-0.47178426,0.0007406403,-0.003378704,0.0,0.048643757,0.012543586,0.005309079,0.022034379,0.0024132254,-0.020157471,0.022179201,0.19968039,0.14503123,0.10695772,0.63751066,-0.0019224319,85.56228,0.1,0.2396857,0.39216012,0.13129626,0.10655939,inf,inf,inf,inf,1,1,1,1,2,0,2,1,3,1,1,1
138804886,15264851,49.0896256,2.1103528,-0.39003497,0.23128256,-0.4724168,0.0007406403,-0.003378704,0.0,0.044233724,0.0136431735,0.005287446,0.019139405,0.0024132254,-0.020157471,0.022179201,-0.5285036,0.09271305,-0.2939617,0.63724446,-0.0019224319,85.56228,0.1,0.23075892,0.38963017,0.1267649,0.10508074,inf,inf,inf,inf,1,1,1,1,2,0,2,1,3,1,1,1
138904853,15264851,49.0896256,2.1103528,-0.3848511,0.2343697,-0.4717939,0.0007406403,-0.003378704,0.0,0.04395364,0.016965186,0.0039740037,0.016698902,0.0024132254,-0.020157471,0.022179201,0.29268038,0.32230076,0.12065973,0.63724095,-0.0019224319,85.56228,0.1,0.23968475,0.39144424,0.13129948,0.106484525,inf,inf,inf,inf,1,1,1,1,2,0,2,1,3,1,1,1
139004848,15264851,49.0896256,2.1103528,-0.37963867,0.23685946,-0.47165427,0.0007406403,-0.003378704,0.0,0.043539602,0.013241149,0.0022158492,0.013426748,0.0024132254,-0.020157471,0.022179201,0.39708662,-0.3590035,-0.12217183,0.63742113,-0.0019224319,85.56228,0.1,0.23075828,0.391359,0.12676625,0.10527293,inf,inf,inf,inf,1,1,1,1,2,0,2,1,3,1,1,1
139104848,15264851,49.0896256,2.1103528,-0.37504807,0.23889077,-0.47084776,0.0007406403,-0.003378704,0.0,0.04140699,0.012828321,0.004876643,0.015547861,0.0024132254,-0.020157471,0.022179201,-0.39848092,0.1668385,0.24844748,0.6375346,-0.0019224319,85.56228,0.1,0.23968439,0.3932062,0.13128735,0.106685884,inf,inf,inf,inf,1,1,1,1,2,0,2,1,3,1,1,1
139204849,15264851,49.0896256,2.1103528,-0.36910734,0.24081014,-0.4710893,0.0007406403,-0.003378704,0.0,0.03839763,0.015004487,0.0012142194,0.010484459,0.0024132254,-0.020157471,0.022179201,-0.2997647,-0.051424693,-0.00031149763,0.63748074,-0.0019224319,85.56228,0.1,0.23075789,0.39066187,0.12675525,0.1052028,inf,inf,inf,inf,1,1,1,1,2,0,2,1,3,1,1,1
139304848,15264851,49.0896256,2.1103528,-0.36385086,0.24246167,-0.47100332,0.0007406403,-0.003378704,0.0,0.0412708,0.012438284,0.0034915186,0.011820045,0.0024132254,-0.020157471,0.022179201,0.027030861,-0.6182653,0.3213672,0.63729376,-0.0019224319,85.56228,0.1,0.23968388,0.3924907,0.13128063,0.10661024,inf,inf,inf,inf,1,1,1,1,2,0,2,1,3,1,1,1
139404848,15264851,49.0896256,2.1103528,-0.357898,0.24572884,-0.4724287,0.0007406403,-0.003378704,0.0,0.03730802,0.015166334,0.0027016187,0.008833228,0.0024132254,-0.020157471,0.022179201,-0.31462297,0.18146995,0.57998604,0.63690025,-0.0019224319,85.56228,0.1,0.23075747,0.38995895,0.12675329,0.10512992,inf,inf,inf,inf,1,1,1,1,2,0,2,1,3,1,1,1
139504878,15264851,49.0896256,2.1103528,-0.35267374,0.2486652,-0.47331572,0.0007406403,-0.003378704,0.0,0.03898036,0.016688481,-0.0026249038,0.0021619126,0.0024132254,-0.020157471,0.022179201,0.14646816,-0.1460485,-0.14331065,0.63668865,-0.0019224319,85.56228,0.1,0.23968334,0.39178625,0.13127473,0.106536284,inf,inf,inf,inf,1,1,1,1,2,0,2,1,3,1,1,1
139604911,15264851,49.0896256,2.1103528,-0.34714463,0.25250325,-0.47201693,0.0007406403,-0.003378704,0.0,0.035945565,0.016610352,0.00048498006,0.0063095135,0.0024132254,-0.020157471,0.022179201,-0.012539638,0.0697735,0.093433514,0.6363453,-0.0019224319,85.56228,0.103526264,0.23075677,0.3892665,0.12674421,0.1050586,inf,inf,inf,inf,1,1,1,1,2,0,2,1,3,1,1,1
139704907,15264851,49.0896256,2.1103528,-0.34233016,0.25592938,-0.4699227,0.0007406403,-0.003378704,0.0,0.03663511,0.018509997,-0.0016861825,0.005789583,0.0024132254,-0.020157471,0.022179201,0.35239974,0.4468106,-0.45038426,0.635903,-0.0019224319,85.56228,0.10202125,0.23968282,0.39354822,0.13127817,0.10673482,inf,inf,inf,inf,1,1,1,1,2,0,2,1,3,1,1,1
139804849,15264851,49.0896256,2.1103528,-0.335843,0.25797814,-0.46656677,0.0007406403,-0.003378704,0.0,0.03459003,0.016486669,-0.0005521168,0.009546606,0.0024132254,-0.020157471,0.022179201,-0.11086873,-0.013297107,-0.34716126,0.63576335,-0.0019224319,85.56228,0.10516831,0.23075634,0.39100155,0.12673968,0.10525028,inf,inf,inf,inf,1,1,1,1,2,0,2,1,3,1,1,1
139904848,15264851,49.0896256,2.1103528,-0.33013767,0.25958407,-0.46337032,0.0007406403,-0.003378704,0.0,0.035444666,0.014049579,0.002408169,0.014656076,0.0024132254,-0.020157471,0.022179201,0.12779197,-0.26228395,0.24385658,0.6357926,-0.0019224319,85.56228,0.1038807,0.23968245,0.39284304,0.13127245,0.10666001,inf,inf,inf,inf,1,1,1,1,2,0,2,1,3,1,1,1
140004848,15264851,49.0896256,2.1103528,-0.324967,0.26064575,-0.45874664,0.0007406403,-0.003378704,0.0,0.033483885,0.01530339,0.001017416,0.016377911,0.0024132254,-0.020157471,0.022179201,-0.27110237,0.3304424,-0.27718544,0.63545495,-0.0019224319,85.56228,0.10729918,0.23075634,0.39030835,0.12673697,0.105178006,inf,inf,inf,inf,1,1,1,1,2,0,2,1,3,1,1,1
140104858,15264851,49.0896256,2.1103528,-0.32052448,0.26157722,-0.4541238,0.0007406403,-0.003378704,0.0,0.031945523,0.014113624,0.0027862238,0.020906214,0.0024132254,-0.020157471,0.022179201,0.107577346,-0.2633387,0.16314873,0.63536465,-0.0019224319,85.56228,0.1052593,0.2396823,0.39213955,0.1312585,0.106584445,inf,inf,inf,inf,1,1,1,1,2,0,2,1,3,1,1,1
140204848,15264851,49.0896256,2.1103528,-0.31476265,0.26296794,-0.45194012,0.0007406403,-0.003378704,0.0,0.03442913,0.012363214,0.0026385617,0.02067024,0.0024132254,-0.020157471,0.022179201,0.4827749,0.025404004,-0.0036605932,0.63520205,-0.0019224319,85.56228,0.10026243,0.23075654,0.389617,0.12673889,0.10510529,inf,inf,inf,inf,1,1,1,1,2,0,2,1,3,1,1,1
140504848,15264851,49.0896256,2.1103528,-0.30214813,0.2648265,-0.4445524,0.0007406403,-0.003378704,0.0,0.02916524,0.009167875,0.0027026199,0.021556828,0.0024132254,-0.020157471,0.022179201,-0.1784516,-0.10309358,-0.027994256,0.6348849,-0.0019224319,85.56228,0.10120574,0.23968199,0.39321283,0.13126343,0.10670881,inf,inf,inf,inf,1,1,1,1,2,0,2,1,3,1,1,1
140604849,15264851,49.0896256,2.1103528,-0.29745826,0.26555267,-0.44300923,0.0007406403,-0.003378704,0.0,0.02649156,0.010415343,0.005575294,0.023566304,0.0024132254,-0.020157471,0.022179201,-0.09613407,0.20465548,0.11475758,0.634524,-0.0019224319,85.56228,0.1,0.23075575,0.39065808,0.12672204,0.10522086,inf,inf,inf,inf,1,1,1,1,2,0,2,1,3,1,1,1
140704851,15264851,49.0896256,2.1103528,-0.2932917,0.26627687,-0.44177413,0.0007406403,-0.003378704,0.0,0.026939627,0.008733054,0.0030878396,0.0200781,0.0024132254,-0.020157471,0.022179201,0.25141,-0.24899003,0.024473477,0.6343161,-0.0019224319,85.56228,0.1,0.23968135,0.392484,0.13124175,0.10662523,inf,inf,inf,inf,1,1,1,1,2,0,2,1,3,1,1,1
140804848,15264851,49.0896256,2.1103528,-0.2893705,0.26738754,-0.44211453,0.0007406403,-0.003378704,0.0,0.024122179,0.009673484,0.0030556456,0.017620258,0.0024132254,-0.020157471,0.022179201,-0.082753256,0.120907895,0.3751656,0.6341895,-0.0019224319,85.56228,0.1,0.23075567,0.38993466,0.12672931,0.10513879,inf,inf,inf,inf,1,1,1,1,2,0,2,1,3,1,1,1
140904852,15264851,49.0896256,2.1103528,-0.2860032,0.26848632,-0.44265163,0.0007406403,-0.003378704,0.0,0.025053695,0.010704221,0.003970501,0.016276125,0.0024132254,-0.020157471,0.022179201,0.17884965,0.30205968,-0.27342138,0.633863,-0.0019224319,85.56228,0.1,0.2396812,0.39175004,0.13124806,0.10653991,inf,inf,inf,inf,1,1,1,1,2,0,2,1,3,1,1,1
141004876,15264851,49.0896256,2.1103528,-0.28341645,0.26879328,-0.44341603,0.0007406403,-0.003378704,0.0,0.023602312,0.008176953,0.0011538991,0.011203295,0.0024132254,-0.020157471,0.022179201,-0.11162426,-0.20917553,0.094901524,0.6336862,-0.0019224319,85.56228,0.1,0.23075518,0.39165223,0.12672308,0.10532273,inf,inf,inf,inf,1,1,1,1,2,0,2,1,3,1,1,1
141104886,15264851,49.0896256,2.1103528,-0.28125122,0.26901743,-0.44329658,0.0007406403,-0.003378704,0.0,0.022170573,0.0068566496,0.004250646,0.013283963,0.0024132254,-0.020157471,0.022179201,0.16873357,0.24734737,0.24918559,0.6336038,-0.0019224319,85.56228,0.1,0.23968048,0.39349994,0.1312531,0.106733285,inf,inf,inf,inf,1,1,1,1,2,0,2,1,3,1,1,1
141204863,15264851,49.0896256,2.1103528,-0.27933976,0.26913473,-0.44287798,0.0007406403,-0.003378704,0.0,0.019570667,0.009462168,0.0026851057,0.010957633,0.0024132254,-0.020157471,0.022179201,-0.26096922,0.12762305,-0.39803097,0.6330992,-0.0019224319,85.56228,0.1,0.23075452,0.39093843,0.12671985,0.1052442,inf,inf,inf,inf,1,1,1,1,2,0,2,1,3,1,1,1
141304868,15264851,49.0896256,2.1103528,-0.2776162,0.26918334,-0.44288182,0.0007406403,-0.003378704,0.0,0.01910241,0.0054559275,0.002954143,0.010182547,0.0024132254,-0.020157471,0.022179201,0.17247732,-0.18699883,-0.10745518,0.63304114,-0.0019224319,85.56228,0.1,0.2396797,0.39276698,0.13124387,0.106649384,inf,inf,inf,inf,1,1,1,1,2,0,2,1,3,1,1,1
141404848,15264851,49.0896256,2.1103528,-0.27655488,0.2690022,-0.44311896,0.0007406403,-0.003378704,0.0,0.016249578,0.008884696,0.0013469185,0.007405118,0.0024132254,-0.020157471,0.022179201,-0.33215433,0.6486908,-0.658855,0.632756,-0.0019224319,85.56228,0.1,0.23075396,0.39021927,0.12671608,0.10516385,inf,inf,inf,inf,1,1,1,1,2,0,2,1,3,1,1,1
141504865,15264851,49.0896256,2.1103528,-0.27560076,0.2690309,-0.4420918,0.0007406403,-0.003378704,0.0,0.016037446,0.0046686293,0.002914065,0.009153013,0.0024132254,-0.020157471,0.022179201,0.37410626,-0.5813865,-0.14473672,0.6323632,-0.0019224319,85.56228,0.10115293,0.2396789,0.39204565,0.13123997,0.10656818,inf,inf,inf,inf,1,1,1,1,2,0,2,1,3,1,1,1
141604848,15264851,49.0896256,2.1103528,-0.27471754,0.2696031,-0.44206098,0.0007406403,-0.003378704,0.0,0.01565531,0.0071487,0.0028395478,0.008156293,0.0024132254,-0.020157471,0.022179201,-0.29061323,0.5214457,-0.4350702,0.6319892,-0.0019224319,85.56228,0.1,0.23075375,0.3895112,0.12670837,0.10508609,inf,inf,inf,inf,1,1,1,1,2,0,2,1,3,1,1,1
141704883,15264851,49.0896256,2.1103528,-0.27388915,0.27021447,-0.44247362,0.0007406403,-0.003378704,0.0,0.013627933,0.005659185,0.0009800165,0.0052233855,0.0024132254,-0.020157471,0.022179201,0.23155935,-0.46572986,-0.14380333,0.6314888,-0.0019224319,85.56228,0.1,0.2396785,0.39379615,0.13122833,0.106761396,inf,inf,inf,inf,1,1,1,1,2,0,2,1,3,1,1,1
141804875,15264851,49.0896256,2.1103528,-0.27268183,0.27030584,-0.44489405,0.0007406403,-0.003378704,0.0,0.014468491,0.0037981232,0.0023777355,0.003760714,0.0024132254,-0.020157471,0.022179201,-0.2030936,0.13311923,0.32128027,0.6311227,-0.0019224319,85.56228,0.1,0.23075345,0.39123547,0.12670982,0.10527306,inf,inf,inf,inf,1,1,1,1,2,0,2,1,3,1,1,1
141904848,15264851,49.0896256,2.1103528,-0.2716841,0.270476,-0.44654414,0.0007406403,-0.003378704,0.0,0.010337038,0.0076634125,0.00091846666,0.0007075325,0.0024132254,-0.020157471,0.022179201,-0.31647977,-0.07665176,0.250805,0.6306653,-0.0019224319,85.56228,0.1,0.23967814,0.39307514,0.13122706,0.10668117,inf,inf,inf,inf,1,1,1,1,2,0,2,1,3,1,1,1
142004851,15264851,49.0896256,2.1103528,-0.27176997,0.2708343,-0.4471639,0.0007406403,-0.003378704,0.0,0.011771059,0.0023544068,0.0013707636,0.00082876434,0.0024132254,-0.020157471,0.022179201,-0.1729982,-0.70673853,0.6728228,0.630515,-0.0019224319,85.56228,0.1,0.23085943,0.3905346,0.12680274,0.10520954,inf,inf,inf,inf,1,1,1,1,2,0,2,1,3,1,1,1
142104848,15264851,49.0896256,2.1103528,-0.27191922,0.27130553,-0.44643083,0.0007406403,-0.003378704,0.0,0.0054048114,0.007764949,0.00030933664,0.000760708,0.0024132254,-0.020157471,0.022179201,-0.61327875,0.21202748,0.033075172,0.6301598,-0.0019224319,85.56228,0.10104185,0.23979504,0.39237285,0.13133146,0.106616855,inf,inf,inf,inf,1,1,1,1,2,0,2,1,3,1,1,1
142204848,15264851,49.0896256,2.1103528,-0.27193424,0.27205342,-0.44736978,0.0007406403,-0.003378704,0.0,0.009876003,0.0009299102,-0.0013051754,-0.001494171,0.0024132254,-0.020157471,0.022179201,0.14791405,-1.0423665,0.3795093,0.6298473,-0.0019224319,85.56228,0.1,0.2308485,0.38983715,0.12678169,0.10513389,inf,inf,inf,inf,1,1,1,1,2,0,2,1,3,1,1,1
142304848,15264851,49.0896256,2.1103528,-0.27189425,0.27264938,-0.44774032,0.0007406403,-0.003378704,0.0,0.0059942394,0.005047269,0.00036498992,0.00012310407,0.0024132254,-0.020157471,0.022179201,-0.17455308,0.29462484,0.5885763,0.6298622,-0.0019224319,85.56228,0.1,0.2397823,0.39166456,0.13131896,0.106537744,inf,inf,inf,inf,1,1,1,1,2,0,2,1,3,1,1,1
142404848,15264851,49.0896256,2.1103528,-0.2719784,0.27202716,-0.44775856,0.0007406403,-0.003378704,0.0,0.005316633,0.0045796027,-4.1146955e-05,-1.6788083e-05,0.0024132254,-0.020157471,0.022179201,0.30461317,-0.3758233,0.2626857,0.6296523,-0.0019224319,85.56228,0.1,0.23083822,0.39157742,0.1267616,0.10532311,inf,inf,inf,inf,1,1,1,1,2,0,2,1,3,1,1,1
142504875,15264851,49.0896256,2.1103528,-0.27202183,0.2713825,-0.44747797,0.0007406403,-0.003378704,0.0,0.0026515562,0.0006632113,0.0026966613,0.0033220924,0.0024132254,-0.020157471,0.022179201,-0.36240765,0.00018370955,1.1031421,0.6296585,-0.0019224319,85.56228,0.100626886,0.23977031,0.3934288,0.13129413,0.10673406,inf,inf,inf,inf,1,1,1,1,2,0,2,1,3,1,1,1
142604848,15264851,49.0896256,2.1103528,-0.27181593,0.26987982,-0.4453114,0.0007406403,-0.003378704,0.0,0.0025534492,0.0027565025,0.0005728268,0.0033950144,0.0024132254,-0.020157471,0.022179201,-0.1852999,0.051172245,0.33026543,0.6296154,-0.0019224319,85.56228,0.10296863,0.23082851,0.39087862,0.12675497,0.105247304,inf,inf,inf,inf,1,1,1,1,2,0,2,1,3,1,1,1
144904849,15264851,49.0896256,2.1103528,-0.25220466,0.29330558,-0.43781853,0.0007406403,-0.003378704,0.0,-0.01089074,0.00396419,-0.008180462,0.0058753598,0.0024132254,-0.020157471,0.022179201,-0.04777228,0.0031599114,-0.06432935,0.6281308,-0.0019224319,85.56228,0.10603094,0.2396888,0.39224228,0.13124399,0.106580816,inf,inf,inf,inf,1,1,1,1,2,0,2,1,3,1,1,1
145004878,15264851,49.0896256,2.1103528,-0.25070885,0.29520816,-0.43553814,0.0007406403,-0.003378704,0.0,-0.012382996,0.003455937,-0.0076088123,0.007994058,0.0024132254,-0.020157471,0.022179201,-0.00060234894,0.017116813,0.021770887,0.6281024,-0.0019224319,85.56228,0.105863065,0.23076156,0.38970515,0.12671427,0.10509834,inf,inf,inf,inf,1,1,1,1,2,0,2,1,3,1,1,1
145104915,15264851,49.0896256,2.1103528,-0.24992763,0.29687336,-0.43396062,0.0007406403,-0.003378704,0.0,-0.013264899,0.0048297048,-0.007856722,0.008339427,0.0024132254,-0.020157471,0.022179201,-0.04974691,0.007958143,-0.004480907,0.62821,-0.0019224319,85.56228,0.10431737,0.23968618,0.3915267,0.13124146,0.10650005,inf,inf,inf,inf,1,1,1,1,2,0,2,1,3,1,1,1
145204923,15264851,49.0896256,2.1103528,-0.24782616,0.29830033,-0.43249252,0.0007406403,-0.003378704,0.0,-0.013429749,0.0049187397,-0.007965533,0.008627209,0.0024132254,-0.020157471,0.022179201,-0.025935143,0.0076103928,-0.027041037,0.628075,-0.0019224319,85.56228,0.10365361,0.23075946,0.3914361,0.12671603,0.10528604,inf,inf,inf,inf,1,1,1,1,2,0,2,1,3,1,1,1
145304976,15264851,49.0896256,2.1103528,-0.24646643,0.299375,-0.431564,0.0007406403,-0.003378704,0.0,-0.0126797445,0.003943791,-0.0076258816,0.00875763,0.0024132254,-0.020157471,0.022179201,-0.021367872,-0.0011632231,0.03603469,0.6280844,-0.0019224319,85.56228,0.10014638,0.2396844,0.39326435,0.13124783,0.10669021,inf,inf,inf,inf,1,1,1,1,2,0,2,1,3,1,1,1
145404848,15264851,49.0896256,2.1103528,-0.24624906,0.3010753,-0.43256998,0.0007406403,-0.003378704,0.0,-0.013765979,0.0032897966,-0.007860781,0.006443194,0.0024132254,-0.020157471,0.022179201,-0.013640558,-0.010906711,-0.040089484,0.62821454,-0.0019224319,85.56228,0.1,0.23065136,0.39068308,0.12663083,0.10518506,inf,inf,inf,inf,1,1,1,1,2,0,2,1,3,1,1,1
145504853,15264851,49.0896256,2.1103528,-0.24677305,0.30256817,-0.43304005,0.0007406403,-0.003378704,0.0,-0.014780208,0.00381147,-0.007822455,0.005201985,0.0024132254,-0.020157471,0.022179201,-0.014683063,-0.00650154,0.018317353,0.62841445,-0.0019224319,85.56228,0.1,0.23956548,0.39249966,0.13115525,0.10658613,inf,inf,inf,inf,1,1,1,1,2,0,2,1,3,1,1,1
145604849,15264851,49.0896256,2.1103528,-0.24656221,0.305585,-0.43165115,0.0007406403,-0.003378704,0.0,-0.016136883,0.005199714,-0.0071019167,0.0066089407,0.0024132254,-0.020157471,0.022179201,-0.026012877,0.027106836,0.033770327,0.6286254,-0.0019224319,85.56228,0.105588764,0.23055375,0.38993448,0.12655026,0.105086245,inf,inf,inf,inf,1,1,1,1,2,0,2,1,3,1,1,1
145704848,15264851,49.0896256,2.1103528,-0.2468528,0.30846012,-0.43021724,0.0007406403,-0.003378704,0.0,-0.018061604,0.0067303106,-0.0065998184,0.0076740584,0.0024132254,-0.020157471,0.022179201,-0.017703142,0.0011772821,-0.00822414,0.6287392,-0.0019224319,85.56228,0.10234505,0.2394584,0.39422506,0.13107276,0.10676178,inf,inf,inf,inf,1,1,1,1,2,0,2,1,3,1,1,1
145804862,15264851,49.0896256,2.1103528,-0.24744901,0.31239048,-0.43187967,0.0007406403,-0.003378704,0.0,-0.019128267,0.008002544,-0.006993569,0.0047065713,0.0024132254,-0.020157471,0.022179201,-0.02520314,-0.017755361,-0.02999518,0.628803,-0.0019224319,85.56228,0.1,0.2304659,0.39163542,0.1264867,0.10525704,inf,inf,inf,inf,1,1,1,1,2,0,2,1,3,1,1,1
145904880,15264851,49.0896256,2.1103528,-0.2485173,0.31588078,-0.43324435,0.0007406403,-0.003378704,0.0,-0.019699885,0.008624552,-0.0071021896,0.0026908456,0.0024132254,-0.020157471,0.022179201,-0.015200738,0.006550722,0.00040359647,0.6287994,-0.0019224319,85.56228,0.1,0.23936273,0.3934634,0.13100915,0.106662184,inf,inf,inf,inf,1,1,1,1,2,0,2,1,3,1,1,1
146004890,15264851,49.0896256,2.1103528,-0.24922149,0.31895843,-0.43436158,0.0007406403,-0.003378704,0.0,-0.019314148,0.008876838,-0.007029103,0.0013613028,0.0024132254,-0.020157471,0.022179201,0.0008138453,0.0020271204,0.01988294,0.62885666,-0.0019224319,85.56228,0.1,0.23049328,0.39089656,0.12652685,0.10517579,inf,inf,inf,inf,1,1,1,1,2,0,2,1,3,1,1,1
146104905,15264851,49.0896256,2.1103528,-0.2503245,0.32141772,-0.43474513,0.0007406403,-0.003378704,0.0,-0.020259302,0.008924054,-0.0070354366,0.0008294501,0.0024132254,-0.020157471,0.022179201,-0.016372731,-0.009564775,-0.006599547,0.62895954,-0.0019224319,85.56228,0.100152016,0.23939447,0.39272237,0.13104898,0.10658028,inf,inf,inf,inf,1,1,1,1,2,0,2,1,3,1,1,1
146204887,15264851,49.0896256,2.1103528,-0.24707915,0.3263509,-0.4359993,0.0007406403,-0.003378704,0.0,-0.0179121,0.0104695065,-0.0075412965,-0.00096465147,0.0024132254,-0.020157471,0.022179201,-0.014855621,-0.022704141,-0.0434791,0.6289954,-0.0019224319,85.56228,0.1,0.23051928,0.39016995,0.12656017,0.10509755,inf,inf,inf,inf,1,1,1,1,2,0,2,1,3,1,1,1
146304848,15264851,49.0896256,2.1103528,-0.24451996,0.3306251,-0.43645307,0.0007406403,-0.003378704,0.0,-0.016372433,0.011985738,-0.007917531,-0.0016693327,0.0024132254,-0.020157471,0.022179201,-0.016453654,0.009075817,-0.016470443,0.62908405,-0.0019224319,85.56228,0.10205662,0.23942436,0.3919767,0.13108522,0.10649672,inf,inf,inf,inf,1,1,1,1,2,0,2,1,3,1,1,1
146404848,15264851,49.0896256,2.1103528,-0.240664,0.33549407,-0.43676013,0.0007406403,-0.003378704,0.0,-0.014858461,0.013996124,-0.0084191505,-0.0022791915,0.0024132254,-0.020157471,0.022179201,-0.015145142,0.0084204795,-0.0021444664,0.6291023,-0.0019224319,85.56228,0.10017982,0.23054373,0.39188048,0.12659001,0.105283625,inf,inf,inf,inf,1,1,1,1,2,0,2,1,3,1,1,1
146504848,15264851,49.0896256,2.1103528,-0.2378285,0.3396908,-0.43684602,0.0007406403,-0.003378704,0.0,-0.012925247,0.015603034,-0.0080927955,-0.0017914239,0.0024132254,-0.020157471,0.022179201,-0.009007484,0.0026070666,-0.005167912,0.6291355,-0.0019224319,85.56228,0.10112995,0.23945227,0.39371964,0.13111386,0.10669234,inf,inf,inf,inf,1,1,1,1,2,0,2,1,3,1,1,1
146604851,15264851,49.0896256,2.1103528,-0.23507601,0.34363064,-0.43787128,0.0007406403,-0.003378704,0.0,-0.010944845,0.01645777,-0.008871179,-0.0033488402,0.0024132254,-0.020157471,0.022179201,0.00037306864,-0.0160749,0.0142906625,0.62924504,-0.0019224319,85.56228,0.1,0.23056668,0.39115587,0.12661631,0.10520693,inf,inf,inf,inf,1,1,1,1,2,0,2,1,3,1,1,1
146704859,15264851,49.0896256,2.1103528,-0.23315,0.34697616,-0.43886533,0.0007406403,-0.003378704,0.0,-0.009389949,0.017078955,-0.0098242825,-0.0048406203,0.0024132254,-0.020157471,0.022179201,-0.009274736,0.020460645,0.011435129,0.62949854,-0.0019224319,85.56228,0.10036716,0.23947823,0.39299294,0.13114166,0.10661482,inf,inf,inf,inf,1,1,1,1,2,0,2,1,3,1,1,1
146804875,15264851,49.0896256,2.1103528,-0.23108292,0.35059944,-0.43971077,0.0007406403,-0.003378704,0.0,-0.008284529,0.017365968,-0.010815979,-0.0060696406,0.0024132254,-0.020157471,0.022179201,0.005188315,-0.0003470836,-0.01005297,0.62973243,-0.0019224319,85.56228,0.10031375,0.2305879,0.39044264,0.12663633,0.10513258,inf,inf,inf,inf,1,1,1,1,2,0,2,1,3,1,1,1
146904849,15264851,49.0896256,2.1103528,-0.22973084,0.3537161,-0.44037288,0.0007406403,-0.003378704,0.0,-0.007824825,0.017833604,-0.010644782,-0.0058793183,0.0024132254,-0.020157471,0.022179201,-0.009917431,-0.0040593925,-0.020109305,0.62996936,-0.0019224319,85.56228,0.1013805,0.23950212,0.39225233,0.1311635,0.10653277,inf,inf,inf,inf,1,1,1,1,2,0,2,1,3,1,1,1
147004848,15264851,49.0896256,2.1103528,-0.22652006,0.35654142,-0.4425158,0.0007406403,-0.003378704,0.0,-0.0059862905,0.017588044,-0.01210255,-0.008729705,0.0024132254,-0.020157471,0.022179201,-0.0058755227,-0.0150351105,-0.0037351656,0.630054,-0.0019224319,85.56228,0.1,0.23060754,0.3921466,0.12665656,0.10531627,inf,inf,inf,inf,1,1,1,1,2,0,2,1,3,1,1,1
147104859,15264851,49.0896256,2.1103528,-0.22405799,0.35898712,-0.44490692,0.0007406403,-0.003378704,0.0,-0.005420357,0.01817624,-0.0133627085,-0.011326653,0.0024132254,-0.020157471,0.022179201,-0.021905134,0.041999616,-0.0119203655,0.6300782,-0.0019224319,85.56228,0.1,0.23952411,0.39398015,0.1311829,0.10672376,inf,inf,inf,inf,1,1,1,1,2,0,2,1,3,1,1,1
147204852,15264851,49.0896256,2.1103528,-0.22151724,0.36187673,-0.44693998,0.0007406403,-0.003378704,0.0,-0.0040633697,0.01862926,-0.014362116,-0.013013271,0.0024132254,-0.020157471,0.022179201,0.008564281,0.0004944925,0.030749427,0.6300707,-0.0019224319,85.56228,0.10080555,0.23062553,0.39139464,0.12667231,0.10523267,inf,inf,inf,inf,1,1,1,1,2,0,2,1,3,1,1,1
147304855,15264851,49.0896256,2.1103528,-0.21963014,0.36445665,-0.4485321,0.0007406403,-0.003378704,0.0,-0.0026823024,0.018714901,-0.01441045,-0.0132456655,0.0024132254,-0.020157471,0.022179201,-0.020761164,0.011568626,0.03051219,0.63010836,-0.0019224319,85.56228,0.10137266,0.23954417,0.39321765,0.13120145,0.10663726,inf,inf,inf,inf,1,1,1,1,2,0,2,1,3,1,1,1
147404848,15264851,49.0896256,2.1103528,-0.21660817,0.36803657,-0.45033115,0.0007406403,-0.003378704,0.0,-0.0011742533,0.019755641,-0.0145239355,-0.013715744,0.0024132254,-0.020157471,0.022179201,0.005385212,0.009078281,0.008778085,0.63021743,-0.0019224319,85.56228,0.1004861,0.230642,0.39064768,0.12668528,0.10515021,inf,inf,inf,inf,1,1,1,1,2,0,2,1,3,1,1,1
147504878,15264851,49.0896256,2.1103528,-0.21421161,0.37126324,-0.45199308,0.0007406403,-0.003378704,0.0,0.00040031454,0.020018125,-0.014907787,-0.0142758405,0.0024132254,-0.020157471,0.022179201,0.017906796,-0.016744616,-0.0052492595,0.6303559,-0.0019224319,85.56228,0.10191688,0.2395622,0.39246026,0.13121083,0.10655192,inf,inf,inf,inf,1,1,1,1,2,0,2,1,3,1,1,1
147604868,15264851,49.0896256,2.1103528,-0.21034214,0.37559196,-0.45515722,0.0007406403,-0.003378704,0.0,0.001932775,0.021108942,-0.016501535,-0.017443774,0.0024132254,-0.020157471,0.022179201,0.003986068,0.0059716906,-0.039014813,0.63048166,-0.0019224319,85.56228,0.1,0.23065688,0.38990554,0.1266923,0.10506881,inf,inf,inf,inf,1,1,1,1,2,0,2,1,3,1,1,1
147704849,15264851,49.0896256,2.1103528,-0.2072302,0.3794934,-0.4578775,0.0007406403,-0.003378704,0.0,0.0030367463,0.022258112,-0.016882572,-0.0186498,0.0024132254,-0.020157471,0.022179201,-0.0032720328,-0.0033323783,0.0104673365,0.63057685,-0.0019224319,85.56228,0.1,0.2395784,0.39419273,0.13122125,0.106744766,inf,inf,inf,inf,1,1,1,1,2,0,2,1,3,1,1,1
147804848,15264851,49.0896256,2.1103528,-0.20541656,0.38217205,-0.4595795,0.0007406403,-0.003378704,0.0,0.0027492966,0.02180378,-0.016681159,-0.018142307,0.0024132254,-0.020157471,0.022179201,-0.0040749153,0.0029550523,-0.013263713,0.6306579,-0.0019224319,85.56228,0.102565825,0.23067026,0.39161292,0.12670127,0.1052555,inf,inf,inf,inf,1,1,1,1,2,0,2,1,3,1,1,1
147904851,15264851,49.0896256,2.1103528,-0.20426804,0.3844438,-0.46158037,0.0007406403,-0.003378704,0.0,0.002590302,0.021272175,-0.01727597,-0.01873638,0.0024132254,-0.020157471,0.022179201,0.025676554,-0.0046679736,0.032373697,0.63086545,-0.0019224319,85.56228,0.10224232,0.2395929,0.39343914,0.13122617,0.10666146,inf,inf,inf,inf,1,1,1,1,2,0,2,1,3,1,1,1
148004883,15264851,49.0896256,2.1103528,-0.20268108,0.38697886,-0.46238753,0.0007406403,-0.003378704,0.0,0.0033616105,0.0205523,-0.016835487,-0.017184684,0.0024132254,-0.020157471,0.022179201,0.0033748022,-0.0007758439,-0.011475762,0.6310504,-0.0019224319,85.56228,0.106030434,0.23068216,0.39087418,0.12670462,0.10517589,inf,inf,inf,inf,1,1,1,1,2,0,2,1,3,1,1,1
