timestamp,rollspeed_integ,pitchspeed_integ,yawspeed_integ,additional_integ1
128110818,7.406087e-05,-3.946312e-07,-0.00012750241,0.0
128170831,7.328471e-05,-3.620896e-06,-0.00013157679,0.0
128190843,6.9188354e-05,-3.0459753e-06,-0.00013412189,0.0
128210943,7.056352e-05,1.991783e-06,-0.00013686468,0.0
128230913,7.066551e-05,1.6476505e-06,-0.00013258828,0.0
128250805,6.825333e-05,-2.5168853e-07,-0.00013279526,0.0
128271089,7.0237016e-05,-4.1949352e-07,-0.00013151071,0.0
128290856,6.657866e-05,-3.0163785e-06,-0.00013023028,0.0
128310863,6.8645684e-05,-4.4282774e-06,-0.00012814932,0.0
128330895,6.693037e-05,-2.408672e-06,-0.0001285789,0.0
128350811,6.736303e-05,-3.4302345e-06,-0.00012731527,0.0
128370936,6.936932e-05,-7.408032e-07,-0.00012997176,0.0
128390770,6.7918576e-05,2.585802e-06,-0.00013085437,0.0
128410904,7.00909e-05,3.0839278e-06,-0.0001317514,0.0
128430860,7.362002e-05,4.8827096e-06,-0.00013835677,0.0
128450783,7.5421325e-05,-1.7094862e-06,-0.0001397831,0.0
128470777,7.485435e-05,-2.6902287e-06,-0.00014089156,0.0
128490794,7.699772e-05,-9.133016e-06,-0.00013686999,0.0
128510792,7.5687414e-05,-1.5603806e-05,-0.00013203104,0.0
128530812,7.672022e-05,-1.930068e-05,-0.00013147437,0.0
128550790,8.2106264e-05,-1.8461773e-05,-0.0001320964,0.0
128570805,7.67414e-05,-1.8981942e-05,-0.0001296577,0.0
128590689,7.658379e-05,-1.673807e-05,-0.00012862614,0.0
128610806,8.087042e-05,-9.405528e-06,-0.00012655852,0.0
128630845,7.889693e-05,-2.8723368e-06,-0.000121009034,0.0
128650863,7.792878e-05,3.0574136e-06,-0.00011965207,0.0
128670868,7.230365e-05,5.0656163e-06,-0.00011906589,0.0
128690894,7.650983e-05,3.6645251e-06,-0.000122054655,0.0
128710698,7.675998e-05,-1.5582638e-07,-0.00012685389,0.0
128730710,6.7294626e-05,-6.1534092e-06,-0.000130781,0.0
128750706,6.806976e-05,-8.860082e-06,-0.0001351631,0.0
128770698,7.048617e-05,-1.1042636e-05,-0.0001388516,0.0
128790688,6.7264074e-05,-7.846064e-06,-0.00014019014,0.0
128810693,6.3262705e-05,1.0191916e-06,-0.00013950132,0.0
128830704,6.300317e-05,-6.1880394e-07,-0.00013290232,0.0
128850887,6.63518e-05,-3.4055554e-06,-0.00013155414,0.0
128870861,5.992072e-05,-1.1332146e-05,-0.00012523709,0.0
128890765,6.7251065e-05,-1.1042414e-05,-0.00012492601,0.0
128910799,7.273262e-05,-4.9245677e-06,-0.00012816845,0.0
128930794,6.080235e-05,3.0782903e-06,-0.00012938508,0.0
128950787,6.8748435e-05,1.1377384e-05,-0.00013083198,0.0
128970901,6.999603e-05,1.1736299e-05,-0.00013322325,0.0
128990831,7.1428076e-05,5.0714248e-06,-0.00013268342,0.0
129010930,7.1530914e-05,-5.4654004e-07,-0.00013262185,0.0
129030827,7.391179e-05,-4.448118e-06,-0.00013223384,0.0
129050820,7.846848e-05,-3.0158085e-06,-0.00013264993,0.0
129070830,7.7028555e-05,3.1145487e-06,-0.00013385965,0.0
129090781,8.0966405e-05,1.326443e-06,-0.0001345967,0.0
129110878,8.017354e-05,3.1683496e-06,-0.00013561179,0.0
129150775,8.377602e-05,9.3624124e-07,-0.00013550113,0.0
129170721,8.18962e-05,1.5446445e-06,-0.00013236351,0.0
129190691,8.3696614e-05,-1.2443314e-06,-0.00013297221,0.0
129210685,8.239109e-05,3.3807896e-07,-0.0001310369,0.0
129230655,8.3443236e-05,1.4314542e-06,-0.00013023101,0.0
129250667,8.047006e-05,-3.1362651e-07,-0.00012934851,0.0
129270821,7.757809e-05,1.6050307e-06,-0.00012783118,0.0
129290840,8.061909e-05,-1.5176207e-06,-0.00012931139,0.0
129310787,7.616639e-05,-1.6528575e-06,-0.00012961491,0.0
129330781,7.130211e-05,-2.7440103e-06,-0.00013086718,0.0
129350711,7.258643e-05,-2.8211525e-06,-0.00013374748,0.0
129370723,7.024453e-05,-1.6013313e-06,-0.00013471571,0.0
129390734,6.9224e-05,-2.573908e-06,-0.00013304681,0.0
129410707,6.42705e-05,-4.4825603e-07,-0.00013123755,0.0
129430714,6.646654e-05,2.3437597e-06,-0.00013070644,0.0
129450704,6.4279746e-05,1.0713228e-06,-0.00012928667,0.0
129470692,6.256941e-05,-2.3084715e-06,-0.00012901463,0.0
129490714,6.2901076e-05,-2.1283197e-06,-0.0001305907,0.0
129510715,6.475309e-05,-3.692115e-06,-0.00013036293,0.0
129530727,6.296741e-05,-1.7623787e-06,-0.00012935145,0.0
129550721,6.1873514e-05,-2.0119726e-06,-0.00012837489,0.0
129570717,6.658785e-05,3.4587234e-07,-0.00012904774,0.0
129590814,6.612198e-05,1.8806988e-06,-0.00012925478,0.0
129610761,6.632457e-05,2.3211066e-06,-0.00012968467,0.0
129630756,7.018297e-05,2.7681222e-07,-0.00013026274,0.0
129650789,7.530344e-05,-1.5710348e-06,-0.00012943668,0.0
129670801,7.3337535e-05,-2.2854651e-06,-0.0001315429,0.0
129690849,7.284791e-05,-1.1212569e-06,-0.0001319852,0.0
129710861,7.950179e-05,8.229428e-07,-0.00013406842,0.0
129730777,7.939911e-05,2.3624973e-06,-0.0001337905,0.0
129750876,7.661874e-05,1.948278e-06,-0.00013418413,0.0
129770922,8.0561316e-05,1.9485105e-07,-0.00013359415,0.0
129790830,7.997461e-05,-2.7821684e-06,-0.00013335359,0.0
129810865,8.175082e-05,-1.5538556e-06,-0.00013192714,0.0
129830682,7.999111e-05,1.3436887e-06,-0.00013174501,0.0
129850855,8.080384e-05,1.8388445e-06,-0.00013207656,0.0
129870679,7.942722e-05,1.0726682e-06,-0.0001325412,0.0
129890778,7.717677e-05,6.3713406e-07,-0.00013182819,0.0
129910725,7.692549e-05,-1.3866899e-06,-0.00013058899,0.0
129930765,7.720342e-05,-1.4083101e-06,-0.0001316112,0.0
129950807,7.3846306e-05,6.1279064e-07,-0.00013122318,0.0
129970679,7.376359e-05,2.1843907e-06,-0.00013225028,0.0
129990705,7.2722425e-05,7.934281e-07,-0.0001340851,0.0
130010692,7.149315e-05,2.3567052e-06,-0.00013374309,0.0
130030693,7.0079856e-05,9.228203e-07,-0.00013150448,0.0
130050824,6.995734e-05,-1.2907622e-06,-0.00013406936,0.0
130070678,6.677633e-05,4.507501e-08,-0.00013044705,0.0
130090660,6.480666e-05,4.5511726e-07,-0.00012753629,0.0
130110672,6.681604e-05,-6.149374e-07,-0.00012989412,0.0
130130842,6.394175e-05,6.8652304e-07,-0.0001292035,0.0
130150812,6.345574e-05,6.03622e-07,-0.0001283289,0.0
130170853,6.3634245e-05,1.7021917e-07,-0.00012954736,0.0
130190809,6.722845e-05,-3.8116863e-07,-0.0001304061,0.0
130210733,6.743829e-05,-2.9690518e-06,-0.0001311962,0.0
130230716,6.686319e-05,-1.7650564e-06,-0.00013108163,0.0
130250755,6.7958994e-05,-1.147681e-06,-0.00013156848,0.0
130270729,6.904493e-05,1.3820637e-06,-0.0001316913,0.0
130290727,7.220487e-05,6.92798e-07,-0.00013044974,0.0
130310737,7.0659466e-05,-1.9423333e-06,-0.00013068914,0.0
130330841,7.482443e-05,3.2838504e-06,-0.00013214663,0.0
130350768,7.550776e-05,8.2438686e-07,-0.00013005317,0.0
130370773,7.56217e-05,3.4885565e-07,-0.00013046966,0.0
130390766,7.793924e-05,-7.9623436e-07,-0.00013135726,0.0
130410734,7.7617544e-05,3.7478534e-07,-0.0001319052,0.0
130430764,8.13565e-05,-1.4342588e-06,-0.00013216001,0.0
130450770,8.007668e-05,1.0580522e-06,-0.0001333317,0.0
130470836,8.136534e-05,2.8095715e-06,-0.00013539741,0.0
130490871,7.978508e-05,1.8617565e-06,-0.00013302041,0.0
130510898,8.060311e-05,3.8919707e-06,-0.00013206736,0.0
130530673,7.837947e-05,1.2604156e-06,-0.0001321817,0.0
130550846,7.89473e-05,1.8787399e-06,-0.0001318117,0.0
130570718,7.575063e-05,-5.058439e-07,-0.00013107865,0.0
130590907,7.590442e-05,-1.247383e-06,-0.00013012472,0.0
130610727,7.250788e-05,2.4429409e-07,-0.00012923719,0.0
130630785,7.096207e-05,1.9531305e-06,-0.00012917623,0.0
130650761,7.25768e-05,-1.0962182e-06,-0.00013153383,0.0
130670780,7.093415e-05,-1.7619364e-07,-0.00013244034,0.0
130690766,7.033217e-05,8.4553676e-07,-0.00013460769,0.0
130710708,6.798327e-05,5.0705023e-07,-0.00013353936,0.0
130730712,6.870781e-05,2.61646e-07,-0.00013398558,0.0
130750726,6.550263e-05,1.5923007e-07,-0.00013175225,0.0
130770708,6.7938854e-05,5.056573e-07,-0.00013123108,0.0
130790786,6.7601366e-05,-2.5803104e-07,-0.00012864723,0.0
130810781,6.5661465e-05,1.3656863e-07,-0.00012983706,0.0
130830703,6.589325e-05,1.1684845e-06,-0.00012885852,0.0
130850717,6.749445e-05,-8.9179304e-07,-0.00012949563,0.0
130870693,6.638612e-05,-1.0220626e-06,-0.00012713438,0.0
130890718,7.022829e-05,-1.6031192e-06,-0.00013043024,0.0
130910681,6.865906e-05,4.974796e-07,-0.00013214794,0.0
130930695,7.1489405e-05,3.2574274e-06,-0.00013241776,0.0
130950812,7.2492556e-05,2.1456178e-06,-0.00013386998,0.0
130970738,7.260251e-05,2.0870702e-06,-0.00013257835,0.0
130990756,7.3268486e-05,-2.2294066e-06,-0.00013286635,0.0
131010767,7.499238e-05,-1.2302432e-06,-0.00013227925,0.0
131030759,7.6358214e-05,2.0612495e-06,-0.00013048788,0.0
131050793,7.584192e-05,1.5640516e-06,-0.00012972944,0.0
131070789,7.806021e-05,9.782121e-07,-0.00013136194,0.0
131090769,7.821153e-05,1.3314178e-06,-0.00013104717,0.0
131110784,7.931148e-05,2.2193697e-06,-0.00013184715,0.0
131130795,7.73309e-05,6.0614406e-07,-0.00013169322,0.0
131150817,7.973695e-05,6.485205e-07,-0.00013356078,0.0
131170833,7.6951284e-05,1.0443614e-06,-0.00013268416,0.0
131190901,7.6873745e-05,-8.2204116e-07,-0.00013334642,0.0
131210936,7.7393444e-05,-1.6421357e-06,-0.00013134738,0.0
131230882,7.465842e-05,1.2518416e-06,-0.00013054172,0.0
131250828,7.536739e-05,9.2359824e-07,-0.00013046236,0.0
131270834,7.2541814e-05,3.1772603e-07,-0.00013136333,0.0
131290810,7.104992e-05,1.573591e-07,-0.00013124535,0.0
131310691,7.0995964e-05,-1.0382304e-06,-0.00013290823,0.0
131330771,7.083179e-05,9.982872e-07,-0.00013140473,0.0
131350677,6.838206e-05,-1.0261433e-06,-0.00012987305,0.0
131370683,6.9628324e-05,-9.4813424e-07,-0.00013100545,0.0
131390774,6.904152e-05,1.8427484e-06,-0.0001322752,0.0
131410710,6.700958e-05,-3.818008e-07,-0.00013080933,0.0
131430739,6.5939596e-05,-4.188646e-07,-0.00013098853,0.0
131450718,6.7613444e-05,1.1180033e-06,-0.00012927239,0.0
131470722,6.725323e-05,-1.0802627e-06,-0.00012944013,0.0
131490808,6.861738e-05,-3.740848e-07,-0.0001288936,0.0
131510797,6.723962e-05,1.6554614e-07,-0.00012911277,0.0
131530695,6.921319e-05,2.6511243e-08,-0.00012945182,0.0
131550693,6.7818764e-05,6.552588e-07,-0.0001295314,0.0
131570751,7.034814e-05,-7.4458524e-07,-0.00013240361,0.0
131590716,7.1546376e-05,2.4589426e-07,-0.00013309404,0.0
131610702,7.2719384e-05,-7.8093245e-07,-0.00013202506,0.0
131630751,7.226736e-05,-1.1869173e-06,-0.00013274145,0.0
131650799,7.406723e-05,-9.1397436e-07,-0.00013317929,0.0
131670807,7.4893724e-05,3.168605e-07,-0.00013221128,0.0
131690831,7.4913274e-05,-2.783629e-06,-0.00013074388,0.0
131710812,7.607746e-05,1.3177047e-06,-0.00013030805,0.0
131730838,7.6953016e-05,-6.446755e-07,-0.00013325961,0.0
131750764,7.666842e-05,1.1445723e-07,-0.00013259005,0.0
131770803,7.858932e-05,-1.8160753e-06,-0.00013186345,0.0
131790837,7.667473e-05,-1.7799615e-06,-0.00013147898,0.0
131810901,7.854712e-05,-1.7708353e-06,-0.00012889777,0.0
131830967,7.834275e-05,2.2149761e-06,-0.00013188737,0.0
131850902,7.5830554e-05,1.0837092e-06,-0.0001322386,0.0
131870916,7.43625e-05,-1.8349373e-07,-0.00013297856,0.0
131890921,7.564863e-05,-1.6563408e-06,-0.00013463052,0.0
131910913,7.3524476e-05,-1.402755e-06,-0.00013327524,0.0
131930932,7.226998e-05,-1.3034015e-06,-0.00013246606,0.0
131950920,7.268084e-05,-6.7362697e-07,-0.00013208603,0.0
131970950,6.971166e-05,-1.9966797e-07,-0.00013055648,0.0
131990907,6.628422e-05,-2.0558582e-08,-0.00012840985,0.0
132010766,6.875598e-05,-2.6298637e-06,-0.00012940068,0.0
132030912,6.8381385e-05,-1.1288598e-06,-0.00012944058,0.0
132050892,6.555509e-05,1.006051e-07,-0.00012573975,0.0
132070795,6.7976725e-05,-1.766209e-07,-0.00012882674,0.0
132090690,6.9389054e-05,-6.652395e-07,-0.00012942938,0.0
132110757,6.767422e-05,-8.7951605e-07,-0.00013053125,0.0
132130686,6.7396635e-05,-1.1590934e-06,-0.00012951254,0.0
132150691,7.044608e-05,4.1949244e-07,-0.00013315126,0.0
132170656,6.819856e-05,6.841169e-07,-0.00012965675,0.0
132190639,6.905918e-05,1.5681989e-06,-0.0001311064,0.0
132210656,6.994783e-05,7.948185e-07,-0.00012982605,0.0
132230799,7.039477e-05,2.6805523e-07,-0.0001327572,0.0
132250750,7.4132135e-05,-8.19291e-07,-0.00013357266,0.0
132270710,7.21961e-05,1.5219015e-08,-0.00013402535,0.0
132290728,7.292449e-05,-1.2974914e-06,-0.00013303019,0.0
132310704,7.617947e-05,7.3666195e-07,-0.00013251409,0.0
132330734,7.46622e-05,2.4362944e-06,-0.00013137069,0.0
132350714,7.651721e-05,1.5785463e-06,-0.0001308908,0.0
132370707,7.735443e-05,-5.9324464e-08,-0.00013024888,0.0
132390735,7.738124e-05,-7.627784e-08,-0.00013123646,0.0
132410717,7.787006e-05,6.678501e-07,-0.00013053666,0.0
132430718,7.6503704e-05,9.706192e-07,-0.00013259212,0.0
132450718,7.837179e-05,1.2420281e-06,-0.0001305937,0.0
132470829,7.793573e-05,1.6091352e-06,-0.00013059552,0.0
132490814,7.737918e-05,5.000397e-07,-0.00013103934,0.0
132510776,7.645923e-05,4.9656035e-07,-0.0001322296,0.0
132530763,7.462486e-05,-1.2101267e-06,-0.00013236229,0.0
132550768,7.5810145e-05,-1.7475948e-07,-0.00013331846,0.0
132570806,7.5258955e-05,6.499705e-07,-0.00013202005,0.0
132590793,7.273694e-05,-5.704989e-07,-0.00013119115,0.0
132610733,7.1264105e-05,9.730911e-07,-0.00013015757,0.0
132630853,7.1092836e-05,2.8934124e-07,-0.00013099713,0.0
132650650,7.0132504e-05,-9.5355443e-07,-0.00013075637,0.0
132670917,7.0458824e-05,-1.0223018e-06,-0.00013012897,0.0
132690891,7.0379676e-05,-1.1978178e-06,-0.0001284808,0.0
132710813,6.8811634e-05,-7.138469e-07,-0.00012876496,0.0
132730860,6.73261e-05,8.53292e-09,-0.00012931906,0.0
132750853,6.740041e-05,3.3585886e-07,-0.0001311579,0.0
132770777,6.982065e-05,-1.6496359e-06,-0.00012942092,0.0
132790814,6.765638e-05,-2.4575893e-06,-0.0001306938,0.0
132810825,6.8212925e-05,1.0104232e-07,-0.00012759327,0.0
132830752,6.746963e-05,-1.1414271e-06,-0.00013014794,0.0
132850812,6.918065e-05,-1.7715589e-06,-0.00012926734,0.0
132870795,7.0317445e-05,-1.5913422e-06,-0.00013052025,0.0
132890784,7.0798334e-05,-2.130583e-06,-0.00012939908,0.0
132910779,7.071203e-05,-3.7197847e-06,-0.00013149009,0.0
132930789,7.275668e-05,-2.5832442e-06,-0.00013110091,0.0
132950791,7.297674e-05,-4.5307183e-07,-0.00013207154,0.0
132970840,7.417075e-05,-3.100132e-08,-0.00013188893,0.0
132990841,7.514165e-05,-6.11731e-08,-0.00013291488,0.0
133010786,7.6200864e-05,-1.3061195e-07,-0.00013231473,0.0
133030866,7.566419e-05,2.862249e-07,-0.00013194494,0.0
133050865,7.649891e-05,8.264261e-07,-0.0001329706,0.0
133070886,7.459468e-05,5.89058e-07,-0.00013047755,0.0
133090882,7.6548065e-05,-1.8914882e-06,-0.00013268346,0.0
133110902,7.713623e-05,4.4864046e-07,-0.00013058285,0.0
133130888,7.597306e-05,-1.6729348e-06,-0.00012952616,0.0
133150809,7.368802e-05,5.175191e-07,-0.00012679076,0.0
133170897,7.6415505e-05,-1.2362553e-07,-0.00013316925,0.0
133190912,7.4627416e-05,-6.794625e-07,-0.00013276048,0.0
133210975,7.479663e-05,9.829546e-07,-0.00013188529,0.0
133230951,7.433426e-05,3.0427836e-07,-0.00012928224,0.0
133250970,7.174695e-05,-2.4913265e-06,-0.00013244434,0.0
133271104,7.1513656e-05,-4.813293e-07,-0.00013157759,0.0
133290931,7.1632705e-05,1.275512e-06,-0.00013078284,0.0
133310981,6.952872e-05,1.0726135e-06,-0.00013013234,0.0
133330947,6.8520785e-05,-8.8455744e-07,-0.0001313596,0.0
133350910,8.75893e-05,-4.4207404e-06,-0.0001353566,0.0
133371046,7.703365e-05,6.701219e-06,-0.00012971785,0.0
133390861,8.099927e-05,-2.385069e-06,-0.00013221141,0.0
133410995,4.040003e-05,3.8146807e-06,-0.00012609747,0.0
133430886,4.652225e-05,4.1586454e-06,-0.00012865082,0.0
133450950,5.649464e-05,9.401115e-06,-0.0001310777,0.0
133470993,6.02906e-05,3.8576613e-06,-0.00013138022,0.0
133490907,7.9330595e-05,-9.6844105e-06,-0.0001331258,0.0
133510912,8.3870276e-05,2.9672872e-06,-0.00013525749,0.0
133530940,0.000103908125,2.7419217e-06,-0.00013974479,0.0
133550855,0.000105580446,1.9524232e-06,-0.00014115089,0.0
133570875,8.595172e-05,1.9373226e-06,-0.00013719573,0.0
133590837,9.576984e-05,1.6688308e-06,-0.0001372495,0.0
133610818,7.7130324e-05,1.6929301e-06,-0.0001345388,0.0
133630921,8.130252e-05,3.6509155e-06,-0.0001350428,0.0
133650812,7.5626805e-05,-2.8794877e-06,-0.00013483992,0.0
133670872,6.487647e-05,-3.2775538e-06,-0.0001328494,0.0
133690843,7.384359e-05,1.719621e-06,-0.00013297166,0.0
133710903,5.9701135e-05,1.8823335e-06,-0.00013191113,0.0
133730841,6.762849e-05,-8.1644777e-07,-0.00013277562,0.0
133750805,6.3701955e-05,1.6996204e-06,-0.00013317229,0.0
133770870,6.274896e-05,4.9749465e-06,-0.00013415205,0.0
133790848,7.1651186e-05,-2.5709376e-06,-0.00013396409,0.0
133810843,5.7789e-05,4.2958345e-07,-0.00013283134,0.0
133830856,7.672493e-05,-7.078391e-07,-0.00013545636,0.0
133850941,6.497787e-05,-1.2732294e-06,-0.00013333568,0.0
133870927,7.188308e-05,1.0330458e-06,-0.00013142974,0.0
133890937,7.816071e-05,-1.7720886e-06,-0.00013111788,0.0
133910933,6.7505425e-05,-1.2484978e-06,-0.00012792693,0.0
133930885,8.235617e-05,1.659568e-06,-0.0001316911,0.0
133950936,7.703382e-05,-3.8926296e-06,-0.00013217528,0.0
133970952,7.937032e-05,1.0035903e-06,-0.00013233643,0.0
133990913,7.6970704e-05,4.80441e-06,-0.00013377854,0.0
134010942,8.4946856e-05,-2.4018698e-06,-0.00013444033,0.0
134030840,8.16032e-05,4.0834216e-06,-0.00013540339,0.0
134050981,7.806217e-05,6.364268e-06,-0.00013452987,0.0
134071001,8.643745e-05,-1.3554212e-06,-0.00013292138,0.0
134090874,7.938226e-05,6.8955984e-07,-0.00013398114,0.0
134110988,7.541606e-05,5.958526e-06,-0.00013197002,0.0
134130868,8.436253e-05,-3.973389e-06,-0.00013351758,0.0
134610761,8.1589096e-05,-3.5163416e-07,-0.00013124791,0.0
134630953,8.962456e-05,2.8729173e-07,-0.00013154521,0.0
134651023,7.6060525e-05,5.2223377e-06,-0.00013067339,0.0
134670812,8.342463e-05,3.2195117e-06,-0.00012965489,0.0
134690789,8.916901e-05,-2.9066023e-06,-0.00013032356,0.0
134710864,8.340464e-05,1.3085503e-06,-0.00013113045,0.0
134730970,7.6921795e-05,7.305215e-06,-0.00012969789,0.0
134750850,8.3763174e-05,-1.2067122e-06,-0.00013115453,0.0
134770836,8.2913844e-05,-1.4877504e-06,-0.00013172122,0.0
134791106,7.0792696e-05,3.457944e-06,-0.00012989528,0.0
134811085,7.5332755e-05,2.3108912e-06,-0.00013189563,0.0
134830913,7.8645964e-05,-2.9384098e-06,-0.00013267947,0.0
134850908,7.351467e-05,1.1835458e-06,-0.00013250069,0.0
134870763,6.626703e-05,6.2303125e-06,-0.00013113003,0.0
134891011,6.848389e-05,1.4417031e-06,-0.00013035037,0.0
134910718,7.1944276e-05,-3.5336914e-06,-0.00013008573,0.0
134930891,6.693118e-05,6.7692463e-06,-0.0001300153,0.0
134950815,5.747056e-05,6.393933e-06,-0.0001299508,0.0
134970842,6.827898e-05,-3.9789034e-06,-0.00012816336,0.0
134990933,6.861592e-05,7.484144e-07,-0.00012983421,0.0
135010764,5.698627e-05,4.802824e-06,-0.00012745797,0.0
135030803,5.77017e-05,-1.1482451e-06,-0.00012780925,0.0
135050736,7.23802e-05,-6.447069e-06,-0.00013092508,0.0
135070732,6.8289104e-05,4.057179e-06,-0.00013139585,0.0
135090725,5.887143e-05,3.9773923e-07,-0.00013127747,0.0
135110717,7.1505136e-05,-5.114782e-06,-0.00013046994,0.0
135130723,7.562867e-05,-2.0184282e-06,-0.00013158155,0.0
135150810,6.941658e-05,-1.2929765e-06,-0.00013121273,0.0
135170829,6.757464e-05,3.7067971e-07,-0.00013015533,0.0
135190873,8.1826576e-05,-5.616202e-06,-0.00013362846,0.0
135210913,8.107513e-05,2.4497804e-06,-0.00013139738,0.0
135230800,7.0889124e-05,3.4458333e-06,-0.0001290061,0.0
135250789,8.0946505e-05,3.3535866e-07,-0.0001320475,0.0
135270833,8.344113e-05,-1.8157369e-06,-0.00013223873,0.0
135290798,7.9724006e-05,-3.6692197e-07,-0.00013102937,0.0
135310794,7.43042e-05,2.6445352e-06,-0.00012996978,0.0
135330798,8.853183e-05,-5.1888424e-06,-0.00013109224,0.0
135350817,8.613744e-05,-1.4057832e-06,-0.00013032884,0.0
135370906,7.221312e-05,4.920827e-07,-0.00013081112,0.0
135390871,8.009054e-05,1.9708618e-06,-0.00013034006,0.0
135410922,8.4065425e-05,-2.452012e-06,-0.00013227072,0.0
135430806,7.6193086e-05,-4.7474677e-07,-0.0001326551,0.0
135450890,6.828722e-05,3.0826086e-06,-0.00013308894,0.0
135470943,7.473388e-05,-1.6640009e-06,-0.00013080925,0.0
135490891,7.84708e-05,-1.5573213e-06,-0.0001327067,0.0
135510951,6.559418e-05,-8.230403e-08,-0.00012904429,0.0
135530903,6.381624e-05,2.0657426e-06,-0.00012811167,0.0
135550894,7.140538e-05,-4.8168e-06,-0.0001290125,0.0
135570682,6.9871916e-05,3.3691163e-06,-0.0001263527,0.0
135590909,6.03484e-05,5.2857723e-07,-0.00012811192,0.0
135610797,6.602183e-05,-7.6447213e-07,-0.00013087787,0.0
135630936,6.762948e-05,-7.368514e-07,-0.00013182336,0.0
135650697,6.82024e-05,1.1296814e-06,-0.00013177737,0.0
135670711,6.1482264e-05,4.1654377e-07,-0.0001320028,0.0
135690708,6.5384374e-05,-3.8802395e-06,-0.00012976011,0.0
135710720,7.03913e-05,2.4349345e-06,-0.00013074875,0.0
135730709,6.630395e-05,1.644656e-06,-0.00013143204,0.0
135750760,6.653058e-05,1.2901754e-06,-0.00012811723,0.0
135770799,7.168725e-05,-5.1479556e-06,-0.0001298916,0.0
135790770,7.842535e-05,2.2966185e-06,-0.00013309161,0.0
135810756,7.091016e-05,1.4724927e-06,-0.00013174202,0.0
136070875,7.749473e-05,-1.6893775e-06,-0.00013268214,0.0
136090781,7.9502635e-05,4.3521145e-06,-0.00013116146,0.0
136110780,8.27503e-05,5.4721204e-07,-0.00012963063,0.0
136130774,8.5971085e-05,3.2315845e-06,-0.00013171193,0.0
136150764,8.098537e-05,1.8365287e-06,-0.00013083259,0.0
136170794,6.495059e-05,3.9902525e-06,-0.00013080717,0.0
136190764,5.8978414e-05,7.113314e-06,-0.00013312441,0.0
136210836,6.586119e-05,3.4877467e-06,-0.00013336299,0.0
136230832,7.170382e-05,1.628718e-06,-0.00013460072,0.0
136250884,8.197237e-05,1.4425872e-06,-0.00013706888,0.0
136270838,9.43345e-05,-6.657511e-07,-0.00013556819,0.0
136290890,9.7289674e-05,-1.4860874e-06,-0.00013489,0.0
136310737,0.000102899634,-2.89335e-06,-0.00013672013,0.0
136331013,9.8471624e-05,-5.1646452e-06,-0.00013386755,0.0
136350738,8.6480184e-05,-6.5393715e-07,-0.00013156536,0.0
136370974,8.102951e-05,-5.2996384e-06,-0.00013136037,0.0
136390639,7.836452e-05,-4.0823143e-06,-0.00013005229,0.0
136410667,7.683046e-05,-4.8559377e-06,-0.0001251746,0.0
136430652,7.434587e-05,-3.7252903e-06,-0.0001257858,0.0
136450761,7.575816e-05,-5.2510027e-06,-0.00012675945,0.0
136470760,7.583768e-05,-3.7464067e-06,-0.00012596941,0.0
136490733,8.6004286e-05,-7.6025185e-06,-0.00012938422,0.0
136510787,8.117163e-05,-1.666931e-06,-0.00012926866,0.0
136530704,8.210117e-05,-6.3879706e-06,-0.00013252268,0.0
136550705,9.175954e-05,-1.6391392e-06,-0.00013306434,0.0
136570683,9.100433e-05,-9.567852e-06,-0.00012739017,0.0
136590709,8.421766e-05,-1.730423e-05,-0.00012242056,0.0
136610703,8.9036475e-05,-1.879856e-05,-0.00012487434,0.0
136630689,8.73536e-05,-1.7463051e-05,-0.00012875786,0.0
136650709,8.00649e-05,-9.992923e-06,-0.00013030852,0.0
136670778,8.461996e-05,2.2412012e-06,-0.00013171007,0.0
136690755,7.492414e-05,-3.1317938e-06,-0.00012866831,0.0
136710709,7.612104e-05,-3.2730495e-06,-0.00012315533,0.0
136730751,7.815173e-05,-6.582631e-06,-0.00012299046,0.0
136750716,6.2342326e-05,-8.02964e-06,-0.00012596266,0.0
136770848,6.465016e-05,6.5030486e-06,-0.00012981522,0.0
136790893,6.802785e-05,9.747051e-06,-0.00012903806,0.0
136810756,6.111417e-05,6.2410736e-06,-0.0001268508,0.0
136830708,6.445616e-05,-6.507656e-06,-0.00012164308,0.0
136850794,6.7227804e-05,-1.0351366e-05,-0.00012123317,0.0
136870756,7.135143e-05,-1.9682502e-05,-0.00011778989,0.0
136890791,6.0640956e-05,-1.5419797e-05,-0.00011674759,0.0
136910795,6.695805e-05,-5.944293e-06,-0.000118918906,0.0
136930864,8.028515e-05,-6.7700225e-06,-0.0001234175,0.0
136950682,7.1150855e-05,-4.569111e-06,-0.00012418289,0.0
136970694,7.532973e-05,-1.3606775e-05,-0.00012363007,0.0
136990682,7.4837386e-05,-1.5885807e-05,-0.0001262252,0.0
137010686,7.648045e-05,-4.83087e-06,-0.00013052339,0.0
137030727,6.923151e-05,-3.660938e-06,-0.00013398002,0.0
137050880,6.679292e-05,4.2921e-06,-0.00013555637,0.0
137070805,8.6012245e-05,2.2681318e-06,-0.00013985888,0.0
137090788,6.568352e-05,3.0773685e-06,-0.0001348736,0.0
137110657,6.4925196e-05,-5.615937e-07,-0.0001318371,0.0
137130649,7.90667e-05,9.708164e-07,-0.0001332563,0.0
137150641,7.677559e-05,-8.6713106e-07,-0.00013264142,0.0
137170649,6.618316e-05,6.4323517e-06,-0.00012934396,0.0
137190736,7.2799754e-05,5.9581744e-06,-0.00013071178,0.0
137210662,7.14278e-05,6.583323e-06,-0.00013123665,0.0
137230721,7.311251e-05,9.222825e-06,-0.00013236063,0.0
137250706,6.7227484e-05,3.281643e-06,-0.00013359135,0.0
137270783,7.483375e-05,5.4540274e-06,-0.00013641645,0.0
137290803,7.3356045e-05,1.5531671e-07,-0.00013370793,0.0
137310788,7.5934266e-05,-7.619432e-07,-0.00012994475,0.0
137330813,6.9712965e-05,2.543476e-06,-0.0001284796,0.0
137350713,7.454325e-05,-3.7013147e-06,-0.00012571037,0.0
137370766,8.872236e-05,-2.612033e-06,-0.00012778072,0.0
137390779,8.0253565e-05,-9.87486e-06,-0.00012347377,0.0
137410751,7.960524e-05,-3.492352e-06,-0.00012614076,0.0
137430719,7.941285e-05,-8.301635e-06,-0.00012734682,0.0
137450725,9.6111165e-05,-3.4655993e-06,-0.00012914577,0.0
137470826,8.534985e-05,2.0195332e-06,-0.00013003785,0.0
137490719,6.718e-05,-2.3320674e-06,-0.00013137574,0.0
137510805,8.905068e-05,-1.6035895e-06,-0.00013784063,0.0
137530829,7.8934514e-05,-5.336688e-06,-0.00013509793,0.0
137550780,7.030931e-05,-4.1698386e-06,-0.00013194598,0.0
137570731,6.717288e-05,-5.989847e-06,-0.00013151612,0.0
137590735,6.450948e-05,-4.747005e-06,-0.00013051076,0.0
137610841,5.355934e-05,3.870725e-06,-0.00013120084,0.0
137630806,3.3990156e-05,5.47959e-06,-0.00012653084,0.0
137650656,3.566916e-05,5.9579443e-06,-0.00012463202,0.0
137670922,4.2973927e-05,3.0378724e-06,-0.00012285192,0.0
137690646,3.765611e-05,2.7257365e-06,-0.00011966292,0.0
137710851,4.0950206e-05,3.9090637e-06,-0.00011904369,0.0
137730914,6.08145e-05,1.4247765e-06,-0.00012325867,0.0
137750869,7.613756e-05,2.4419312e-06,-0.00012564214,0.0
137770882,9.154027e-05,1.3272868e-06,-0.00012988935,0.0
137790728,9.024902e-05,-4.0740787e-08,-0.00013282402,0.0
137810735,0.00010313514,-2.1043238e-06,-0.00013937998,0.0
137830682,0.00010417444,-2.4590888e-06,-0.00014215299,0.0
137850789,8.563319e-05,2.2415406e-06,-0.00013966087,0.0
137870780,7.546952e-05,1.3269088e-06,-0.00014045012,0.0
137890787,5.513134e-05,3.722674e-06,-0.00013604824,0.0
137910800,5.522698e-05,-1.4482794e-06,-0.00013471188,0.0
137930917,5.5477216e-05,-1.9712995e-06,-0.00012797656,0.0
137950786,7.668496e-05,-5.6172125e-06,-0.00012764693,0.0
137970734,8.573885e-05,-1.6805327e-06,-0.00012560292,0.0
137990699,8.250386e-05,4.4401733e-07,-0.000128623,0.0
138010691,8.470226e-05,5.68179e-06,-0.00013135106,0.0
138030694,8.838879e-05,1.6367336e-06,-0.00013346398,0.0
138050691,7.686453e-05,-1.9922622e-07,-0.00013023289,0.0
138070696,6.292496e-05,-2.509095e-07,-0.00012772359,0.0
138090705,7.3837604e-05,-4.6256732e-06,-0.00013245933,0.0
138110766,7.341336e-05,-1.659444e-06,-0.00013437918,0.0
138130765,7.781845e-05,6.312685e-07,-0.0001369388,0.0
138150788,7.187413e-05,-9.493812e-07,-0.00013323477,0.0
138170732,7.273901e-05,2.7673655e-06,-0.00013117939,0.0
138190772,6.794307e-05,1.4145867e-06,-0.00012974565,0.0
138210797,6.295159e-05,-1.5554318e-06,-0.00012936724,0.0
138230802,7.09741e-05,-3.060478e-06,-0.00012935608,0.0
138250885,6.822547e-05,1.4296542e-06,-0.00012856325,0.0
138270834,6.885101e-05,-7.6913324e-07,-0.00013082383,0.0
138290834,5.9351732e-05,-5.358517e-06,-0.0001291486,0.0
138310831,6.4477084e-05,-1.9771981e-08,-0.00013086792,0.0
138330818,6.918519e-05,-4.421098e-06,-0.00013143096,0.0
138350796,7.15784e-05,-1.8995014e-06,-0.00013022478,0.0
138370829,6.726665e-05,3.8440685e-06,-0.00012857109,0.0
138390683,6.910132e-05,2.1416993e-06,-0.00012919251,0.0
138410820,7.023994e-05,-1.3061737e-06,-0.00013002718,0.0
138430659,6.445224e-05,9.097249e-08,-0.00012819192,0.0
138450772,7.158252e-05,-2.8759912e-06,-0.00013200936,0.0
138470771,7.998615e-05,-4.4088993e-06,-0.00013453908,0.0
138490779,8.372965e-05,-1.5148548e-07,-0.00013247176,0.0
138510896,6.882893e-05,6.928066e-07,-0.00012976474,0.0
138530803,7.170335e-05,-3.1102067e-07,-0.00013265737,0.0
138550952,7.430485e-05,7.78476e-07,-0.00013435246,0.0
138570805,8.11019e-05,1.4051576e-06,-0.00013325518,0.0
138590784,8.760996e-05,-3.244321e-06,-0.00013382363,0.0
138610776,8.6478016e-05,1.4879654e-06,-0.00013597716,0.0
138630798,7.275619e-05,1.6137219e-06,-0.00013210476,0.0
138650776,7.012673e-05,1.4632126e-06,-0.00012928787,0.0
138670781,7.2986484e-05,-1.64511e-06,-0.00012895359,0.0
138690816,8.10158e-05,-6.052382e-07,-0.00012888451,0.0
138710793,8.141423e-05,-3.2039014e-07,-0.00012925228,0.0
138730710,8.0930804e-05,-3.272111e-06,-0.00012933186,0.0
138750701,7.738114e-05,-2.9937698e-06,-0.00013122047,0.0
138770730,5.9727696e-05,5.2746154e-06,-0.00013001105,0.0
138790705,6.2151514e-05,2.9655323e-06,-0.0001312423,0.0
138810719,6.6769484e-05,-2.1342369e-06,-0.00013127021,0.0
138830770,7.853695e-05,2.6890382e-06,-0.00013036613,0.0
138850825,8.101708e-05,2.3547004e-06,-0.00012919742,0.0
138870796,7.29367e-05,-4.607374e-06,-0.0001316734,0.0
138890806,5.321226e-05,-2.4713513e-06,-0.00012902089,0.0
138910783,5.243512e-05,1.0464668e-06,-0.00012764956,0.0
138930810,6.527448e-05,2.7548995e-06,-0.00012986032,0.0
138950791,7.232933e-05,5.243701e-07,-0.00013174159,0.0
138970803,8.0287704e-05,2.2229906e-06,-0.00013399063,0.0
138990847,7.723655e-05,2.1806518e-07,-0.00013260222,0.0
139010783,8.036528e-05,-1.0203177e-06,-0.00013192276,0.0
139030785,6.142066e-05,-1.5356269e-06,-0.00013103055,0.0
139050871,5.467392e-05,8.7971085e-07,-0.00012892764,0.0
139070847,6.192131e-05,1.5349921e-06,-0.00013060233,0.0
139090785,8.0205384e-05,1.2738825e-06,-0.00013275199,0.0
139110844,9.121e-05,-3.6274905e-06,-0.00013215192,0.0
139130699,8.985795e-05,-2.038373e-06,-0.0001327445,0.0
139150847,8.643003e-05,1.9999209e-06,-0.0001336772,0.0
139170680,7.306873e-05,2.789049e-06,-0.00013008248,0.0
139190866,6.280517e-05,5.8637255e-07,-0.0001289762,0.0
139210765,6.396634e-05,1.5207551e-07,-0.00012903455,0.0
139230705,6.9737165e-05,-2.7837698e-06,-0.0001313817,0.0
139250704,7.322142e-05,-3.611536e-07,-0.0001317202,0.0
139270692,8.6819215e-05,-1.178268e-06,-0.00013184139,0.0
139290759,9.1374495e-05,-2.4527305e-06,-0.00013243318,0.0
139310662,8.533353e-05,-3.520346e-08,-0.00012995755,0.0
139330672,7.194274e-05,4.1198045e-06,-0.00012836239,0.0
139350653,6.17558e-05,5.0439535e-06,-0.00012811656,0.0
139370822,6.2980784e-05,-1.192275e-06,-0.00012768654,0.0
139390829,6.762018e-05,-5.3095637e-06,-0.00012810234,0.0
139410836,7.4964366e-05,-9.948154e-06,-0.00012953731,0.0
139430865,7.530841e-05,-3.056985e-07,-0.00013259497,0.0
139450795,7.881114e-05,9.57012e-07,-0.00013226017,0.0
139470775,7.3239375e-05,2.7544054e-06,-0.00013396524,0.0
139490720,6.7359586e-05,-3.047688e-08,-0.00013205216,0.0
139510716,6.264357e-05,3.4581408e-06,-0.00012962383,0.0
139530739,6.8466645e-05,-5.7449995e-07,-0.00012925071,0.0
139550765,6.0474653e-05,-2.0204923e-06,-0.00012733176,0.0
139570794,6.6704546e-05,-7.475073e-06,-0.00012851668,0.0
139590763,7.470869e-05,-4.024301e-06,-0.00013098893,0.0
139610783,7.164367e-05,1.345466e-06,-0.00012877908,0.0
139630772,6.887374e-05,4.129045e-06,-0.00012625237,0.0
139650809,6.6233566e-05,5.3947964e-08,-0.00012719647,0.0
139670796,6.5488675e-05,-1.0904434e-06,-0.00012727323,0.0
139690847,7.184589e-05,-2.8052732e-06,-0.00012943275,0.0
139710979,7.59651e-05,-1.2830203e-06,-0.00012896986,0.0
139730926,7.751717e-05,-4.043725e-06,-0.00013140727,0.0
139750937,7.2835064e-05,-3.933904e-06,-0.0001297019,0.0
139770930,7.18381e-05,-7.698965e-07,-0.00013246841,0.0
139790910,7.1543785e-05,2.966689e-06,-0.00013279072,0.0
139810926,6.590448e-05,3.4851462e-06,-0.00013197328,0.0
139830955,6.82442e-05,4.5671624e-07,-0.0001342174,0.0
139850922,7.322807e-05,-1.2367866e-06,-0.00013463074,0.0
139870829,8.032566e-05,-1.2165991e-06,-0.0001345311,0.0
139890893,9.297673e-05,-1.5381682e-06,-0.00013326146,0.0
139910734,8.242549e-05,-2.6194388e-07,-0.00012955174,0.0
139930891,7.672185e-05,2.4274418e-06,-0.00012907245,0.0
139950914,6.644068e-05,7.9296626e-07,-0.00012716894,0.0
139970913,6.565271e-05,1.433739e-06,-0.00012609898,0.0
139990860,6.705637e-05,9.0764064e-07,-0.00012928188,0.0
140010826,7.406996e-05,-1.3562142e-06,-0.00013162826,0.0
140030869,8.81115e-05,-2.0773548e-06,-0.00013292201,0.0
140050767,8.973397e-05,-1.6238122e-06,-0.00013429704,0.0
140070769,8.222084e-05,1.0658026e-06,-0.00013393744,0.0
140090790,6.915299e-05,2.030912e-06,-0.00013111268,0.0
140110792,5.458558e-05,2.1648605e-06,-0.0001309424,0.0
140130783,5.381055e-05,-8.747267e-07,-0.000131227,0.0
140150875,6.1661696e-05,-7.1504144e-07,-0.00012885465,0.0
140170727,7.973289e-05,-2.3396108e-06,-0.00013228542,0.0
140190829,8.4964115e-05,1.9608383e-06,-0.00013235288,0.0
140210822,8.350654e-05,6.361413e-06,-0.00013280516,0.0
140230828,7.6439625e-05,5.566704e-07,-0.00013316554,0.0
140250855,6.407063e-05,-7.775689e-06,-0.0001287371,0.0
140270797,5.3130858e-05,-4.22721e-06,-0.00012957337,0.0
140510910,9.1520385e-05,4.816143e-06,-0.00013249472,0.0
140530842,8.769977e-05,-8.411168e-07,-0.00012774448,0.0
140570869,6.433735e-05,-3.0206388e-06,-0.00012703931,0.0
140590901,6.3027845e-05,-2.249473e-06,-0.00013050354,0.0
140610850,7.0359245e-05,-2.5184843e-06,-0.00013156548,0.0
140630919,7.676744e-05,8.0283354e-07,-0.00013281377,0.0
140650788,7.519106e-05,3.98531e-06,-0.0001308786,0.0
140670958,7.9349404e-05,2.34788e-06,-0.00013076211,0.0
140690801,7.511724e-05,1.2481386e-06,-0.00013133984,0.0
140710850,6.3390784e-05,-9.438192e-07,-0.00013355596,0.0
140730811,6.103895e-05,9.325091e-08,-0.00013296351,0.0
140750856,6.9723734e-05,-8.208728e-07,-0.00013070024,0.0
140770825,6.399596e-05,6.643255e-07,-0.00012952543,0.0
140790816,6.716468e-05,7.978533e-07,-0.000130686,0.0
140810833,7.902952e-05,-1.258384e-06,-0.00013124249,0.0
140830840,7.83687e-05,2.8406014e-06,-0.00013150701,0.0
140850845,5.986902e-05,-1.2455783e-06,-0.00012664618,0.0
140870863,6.863757e-05,1.6581031e-06,-0.00012855238,0.0
140890892,7.915377e-05,-5.659877e-07,-0.0001300441,0.0
140910819,6.439862e-05,2.5501017e-06,-0.00012709113,0.0
140930898,7.162481e-05,-1.0768959e-07,-0.00013142182,0.0
140950976,8.2367136e-05,-1.8005142e-06,-0.00013429327,0.0
140970924,8.624579e-05,-1.969661e-06,-0.00013478177,0.0
140990880,7.2113755e-05,4.293797e-07,-0.00013314553,0.0
141010890,6.884318e-05,-5.0975814e-07,-0.0001310888,0.0
141030939,7.184317e-05,3.57148e-06,-0.00013332989,0.0
141050983,6.9407724e-05,3.4895097e-06,-0.00013113396,0.0
141071013,7.7294615e-05,2.6790638e-06,-0.0001314111,0.0
141091021,8.264364e-05,-9.972596e-07,-0.0001330115,0.0
141110872,8.306273e-05,-2.5296504e-06,-0.0001306678,0.0
141130889,8.6515305e-05,-5.8331707e-06,-0.00012816378,0.0
141150907,8.0453865e-05,-2.6145324e-06,-0.00012699948,0.0
141170866,7.069558e-05,2.7651506e-06,-0.00012471223,0.0
141190938,6.589654e-05,6.5345166e-06,-0.00012820795,0.0
141210797,6.4054555e-05,3.8757958e-06,-0.00013003248,0.0
141230909,6.6301494e-05,2.0674718e-06,-0.00013189374,0.0
141250952,7.46817e-05,-1.2304703e-06,-0.0001355474,0.0
141270963,8.0974336e-05,-3.0802044e-06,-0.00013658594,0.0
141290985,8.72601e-05,-1.8010898e-07,-0.00013300385,0.0
141310751,7.9375306e-05,2.7282854e-07,-0.00012976358,0.0
141331085,7.239036e-05,1.929733e-06,-0.0001303182,0.0
141350696,6.137197e-05,-9.663223e-07,-0.00012813209,0.0
141370700,5.0162642e-05,4.4680296e-06,-0.00012889993,0.0
141390778,5.284817e-05,6.536904e-07,-0.00013082263,0.0
141410662,5.491072e-05,2.9737228e-06,-0.00012920988,0.0
141430702,7.842264e-05,-2.606003e-06,-0.00012801413,0.0
141450682,8.297878e-05,1.0990583e-06,-0.000130141,0.0
141470852,8.386077e-05,7.018746e-07,-0.000132092,0.0
141490845,7.4375144e-05,1.248885e-06,-0.0001317747,0.0
141510885,7.329249e-05,-1.916927e-06,-0.00013112718,0.0
141530772,5.750322e-05,-4.724269e-06,-0.00012812833,0.0
141550718,4.463938e-05,5.633528e-07,-0.0001269638,0.0
141570788,5.8081445e-05,4.115781e-07,-0.00013085656,0.0
141590765,7.02023e-05,3.087187e-06,-0.00013093934,0.0
141610781,8.48481e-05,3.6282805e-07,-0.00013292852,0.0
141630796,9.4770454e-05,1.829283e-06,-0.00013141366,0.0
141650769,9.4843665e-05,-1.323237e-06,-0.00013083172,0.0
141670764,8.6441505e-05,-1.7587212e-07,-0.00013160324,0.0
141690788,7.166521e-05,-3.998984e-06,-0.00013031838,0.0
141710818,5.799376e-05,-7.415918e-07,-0.00012950679,0.0
141730781,5.813682e-05,-4.3779214e-06,-0.00012759537,0.0
141750797,6.1340805e-05,3.4098496e-06,-0.00012940532,0.0
141770924,7.164512e-05,2.7211388e-06,-0.00013014846,0.0
141790809,8.913451e-05,4.081116e-06,-0.00013181873,0.0
141810850,9.813297e-05,-2.0022287e-06,-0.00013620267,0.0
141830776,9.338883e-05,-3.4164866e-06,-0.00013357251,0.0
141850863,8.2524326e-05,-2.2209592e-06,-0.0001316818,0.0
141870843,6.6094064e-05,3.1586876e-07,-0.00012771944,0.0
141890856,5.196503e-05,-9.427531e-07,-0.00012604111,0.0
141910891,5.3131524e-05,-8.7723055e-07,-0.00012733725,0.0
141931037,5.729273e-05,1.3689855e-06,-0.00012867733,0.0
141950870,6.970083e-05,2.3791188e-06,-0.00013352619,0.0
141970916,7.407699e-05,2.6634846e-06,-0.00013294583,0.0
141990937,8.803045e-05,-2.8591141e-06,-0.00013626486,0.0
142010884,9.041765e-05,-3.480193e-06,-0.00013543468,0.0
142030883,7.48875e-05,5.700309e-07,-0.00013186634,0.0
142050707,5.802096e-05,5.6698786e-06,-0.00012864394,0.0
142070937,4.8011192e-05,5.3143134e-07,-0.00012616458,0.0
142090697,5.6577726e-05,-4.9954265e-06,-0.0001267222,0.0
142110661,6.1992956e-05,-3.3391086e-06,-0.00012669788,0.0
142130727,6.3502404e-05,-1.3514626e-06,-0.00012740384,0.0
142150714,7.828102e-05,7.407952e-07,-0.00013157107,0.0
142170688,9.42863e-05,1.2720064e-06,-0.00013201662,0.0
142190705,9.511883e-05,-4.1106982e-06,-0.00013369402,0.0
142210763,8.060137e-05,3.5794685e-06,-0.00013303859,0.0
142230703,7.1833514e-05,5.4809498e-06,-0.00013454666,0.0
142250661,6.2391526e-05,2.627665e-06,-0.00013155273,0.0
142270669,6.2310275e-05,-4.118432e-06,-0.00013021466,0.0
142290662,7.4420495e-05,-1.4530752e-06,-0.00013122908,0.0
142310753,7.807578e-05,-4.485282e-06,-0.00013211314,0.0
142330764,7.689589e-05,6.9296783e-07,-0.00013224053,0.0
142350780,8.6854554e-05,8.7905886e-07,-0.00013290507,0.0
142370736,8.617094e-05,1.1514162e-06,-0.00013073467,0.0
142390725,8.2658524e-05,6.5353925e-07,-0.0001295701,0.0
142410733,7.203651e-05,-9.782497e-07,-0.00012951563,0.0
142430717,6.4077256e-05,9.180377e-08,-0.00012949256,0.0
142450723,6.6212284e-05,2.8593902e-06,-0.00013054375,0.0
142470829,7.343597e-05,3.6374863e-06,-0.00013342896,0.0
142490765,8.031749e-05,-3.3360036e-06,-0.00013316904,0.0
142510786,8.4897e-05,-6.1087603e-06,-0.00013437132,0.0
142530735,8.9056695e-05,-5.1680922e-06,-0.00013437499,0.0
142550810,7.2587005e-05,1.1678843e-06,-0.0001300628,0.0
142570832,6.9735885e-05,5.676278e-06,-0.00013151125,0.0
142590838,7.90092e-05,4.9778805e-06,-0.00013200131,0.0
142610925,7.479279e-05,3.0934362e-07,-0.00012932306,0.0
142630875,6.7557165e-05,9.783907e-07,-0.00012894801,0.0
142650792,7.496279e-05,-2.2267723e-06,-0.00013146157,0.0
143690750,7.220555e-05,-5.241716e-06,-0.00013827621,0.0
144830809,7.732545e-05,-1.229739e-06,-0.0001333524,0.0
144870848,7.854442e-05,-2.543524e-07,-0.00013255689,0.0
144890794,7.5617565e-05,6.4463046e-07,-0.00012955235,0.0
144910713,7.329968e-05,2.5294723e-06,-0.00012904509,0.0
144930795,7.6722725e-05,-6.9910266e-07,-0.0001291296,0.0
144950691,7.454664e-05,-4.1442413e-06,-0.0001274795,0.0
144970711,7.236263e-05,-1.637292e-06,-0.0001285289,0.0
144990777,7.139583e-05,-1.1673376e-06,-0.00012948796,0.0
145010792,6.9951784e-05,-2.7810856e-07,-0.0001295033,0.0
145030767,7.1923765e-05,5.6301707e-07,-0.00013165535,0.0
145050770,6.7875124e-05,-8.7475803e-07,-0.00013147971,0.0
145070801,6.5877975e-05,-2.2594719e-08,-0.00012976272,0.0
145090734,6.592774e-05,-9.1243663e-07,-0.00012992017,0.0
145110722,6.686414e-05,-6.550904e-07,-0.00012811371,0.0
145130762,6.6826884e-05,-8.327227e-07,-0.00012876095,0.0
145150789,6.617392e-05,-5.029671e-07,-0.00012854993,0.0
145170751,6.4875385e-05,-3.0064555e-06,-0.00012961117,0.0
145190753,6.732696e-05,-1.6762459e-06,-0.00012832873,0.0
145210751,6.771075e-05,-6.5226607e-07,-0.00012736201,0.0
145230821,6.903875e-05,4.0634443e-08,-0.00012870943,0.0
145250825,6.831689e-05,1.52695e-07,-0.00012912923,0.0
145270826,6.8686335e-05,-6.8062036e-07,-0.00012798443,0.0
145290867,6.991724e-05,-5.4670853e-08,-0.00012771356,0.0
145310795,7.111424e-05,-6.243466e-07,-0.00012730523,0.0
145330837,7.516807e-05,-1.0233276e-06,-0.0001314032,0.0
145350832,7.441875e-05,-2.6748017e-07,-0.0001320058,0.0
145370843,7.671209e-05,-2.4626013e-08,-0.00013206917,0.0
145390795,7.443342e-05,-1.78137e-06,-0.00012762765,0.0
145410780,7.82813e-05,1.7996238e-06,-0.00013163504,0.0
145430771,7.803336e-05,-4.4491503e-07,-0.00013145611,0.0
145450804,7.819263e-05,8.35254e-07,-0.00013088835,0.0
145470739,7.850822e-05,8.220201e-07,-0.00013202432,0.0
145490785,7.8975456e-05,-8.4545184e-07,-0.00013098068,0.0
145510786,7.741193e-05,-8.196181e-08,-0.00013023966,0.0
145530824,7.648473e-05,-2.5117822e-07,-0.00013152782,0.0
145550799,7.7462806e-05,-1.2712319e-07,-0.00013078387,0.0
145570714,7.6037184e-05,-7.4001986e-07,-0.00013266617,0.0
145590973,7.535053e-05,3.3521576e-07,-0.00013232614,0.0
145610662,7.3453484e-05,-3.0823654e-07,-0.000130771,0.0
145630736,7.255882e-05,4.0136365e-07,-0.00013171571,0.0
145650796,7.225123e-05,1.995631e-07,-0.00013068704,0.0
145670920,6.920308e-05,-2.0899975e-07,-0.00013041131,0.0
145690778,6.7819456e-05,-1.1449159e-06,-0.0001300475,0.0
145710849,6.9028974e-05,-4.049322e-07,-0.00012959517,0.0
145730726,6.688816e-05,-6.5055696e-07,-0.00012930874,0.0
145750666,6.6059496e-05,-2.5062116e-08,-0.00012998328,0.0
145770719,6.6328685e-05,-1.4714868e-06,-0.00013079663,0.0
145790701,6.5701e-05,7.2696383e-07,-0.00012944979,0.0
145810706,6.5895925e-05,4.9847034e-07,-0.0001297013,0.0
145830716,6.692909e-05,4.284809e-07,-0.00012992018,0.0
145850796,6.7679735e-05,2.0176249e-07,-0.00013080565,0.0
145870716,6.9016685e-05,-5.366179e-07,-0.0001295334,0.0
145890777,6.934962e-05,1.163074e-06,-0.0001299668,0.0
145910716,6.8738846e-05,-3.019855e-07,-0.0001301209,0.0
145930686,7.229289e-05,1.5920094e-06,-0.00012992644,0.0
145950707,7.228363e-05,-6.440814e-07,-0.0001303349,0.0
145970730,7.381337e-05,6.4741573e-07,-0.00012928197,0.0
145990773,7.5041135e-05,3.9623583e-07,-0.00013189395,0.0
146010713,7.559e-05,2.0984093e-07,-0.00013169297,0.0
146030869,7.781726e-05,2.7358791e-07,-0.0001307738,0.0
146050731,7.95323e-05,1.7634697e-07,-0.00013289641,0.0
146070814,7.7250086e-05,1.1730864e-06,-0.00013038165,0.0
146090808,7.845727e-05,1.1383226e-07,-0.00013245274,0.0
146110912,7.873885e-05,-1.178773e-06,-0.00012929329,0.0
146130916,7.805171e-05,1.2445716e-06,-0.00013002007,0.0
146150921,7.8904755e-05,-3.2531145e-07,-0.00013006914,0.0
146170920,7.818971e-05,4.056353e-07,-0.00013222294,0.0
146190965,7.823204e-05,6.531607e-07,-0.0001308855,0.0
146210912,7.789836e-05,5.768661e-07,-0.00013101877,0.0
146230940,7.5545955e-05,-9.621408e-07,-0.00012981622,0.0
146250937,7.3421994e-05,2.3022395e-07,-0.00013182708,0.0
146270968,7.478807e-05,4.2200728e-07,-0.00013165474,0.0
146290983,7.3952884e-05,-4.7551003e-07,-0.00013160397,0.0
146310969,7.327925e-05,-2.8691656e-07,-0.00013165388,0.0
146331037,7.2303985e-05,-4.0637244e-07,-0.00012873788,0.0
146350898,7.049952e-05,1.327561e-07,-0.0001288125,0.0
146370882,6.7624096e-05,-8.1025576e-07,-0.00012915497,0.0
146390791,6.909679e-05,1.0782801e-06,-0.00013019917,0.0
146410977,6.948975e-05,1.8273843e-07,-0.0001292493,0.0
146431014,6.691648e-05,-1.1177523e-06,-0.00012955004,0.0
146450802,6.838265e-05,6.2101327e-07,-0.00013089835,0.0
146470975,6.823921e-05,1.6198685e-06,-0.00012932468,0.0
146490838,6.6654764e-05,-1.8576013e-07,-0.0001293179,0.0
146510856,6.9771755e-05,2.8209132e-07,-0.00013111834,0.0
146530857,6.801736e-05,-7.325777e-07,-0.00012963524,0.0
146550894,7.0287744e-05,-3.7943127e-07,-0.00012954984,0.0
146570869,7.21162e-05,-2.7799223e-07,-0.00012969808,0.0
146590839,7.109728e-05,-1.3710354e-06,-0.00013068647,0.0
146610902,7.341227e-05,-5.799925e-07,-0.00013084638,0.0
146630870,7.4055235e-05,-2.406698e-07,-0.00013156315,0.0
146650893,7.426117e-05,8.292979e-07,-0.0001310816,0.0
146670890,7.301276e-05,-1.2125648e-06,-0.0001329074,0.0
146690922,7.652056e-05,8.7098636e-07,-0.00013120101,0.0
146710853,7.6106626e-05,-8.7627495e-07,-0.0001314785,0.0
146730845,7.563427e-05,9.2001113e-07,-0.0001306355,0.0
146750896,7.634442e-05,7.954772e-07,-0.00013076405,0.0
146770853,7.633538e-05,4.7606338e-07,-0.00013211126,0.0
146790865,7.683504e-05,1.5844502e-07,-0.0001316409,0.0
146810949,7.8326324e-05,1.957923e-06,-0.00013191515,0.0
146831003,7.701129e-05,2.9311286e-07,-0.0001326287,0.0
146851013,7.54504e-05,-7.18259e-07,-0.00013445225,0.0
146870959,7.6871824e-05,5.413294e-07,-0.00013056681,0.0
146891015,7.590194e-05,7.046025e-07,-0.00013092886,0.0
146910905,7.637117e-05,4.6894857e-07,-0.00013193034,0.0
146930935,7.5386335e-05,3.838181e-07,-0.00013101523,0.0
146950960,7.328038e-05,5.2667855e-07,-0.00013124004,0.0
146970996,7.529376e-05,-4.2254268e-07,-0.00013081534,0.0
146990976,7.372145e-05,-3.1304285e-08,-0.0001296437,0.0
147010958,7.326394e-05,1.1735268e-06,-0.00013109956,0.0
147031026,7.060711e-05,-8.177902e-07,-0.00012988895,0.0
147050881,6.98796e-05,-1.7767415e-07,-0.00013086494,0.0
147070872,7.150637e-05,-1.6250739e-06,-0.00013176825,0.0
147090892,7.060793e-05,-2.3770404e-07,-0.00013116868,0.0
147110828,6.936865e-05,4.7561488e-07,-0.00012946059,0.0
147130843,7.036671e-05,3.8232767e-07,-0.00013150538,0.0
147150963,7.0783535e-05,-5.2398275e-07,-0.00012997583,0.0
147170875,6.959137e-05,-1.7424172e-06,-0.00013039359,0.0
147190771,6.914537e-05,2.8537346e-07,-0.00013002059,0.0
147210776,6.927625e-05,7.920297e-08,-0.00013049188,0.0
147230866,7.0276255e-05,1.1205966e-07,-0.00013081581,0.0
147250828,7.035507e-05,-4.111482e-07,-0.00013068445,0.0
147270796,7.230182e-05,1.1154483e-06,-0.00013372439,0.0
147290787,7.05031e-05,-1.1048422e-06,-0.0001297482,0.0
147310805,7.189217e-05,3.746989e-07,-0.0001292668,0.0
147330920,7.153267e-05,-1.2606413e-06,-0.00012998086,0.0
147350866,7.29493e-05,-2.2750876e-07,-0.00013306749,0.0
147370902,7.388118e-05,-2.77252e-07,-0.00013075149,0.0
147390918,7.193715e-05,-6.765585e-07,-0.00013121833,0.0
147410869,7.53721e-05,1.0026679e-07,-0.00013091146,0.0
147430865,7.5397584e-05,6.976582e-07,-0.00013208609,0.0
147450865,7.538423e-05,9.984586e-07,-0.00013087982,0.0
147470873,7.291373e-05,-5.008735e-08,-0.00012993769,0.0
147490911,7.658028e-05,7.543285e-07,-0.0001315082,0.0
147510875,7.4792646e-05,1.5236729e-07,-0.00013137772,0.0
147530876,7.453688e-05,1.2964788e-06,-0.00013209495,0.0
147550991,7.571943e-05,9.869553e-07,-0.00012965298,0.0
147571000,7.4834556e-05,1.0567481e-06,-0.00013049695,0.0
147591041,7.3483796e-05,-1.503415e-06,-0.00013058686,0.0
147611003,7.299623e-05,-5.3332e-07,-0.00012991953,0.0
147631150,7.342659e-05,2.64449e-06,-0.00013023948,0.0
147650880,7.164409e-05,-1.6490875e-06,-0.00012980873,0.0
147671039,7.1462535e-05,6.209235e-07,-0.0001309929,0.0
147690933,7.1831644e-05,-3.505752e-07,-0.00013289464,0.0
147710969,7.030224e-05,9.014666e-07,-0.00013002257,0.0
147730984,7.007381e-05,-5.1103865e-07,-0.00013007747,0.0
147750981,7.0657836e-05,4.6368163e-07,-0.00012905317,0.0
147770992,7.095413e-05,1.2538388e-06,-0.00012990703,0.0
147790787,7.00344e-05,-8.317722e-07,-0.0001310386,0.0
147811011,7.037928e-05,-5.5979376e-07,-0.0001311074,0.0
147830776,7.2354e-05,-7.890409e-07,-0.00013064675,0.0
147850769,7.1198265e-05,2.1963261e-08,-0.0001308715,0.0
147870773,7.267087e-05,1.7563049e-06,-0.0001317919,0.0
147890772,7.34992e-05,1.0876428e-06,-0.00013189855,0.0
147910755,7.3954616e-05,-4.6483964e-07,-0.00013145739,0.0
147930789,7.258846e-05,1.0954969e-06,-0.00013042265,0.0
147950758,7.507254e-05,-9.66254e-08,-0.00013183375,0.0
147970822,7.496314e-05,-1.2732829e-06,-0.00013116194,0.0
147990849,7.5009906e-05,7.374718e-07,-0.00012988629,0.0
148010802,7.573369e-05,2.1156645e-06,-0.00013138377,0.0
148030756,7.6054865e-05,-2.5942654e-08,-0.00012995703,0.0
148050756,7.622208e-05,-1.4593163e-06,-0.00013155065,0.0
148070814,7.330186e-05,1.0944683e-06,-0.00013132668,0.0
148090779,7.544303e-05,1.4927534e-06,-0.00012981879,0.0
148110776,7.626393e-05,-7.378312e-07,-0.00013149995,0.0
148130785,7.489147e-05,7.555793e-07,-0.00013236802,0.0
148150774,7.358149e-05,-2.8693648e-07,-0.00013147444,0.0
148170878,7.2116905e-05,-1.2900048e-06,-0.00012900723,0.0
148190903,7.302086e-05,1.0006228e-08,-0.00012962775,0.0
148210925,7.288598e-05,-1.6281668e-07,-0.00013116478,0.0
148230950,7.0804635e-05,-1.0203614e-06,-0.00013144128,0.0
148250829,7.086319e-05,1.2711271e-06,-0.00013044283,0.0
148270825,6.94117e-05,4.709152e-07,-0.0001292607,0.0
148290836,6.933853e-05,-8.7437405e-07,-0.00013043273,0.0
148310811,6.863395e-05,6.457217e-07,-0.00012997018,0.0
148330816,6.762715e-05,-1.6460062e-07,-0.00013058359,0.0
148350869,6.784569e-05,-6.3690726e-07,-0.0001309226,0.0
148370941,6.736789e-05,-5.2140894e-07,-0.00013067674,0.0
148390811,6.870292e-05,-2.440248e-07,-0.00012960473,0.0
148410890,6.807546e-05,8.795773e-07,-0.00013055876,0.0
148430823,6.648541e-05,-1.0339285e-07,-0.00012877163,0.0
148450882,6.724529e-05,5.494132e-07,-0.00012915379,0.0
148470875,6.973874e-05,1.1612467e-06,-0.00012981372,0.0
148490895,6.785019e-05,-2.3599453e-07,-0.00012968596,0.0
148510985,7.0011476e-05,3.8384042e-07,-0.00013026515,0.0
148530693,7.0596456e-05,-3.0210788e-06,-0.00013043196,0.0
148550649,6.909709e-05,-6.62717e-07,-0.00012962146,0.0
148570672,7.019835e-05,4.347008e-08,-0.00013149349,0.0
148590663,7.086369e-05,-1.9121527e-09,-0.0001300735,0.0
148610735,7.076674e-05,5.3423304e-07,-0.00013117926,0.0
148630806,7.1825016e-05,-8.53631e-07,-0.00013096344,0.0
148650752,7.345336e-05,-6.641253e-08,-0.00013066443,0.0
148670901,7.173459e-05,1.3660748e-06,-0.0001320424,0.0
148690761,7.45916e-05,7.493133e-07,-0.0001327,0.0
148710723,7.359261e-05,-1.4822967e-06,-0.00012975949,0.0
148730705,7.357542e-05,-7.280536e-07,-0.00013021671,0.0
148750707,7.386236e-05,5.4572047e-07,-0.00013014865,0.0
148770870,7.606111e-05,4.390876e-07,-0.00013186662,0.0
148790767,7.247424e-05,-6.2534235e-07,-0.00013192471,0.0
148810931,7.22779e-05,1.350091e-07,-0.00013007676,0.0
148830790,7.3456256e-05,1.2892156e-06,-0.00013186553,0.0
148850937,7.3220246e-05,-1.4400466e-07,-0.00013089641,0.0
148870718,7.085292e-05,-9.647537e-07,-0.00012966522,0.0
148890734,7.1758426e-05,-6.00123e-07,-0.0001311102,0.0
148910735,6.92002e-05,1.5330421e-06,-0.0001317504,0.0
148930778,7.0991824e-05,2.0623997e-06,-0.00012869747,0.0
148950782,7.2000315e-05,-5.330297e-07,-0.00013140759,0.0
148970713,6.973088e-05,-3.7552618e-07,-0.00012885618,0.0
148990724,7.099573e-05,-6.8033853e-07,-0.00013189802,0.0
149010836,6.992337e-05,-1.0311475e-06,-0.00013180322,0.0
149030876,6.983404e-05,3.1414046e-07,-0.00013112463,0.0
149050866,7.104922e-05,-1.7793951e-06,-0.00013002644,0.0
149070897,7.368696e-05,5.397737e-07,-0.00013079587,0.0
149090823,7.3057614e-05,-2.1859849e-07,-0.00013048369,0.0
149110902,7.376359e-05,1.5604984e-07,-0.00012999075,0.0
149130707,7.402458e-05,5.5458787e-07,-0.0001313731,0.0
149150831,7.439182e-05,-1.4463125e-06,-0.00013166416,0.0
149170691,7.895283e-05,1.2180734e-06,-0.00013126647,0.0
149190732,7.86449e-05,9.504864e-08,-0.00013281502,0.0
149210695,7.873759e-05,-6.138859e-07,-0.00013201968,0.0
149230700,8.039913e-05,-1.7494622e-06,-0.0001324194,0.0
149250717,8.057164e-05,-1.2291538e-07,-0.00013177696,0.0
149270798,8.091458e-05,-4.5349543e-07,-0.00013060971,0.0
149290788,8.14989e-05,-8.073766e-07,-0.00013118504,0.0
149310692,8.005375e-05,-8.829249e-07,-0.00013320034,0.0
149330719,8.200679e-05,9.152513e-07,-0.00013229168,0.0
149350701,8.079892e-05,2.4544659e-07,-0.00013268628,0.0
149370719,7.963695e-05,2.3335224e-08,-0.0001334338,0.0
149390722,7.8313424e-05,5.349483e-08,-0.00013133207,0.0
149410675,7.672905e-05,-9.091153e-07,-0.00012945588,0.0
149430661,7.4171534e-05,1.3548281e-07,-0.00013194921,0.0
149450661,7.321207e-05,1.0022117e-06,-0.0001276187,0.0
149470736,7.529423e-05,3.3109458e-07,-0.00013056176,0.0
149490774,7.3267496e-05,1.8194741e-07,-0.00013040502,0.0
149510769,7.1658455e-05,1.295483e-07,-0.00013107939,0.0
149530775,7.0387636e-05,9.409056e-07,-0.00012915314,0.0
149550719,6.933965e-05,3.5912953e-07,-0.0001297999,0.0
149570721,6.69089e-05,-4.9022645e-08,-0.00012847125,0.0
149590729,6.7486384e-05,-3.7467336e-07,-0.00012862173,0.0
149610761,6.780835e-05,1.7626024e-07,-0.0001316472,0.0
149630778,6.746378e-05,-5.358913e-07,-0.00013070868,0.0
149650816,6.918339e-05,3.800176e-07,-0.0001312888,0.0
149670940,6.677896e-05,-1.0996362e-06,-0.00013044736,0.0
149690952,6.9405614e-05,1.0383654e-06,-0.00012900718,0.0
149710923,6.969822e-05,-3.6518153e-09,-0.00013100101,0.0
149730781,6.968506e-05,2.570317e-07,-0.00012956986,0.0
149750734,6.979956e-05,-3.8933268e-07,-0.0001311586,0.0
149770768,7.25867e-05,3.103482e-07,-0.00013115427,0.0
149790811,7.262255e-05,-8.910304e-07,-0.00013086204,0.0
149810669,7.429232e-05,6.630125e-07,-0.00012942252,0.0
149830694,7.523367e-05,8.7263817e-07,-0.00013052562,0.0
149850823,7.789537e-05,3.3172398e-07,-0.00013116456,0.0
149870657,7.800894e-05,-5.2531175e-07,-0.00013244529,0.0
149890851,7.700268e-05,7.475702e-07,-0.00013239552,0.0
149910768,7.7623736e-05,2.1095668e-06,-0.00013303895,0.0
149930802,7.621582e-05,2.118553e-06,-0.00013696123,0.0
149950669,8.257821e-05,1.2568448e-07,-0.00014382652,0.0
149970912,8.0934e-05,-1.224644e-07,-0.00015011265,0.0
149990765,7.4075535e-05,-4.141544e-06,-0.00014774883,0.0
150010645,8.0099e-05,-3.826616e-06,-0.00014044422,0.0
150030710,7.1643946e-05,-1.8798494e-06,-0.00012914819,0.0
150050692,7.3212395e-05,-3.888274e-06,-0.000117831354,0.0
150070699,7.402347e-05,1.445615e-06,-0.000115696064,0.0
150090723,6.459214e-05,5.2838545e-06,-0.0001123285,0.0
150110739,6.91059e-05,-2.271001e-06,-0.0001163496,0.0
150130762,6.778639e-05,-5.5690775e-06,-0.00011932333,0.0
150150693,6.706635e-05,-5.274254e-06,-0.00012413212,0.0
150170691,6.5497974e-05,-4.5495767e-06,-0.0001242443,0.0
150190688,6.075151e-05,1.4369865e-06,-0.00012601998,0.0
150210832,6.416771e-05,-2.3327057e-07,-0.0001347878,0.0
150230771,5.7610603e-05,2.3589375e-06,-0.0001320035,0.0
150250782,5.1661355e-05,7.3655174e-06,-0.00013562314,0.0
150270862,6.1009894e-05,-1.2990737e-06,-0.00014003621,0.0
150290840,6.450389e-05,-1.3351972e-06,-0.00013839961,0.0
150310848,5.543231e-05,5.64986e-06,-0.00013768012,0.0
150330889,6.393605e-05,-3.130495e-06,-0.00013557967,0.0
150350838,6.481242e-05,-5.1696066e-08,-0.00012992692,0.0
150370844,7.100896e-05,-1.7631739e-06,-0.00012431972,0.0
150390789,7.464359e-05,-2.3503633e-06,-0.000124177,0.0
150410833,6.7775916e-05,4.07743e-06,-0.00012288083,0.0
150430751,7.741884e-05,-1.7843748e-06,-0.00012361964,0.0
150450829,7.981514e-05,-8.1742854e-07,-0.00012724494,0.0
150470737,8.2693434e-05,-1.2042572e-06,-0.00013240955,0.0
150490836,8.482309e-05,-2.041445e-06,-0.0001367949,0.0
150510846,8.159975e-05,1.8846437e-06,-0.00013884899,0.0
150530862,8.685529e-05,2.9369824e-06,-0.00013839189,0.0
150550862,8.708914e-05,5.684758e-06,-0.00013707594,0.0
150570879,8.6707936e-05,1.4441683e-06,-0.00013498221,0.0
150590839,8.602151e-05,-6.238094e-07,-0.00013371669,0.0
150610692,7.862871e-05,-2.5778238e-06,-0.00012812273,0.0
150630777,8.1196245e-05,-1.0389076e-06,-0.00012909323,0.0
150650685,8.0742175e-05,8.683543e-07,-0.0001267634,0.0
150670752,7.649044e-05,1.8588024e-06,-0.00012687357,0.0
150690648,7.361022e-05,-4.2505146e-08,-0.00013135486,0.0
150710785,7.041325e-05,9.685224e-07,-0.0001314389,0.0
150730712,7.2964445e-05,-7.7598816e-07,-0.00013309055,0.0
150750751,7.158942e-05,-1.0675503e-06,-0.00013378398,0.0
150770706,6.826856e-05,-1.104485e-06,-0.00013336974,0.0
150790721,6.674288e-05,-2.5943893e-07,-0.00013252914,0.0
150810728,6.390288e-05,-7.1273274e-07,-0.00012989077,0.0
150830700,6.797445e-05,3.0390765e-08,-0.00012819124,0.0
150850700,6.5277236e-05,-2.7291003e-07,-0.0001263422,0.0
150870694,6.550553e-05,4.4025282e-07,-0.00012634821,0.0
150890698,6.4032814e-05,-1.8232677e-06,-0.00012572423,0.0
150910711,6.327588e-05,6.162193e-07,-0.00012922734,0.0
150930707,6.580808e-05,-9.384439e-07,-0.00012959454,0.0
150950725,6.666683e-05,4.50844e-07,-0.00013047407,0.0
150970738,6.56827e-05,2.4454087e-06,-0.00013359627,0.0
150990766,6.849938e-05,2.0247433e-06,-0.00013344854,0.0
151010723,6.771958e-05,1.7652491e-06,-0.00013207078,0.0
151030722,7.021847e-05,-1.5904119e-06,-0.00012948888,0.0
151050703,7.2811876e-05,-8.4709245e-07,-0.0001295809,0.0
151070708,7.18416e-05,-5.792064e-07,-0.00013011284,0.0
151090729,7.1867056e-05,-2.783535e-07,-0.00012834484,0.0
151110871,7.187462e-05,1.0371422e-06,-0.00012860124,0.0
151130871,7.600645e-05,7.910095e-07,-0.00013027962,0.0
151150915,7.7751676e-05,-1.8054811e-07,-0.00013119486,0.0
151170900,7.595483e-05,1.15645946e-07,-0.0001341482,0.0
151190896,7.588317e-05,2.7234552e-07,-0.00013248167,0.0
151210800,7.895016e-05,-5.409103e-07,-0.00013368447,0.0
151230909,7.907385e-05,6.9655346e-07,-0.00013237879,0.0
151250880,7.935658e-05,3.5106663e-07,-0.00013340765,0.0
151270884,7.854288e-05,2.6820937e-08,-0.0001308636,0.0
151290836,7.78529e-05,-1.9310119e-07,-0.00013070769,0.0
151310687,8.057101e-05,5.6386546e-07,-0.00013051182,0.0
151330706,7.752346e-05,1.0377519e-06,-0.00012923202,0.0
151350700,7.6583085e-05,5.9603764e-07,-0.00013055236,0.0
151370712,7.575374e-05,-2.090339e-07,-0.00013090827,0.0
151390703,7.743571e-05,-1.4613322e-06,-0.00013232518,0.0
151410776,7.643028e-05,2.1117448e-06,-0.00013265405,0.0
151430681,7.315127e-05,2.7850156e-06,-0.00013155222,0.0
151450725,6.9549664e-05,1.2961445e-06,-0.00013238125,0.0
151470685,7.068767e-05,-8.834704e-07,-0.00013147404,0.0
151490689,6.966982e-05,-1.1158475e-06,-0.00013083384,0.0
151510658,6.7334695e-05,2.3127195e-07,-0.00012773318,0.0
151530688,6.722868e-05,1.3964408e-06,-0.00012834792,0.0
151550776,6.444714e-05,-8.149786e-07,-0.00012878688,0.0
151570768,6.655663e-05,1.0147386e-07,-0.00012806167,0.0
151590798,6.725691e-05,5.2472484e-07,-0.00012831028,0.0
151610740,6.674164e-05,7.943799e-07,-0.00013116412,0.0
151630773,6.689989e-05,-2.8594192e-07,-0.00013268877,0.0
151650751,6.618313e-05,-1.4124857e-06,-0.0001321067,0.0
151670793,7.008991e-05,-1.2904172e-06,-0.00012968428,0.0
151690782,7.106588e-05,1.4431973e-08,-0.00013100686,0.0
151710774,7.0697475e-05,3.119588e-07,-0.00013074964,0.0
151730862,7.0783826e-05,5.2301914e-07,-0.00012833644,0.0
151750793,7.146922e-05,8.261571e-09,-0.00012764252,0.0
151770818,7.5123e-05,-6.4107223e-07,-0.00013052812,0.0
151790833,7.377072e-05,1.3735803e-06,-0.00013153929,0.0
151810851,7.700846e-05,2.0396456e-07,-0.00013323902,0.0
151830860,7.472224e-05,-4.134416e-07,-0.00012754257,0.0
151850827,7.831717e-05,-3.1232787e-07,-0.00013073963,0.0
151870883,7.700341e-05,7.7811e-07,-0.00013047871,0.0
151890959,7.925339e-05,-1.1064005e-07,-0.00013227742,0.0
151910914,7.756804e-05,1.6900018e-06,-0.00013059299,0.0
151930797,7.574059e-05,-7.3549126e-07,-0.00013017531,0.0
151950648,7.5695854e-05,8.22016e-07,-0.0001314195,0.0
151970877,7.625942e-05,1.7162271e-06,-0.0001303327,0.0
151990794,7.5568845e-05,-1.740243e-06,-0.00013035395,0.0
152010881,7.5523116e-05,-1.6031435e-06,-0.0001322762,0.0
152030908,7.396432e-05,3.8737272e-07,-0.00013225913,0.0
152050795,7.3073104e-05,5.207514e-07,-0.00013105864,0.0
152070789,7.2053626e-05,-6.8730145e-07,-0.00013220936,0.0
152090700,7.01686e-05,-8.3158733e-07,-0.00013116557,0.0
152110705,7.0250535e-05,-7.848052e-07,-0.00013141346,0.0
152130706,6.991483e-05,-4.866947e-07,-0.00013002416,0.0
152150713,6.960591e-05,5.435133e-07,-0.00012867917,0.0
152170771,6.920671e-05,-9.068611e-07,-0.00013034225,0.0
152190701,6.852745e-05,-8.165663e-07,-0.0001297863,0.0
152210721,6.937571e-05,-2.0158483e-07,-0.00012895073,0.0
152230762,6.981718e-05,-5.797782e-07,-0.00013008426,0.0
152250781,6.860052e-05,-3.0340743e-07,-0.0001289849,0.0
152270710,6.989998e-05,1.1918262e-06,-0.00013050209,0.0
152290699,7.147244e-05,4.5959123e-07,-0.0001315892,0.0
152310709,7.2306524e-05,-7.59588e-07,-0.00013181222,0.0
152330710,7.4285075e-05,-1.0422362e-06,-0.00013066105,0.0
152350677,7.225577e-05,1.2059502e-07,-0.00013029577,0.0
152370693,7.366081e-05,-9.1304736e-07,-0.0001307814,0.0
152390763,7.567889e-05,-6.820176e-07,-0.00013245417,0.0
152410766,7.438931e-05,2.6522662e-07,-0.00013235459,0.0
152430799,7.5234035e-05,-5.092193e-07,-0.00013175071,0.0
152450766,7.360104e-05,3.7064342e-07,-0.00013078519,0.0
152470812,7.562158e-05,3.5292356e-07,-0.00012993583,0.0
152490773,7.7859266e-05,5.927024e-07,-0.00013044747,0.0
152510837,7.761166e-05,-1.0283305e-06,-0.00013114627,0.0
152530726,7.477315e-05,-1.4094852e-06,-0.00013064165,0.0
152550794,7.618663e-05,-1.1477472e-06,-0.00012983016,0.0
152570787,7.5831515e-05,8.8625757e-07,-0.00012993933,0.0
