timestamp,time_utc_usec,lat,lon,alt,alt_ellipsoid,s_variance_m_s,c_variance_rad,eph,epv,hdop,vdop,noise_per_ms,jamming_indicator,vel_m_s,vel_n_m_s,vel_e_m_s,vel_d_m_s,cog_rad,timestamp_time_relative,heading,heading_offset,fix_type,vel_ned_valid,satellites_used
128262203,1626771258800056,490896177,21103551,85246,131272,0.19600001,0.66079336,0.532,0.66700006,0.62,0.88,98,7,0.017,0.008,0.015000001,-0.011000001,5.3317003,0,nan,0.0,4,1,18
128463461,1626771259000056,490896177,21103552,85238,131264,0.178,0.6608007,0.53000003,0.66400003,0.62,0.88,98,7,0.003,-0.002,0.002,0.0,5.3317003,0,nan,0.0,4,1,18
128668200,1626771259200056,490896177,21103552,85225,131251,0.21200001,0.66080934,0.528,0.661,0.62,0.88,98,7,0.023000002,0.023000002,0.002,-0.017,5.3317003,0,nan,0.0,4,1,18
128862234,1626771259400056,490896179,21103552,85242,131268,0.208,0.6608181,0.527,0.66,0.62,0.88,98,7,0.019000001,-0.019000001,0.003,0.012,5.3317003,0,nan,0.0,4,1,18
129062218,1626771259600056,490896179,21103552,85242,131267,0.16000001,0.6608248,0.52500004,0.65900004,0.62,0.88,98,7,0.055000003,-0.05,-0.022000002,-0.014,5.3317003,0,nan,0.0,4,1,18
129262166,1626771259800056,490896179,21103551,85219,131245,0.16700001,0.6608317,0.52400005,0.65800005,0.62,0.88,98,7,0.026,0.023000002,0.011000001,0.020000001,5.3317003,0,nan,0.0,4,1,18
129462145,1626771260000056,490896179,21103552,85222,131248,0.16900001,0.6608387,0.523,0.656,0.62,0.88,98,7,0.045,-0.043,-0.011000001,-0.013,5.3317003,0,nan,0.0,4,1,18
129662196,1626771260200056,490896179,21103551,85213,131239,0.22500001,0.66084796,0.521,0.65400004,0.62,0.88,98,7,0.055000003,0.051000003,0.020000001,-0.058000002,5.3317003,0,nan,0.0,4,1,18
129862162,1626771260400056,490896180,21103551,85202,131228,0.22600001,0.6608574,0.51900005,0.651,0.62,0.88,98,7,0.07700001,-0.062000003,-0.045,0.094000004,5.3317003,0,nan,0.0,4,1,18
130062164,1626771260600056,490896179,21103550,85181,131207,0.22200002,0.6608666,0.518,0.65000004,0.62,0.88,98,7,0.019000001,0.004,0.018000001,-0.037,5.3317003,0,nan,0.0,4,1,18
130262218,1626771260800055,490896180,21103550,85208,131233,0.19600001,0.66087466,0.518,0.648,0.62,0.88,98,7,0.007,0.003,-0.007,0.015000001,5.3317003,0,nan,0.0,4,1,18
130467524,1626771261000055,490896180,21103549,85203,131228,0.17,0.66088164,0.517,0.646,0.66999996,0.90999997,98,7,0.031000001,0.0,-0.031000001,0.012,5.3317003,0,nan,0.0,4,1,17
130658245,1626771261200055,490896181,21103549,85209,131234,0.201,0.66089,0.517,0.646,0.66999996,0.90999997,98,7,0.018000001,0.017,0.0050000004,0.034,5.3317003,0,nan,0.0,4,1,17
130853487,1626771261400055,490896183,21103548,85209,131235,0.192,0.66089803,0.51600003,0.64500004,0.66999996,0.90999997,98,7,0.035,0.008,-0.034,0.023000002,5.3317003,0,nan,0.0,4,1,17
131062302,1626771261600055,490896184,21103548,85221,131247,0.23500001,0.6609078,0.51600003,0.64400005,0.66999996,0.90999997,98,7,0.031000001,-0.012,-0.028,0.063,5.3317003,0,nan,0.0,4,1,17
131262436,1626771261800055,490896186,21103547,85234,131260,0.23500001,0.6609176,0.51500005,0.64400005,0.66999996,0.90999997,98,7,0.026,0.024,0.009000001,-0.037,5.3317003,0,nan,0.0,4,1,17
131462429,1626771262000055,490896187,21103547,85243,131269,0.22800002,0.660927,0.514,0.642,0.66999996,0.90999997,98,7,0.003,0.001,0.003,-0.012,5.3317003,0,nan,0.0,4,1,17
131662160,1626771262200055,490896188,21103548,85257,131283,0.21400002,0.66093594,0.513,0.64100003,0.66999996,0.90999997,98,7,0.033,0.0050000004,0.032,-0.041,5.3317003,0,nan,0.0,4,1,17
131862290,1626771262400055,490896189,21103548,85265,131290,0.21100001,0.6609447,0.512,0.63900006,0.66999996,0.90999997,98,7,0.006,-0.0050000004,0.002,-0.042000003,5.3317003,0,nan,0.0,4,1,17
132062189,1626771262600055,490896190,21103547,85266,131292,0.134,0.66095024,0.512,0.638,0.66999996,0.90999997,98,7,0.046000004,0.004,-0.046000004,-0.010000001,5.3317003,0,nan,0.0,4,1,17
132263390,1626771262800055,490896191,21103547,85277,131302,0.22500001,0.66095954,0.51100004,0.63600004,0.66999996,0.90999997,98,7,0.014,0.008,0.012,-0.021000002,5.3317003,0,nan,0.0,4,1,17
132462239,1626771263000055,490896192,21103547,85294,131320,0.163,0.66096634,0.51000005,0.63500005,0.66999996,0.90999997,98,7,0.025,-0.016,-0.020000001,-0.016,5.3317003,0,nan,0.0,4,1,17
132662422,1626771263200055,490896192,21103547,85303,131329,0.23500001,0.66097605,0.51000005,0.634,0.66999996,0.90999997,98,7,0.003,0.0,0.003,-0.035,5.3317003,0,nan,0.0,4,1,17
132862171,1626771263400055,490896192,21103548,85315,131341,0.22000001,0.6609851,0.51000005,0.633,0.66999996,0.90999997,98,7,0.009000001,0.002,-0.009000001,-0.049000002,5.3317003,0,nan,0.0,4,1,17
133057690,1626771263600055,490896192,21103548,85324,131350,0.21000001,0.6609939,0.509,0.632,0.66999996,0.90999997,98,7,0.006,-0.0050000004,0.002,-0.045,5.3317003,0,nan,0.0,4,1,17
133262181,1626771263800055,490896192,21103548,85321,131346,0.18100001,0.6610014,0.509,0.63000005,0.66999996,0.90999997,98,7,0.002,0.001,-0.002,0.009000001,5.3317003,0,nan,0.0,4,1,17
133458581,1626771264000055,490896193,21103548,85322,131347,0.18200001,0.6610089,0.508,0.628,0.66999996,0.90999997,98,7,0.033,0.006,-0.032,0.034,5.3317003,0,nan,0.0,4,1,17
133658349,1626771264200055,490896193,21103549,85306,131332,0.15100001,0.66101515,0.50600004,0.62600005,0.66999996,0.90999997,98,7,0.025,-0.014,0.021000002,-0.011000001,5.3317003,0,nan,0.0,4,1,17
133862164,1626771264400054,490896195,21103550,85291,131317,0.141,0.66102105,0.504,0.624,0.66999996,0.90999997,98,7,0.019000001,-0.010000001,-0.016,-0.009000001,5.3317003,0,nan,0.0,4,1,17
134062180,1626771264600054,490896197,21103550,85274,131300,0.215,0.66103,0.50200003,0.62200004,0.66999996,0.90999997,98,7,0.013,-0.012,-0.0050000004,0.012,5.3317003,0,nan,0.0,4,1,17
134663226,1626771265200054,490896202,21103553,85256,131282,0.15400001,0.6610506,0.49500003,0.61600006,0.62,0.88,98,7,0.036000002,0.034,-0.012,-0.001,5.3317003,0,nan,0.0,4,1,18
134862301,1626771265400054,490896204,21103554,85240,131265,0.223,0.66105986,0.49400002,0.614,0.62,0.88,98,7,0.013,0.009000001,0.010000001,-0.034,5.3317003,0,nan,0.0,4,1,18
135062244,1626771265600054,490896206,21103555,85234,131260,0.21000001,0.66106856,0.492,0.61300004,0.62,0.88,98,7,0.009000001,0.004,-0.008,-0.037,5.3317003,0,nan,0.0,4,1,18
135278381,1626771265800054,490896207,21103555,85234,131260,0.15400001,0.66107506,0.49,0.611,0.62,0.88,98,7,0.035,-0.033,-0.013,-0.023000002,5.3317003,0,nan,0.0,4,1,18
135462208,1626771266000054,490896208,21103555,85235,131260,0.17,0.661082,0.48800004,0.609,0.62,0.88,98,7,0.031000001,-0.001,-0.031000001,0.015000001,5.3317003,0,nan,0.0,4,1,18
135672149,1626771266200054,490896209,21103556,85231,131256,0.16700001,0.66108894,0.48700002,0.60800004,0.62,0.88,98,7,0.034,0.032,0.013,0.041,5.3317003,0,nan,0.0,4,1,18
136062414,1626771266600054,490896212,21103556,85223,131249,0.157,0.6611035,0.48400003,0.605,0.62,0.88,98,7,0.037,-0.027,-0.026,-0.002,5.3317003,0,nan,0.0,4,1,18
136257725,1626771266800054,490896213,21103557,85236,131261,0.187,0.6611113,0.48200002,0.60400003,0.62,0.88,98,8,0.011000001,-0.007,-0.009000001,-0.028,5.3317003,0,nan,0.0,4,1,18
136461760,1626771267000054,490896215,21103557,85249,131274,0.208,0.6611199,0.48100004,0.60200006,0.62,0.88,98,8,0.036000002,0.035,-0.007,-0.040000003,5.3317003,0,nan,0.0,4,1,18
136662146,1626771267200054,490896216,21103558,85245,131270,0.15100001,0.66112614,0.48000002,0.601,0.62,0.88,98,8,0.022000002,0.018000001,0.013,0.006,5.3317003,0,nan,0.0,4,1,18
136862197,1626771267400054,490896218,21103558,85241,131267,0.19100001,0.66113406,0.47800002,0.6,0.62,0.88,98,8,0.016,-0.016,-0.002,-0.042000003,5.3317003,0,nan,0.0,4,1,18
137062160,1626771267600054,490896218,21103559,85256,131282,0.178,0.6611416,0.47700003,0.59800005,0.62,0.88,98,8,0.071,-0.062000003,-0.035,0.013,5.3317003,0,nan,0.0,4,1,18
137262174,1626771267800054,490896219,21103559,85251,131277,0.16100001,0.6611482,0.476,0.597,0.62,0.88,98,7,0.011000001,-0.009000001,0.006,-0.008,5.3317003,0,nan,0.0,4,1,18
137462298,1626771268000054,490896221,21103560,85262,131288,0.16000001,0.66115475,0.47500002,0.596,0.62,0.88,98,7,0.051000003,0.044000003,0.025,0.006,5.3317003,0,nan,0.0,4,1,18
137662523,1626771268200053,490896222,21103560,85247,131273,0.22200002,0.66116405,0.47400004,0.595,0.62,0.88,98,7,0.030000001,-0.025,-0.016,0.041,5.3317003,0,nan,0.0,4,1,18
137867726,1626771268400053,490896224,21103561,85246,131272,0.19900002,0.6611723,0.47300002,0.59400004,0.62,0.88,98,7,0.022000002,0.020000001,-0.010000001,0.061000004,5.3317003,0,nan,0.0,4,1,18
138062418,1626771268600053,490896225,21103562,85239,131265,0.21900001,0.66118133,0.47200003,0.59300005,0.62,0.88,98,7,0.018000001,0.009000001,0.015000001,-0.025,5.3317003,0,nan,0.0,4,1,18
138262202,1626771268800053,490896226,21103562,85244,131269,0.16800001,0.66118824,0.47100002,0.592,0.62,0.88,98,8,0.017,0.016,-0.006,0.016,5.3317003,0,nan,0.0,4,1,18
138462192,1626771269000053,490896227,21103563,85240,131266,0.157,0.66119474,0.47000003,0.591,0.62,0.88,98,8,0.012,0.007,0.010000001,-0.001,5.3317003,0,nan,0.0,4,1,18
138663379,1626771269200053,490896228,21103564,85238,131264,0.17400001,0.6612021,0.469,0.59000003,0.62,0.88,98,8,0.042000003,-0.037,0.021000002,-0.047000002,5.3317003,0,nan,0.0,4,1,18
138867705,1626771269400053,490896228,21103565,85244,131269,0.16100001,0.66120875,0.46800002,0.58900005,0.62,0.88,98,8,0.026,-0.016,-0.021000002,-0.031000001,5.3317003,0,nan,0.0,4,1,18
139062484,1626771269600053,490896229,21103565,85241,131266,0.19500001,0.6612168,0.467,0.58900005,0.62,0.88,98,8,0.016,0.012,-0.011000001,-0.023000002,5.3317003,0,nan,0.0,4,1,18
139262163,1626771269800053,490896230,21103566,85248,131273,0.20300001,0.66122514,0.46600002,0.588,0.62,0.88,98,6,0.026,-0.001,0.026,-0.035,5.3317003,0,nan,0.0,4,1,18
139467440,1626771270000053,490896230,21103567,85259,131284,0.141,0.6612311,0.46500003,0.58500004,0.62,0.88,98,6,0.017,0.004,0.017,0.013,5.3317003,0,nan,0.0,4,1,18
139662223,1626771270200053,490896231,21103567,85265,131290,0.15400001,0.6612373,0.46400002,0.583,0.62,0.88,98,6,0.045,0.032,-0.031000001,0.025,5.3317003,0,nan,0.0,4,1,18
139863479,1626771270400053,490896232,21103567,85283,131308,0.193,0.66124535,0.46400002,0.58100003,0.62,0.88,98,6,0.027,-0.016,-0.022000002,0.015000001,5.3317003,0,nan,0.0,4,1,18
140062164,1626771270600053,490896233,21103567,85313,131339,0.21100001,0.6612541,0.462,0.578,0.62,0.88,98,6,0.020000001,0.020000001,0.001,-0.038000003,5.3317003,0,nan,0.0,4,1,18
140263534,1626771270800053,490896233,21103567,85323,131348,0.19500001,0.66126233,0.46100003,0.57500005,0.62,0.88,98,6,0.037,-0.024,-0.028,0.027,5.3317003,0,nan,0.0,4,1,18
140662158,1626771271200053,490896233,21103566,85353,131379,0.16600001,0.66127694,0.45700002,0.57000005,0.62,0.88,98,6,0.008,0.0,0.008,-0.012,5.3317003,0,nan,0.0,4,1,18
140863532,1626771271400053,490896233,21103566,85361,131387,0.156,0.66128343,0.455,0.568,0.62,0.88,98,6,0.027,-0.019000001,-0.019000001,-0.028,5.3317003,0,nan,0.0,4,1,18
141061659,1626771271600053,490896232,21103566,85368,131394,0.17400001,0.66129076,0.45400003,0.565,0.62,0.88,98,6,0.010000001,0.002,-0.009000001,0.015000001,5.3317003,0,nan,0.0,4,1,18
141262229,1626771271800052,490896232,21103565,85370,131396,0.18100001,0.6612981,0.453,0.564,0.62,0.88,98,6,0.009000001,-0.007,-0.0050000004,-0.023000002,5.3317003,0,nan,0.0,4,1,18
141462225,1626771272000052,490896232,21103565,85375,131400,0.21200001,0.66130704,0.45000002,0.56100005,0.62,0.88,98,6,0.015000001,0.0,0.015000001,-0.033,5.3317003,0,nan,0.0,4,1,18
141662168,1626771272200052,490896232,21103565,85388,131413,0.20600002,0.6613155,0.44700003,0.558,0.62,0.88,98,6,0.014,0.011000001,-0.009000001,-0.052,5.3317003,0,nan,0.0,4,1,18
141858390,1626771272400052,490896232,21103565,85401,131427,0.15100001,0.66132176,0.44500002,0.555,0.62,0.88,98,6,0.027,-0.025,0.010000001,0.001,5.3317003,0,nan,0.0,4,1,18
142062164,1626771272600052,490896232,21103566,85420,131445,0.21300001,0.6613307,0.44200003,0.55200005,0.62,0.88,98,6,0.009000001,0.002,0.008,-0.053000003,5.3317003,0,nan,0.0,4,1,18
142267323,1626771272800052,490896232,21103566,85441,131467,0.128,0.66133595,0.44000003,0.55,0.62,0.88,98,6,0.030000001,-0.003,-0.030000001,-0.010000001,5.3317003,0,nan,0.0,4,1,18
142468274,1626771273000052,490896232,21103566,85450,131476,0.17600001,0.6613433,0.43800002,0.54700005,0.62,0.88,98,6,0.029000001,0.003,-0.029000001,0.024,5.3317003,0,nan,0.0,4,1,18
144867998,1626771275400051,490896236,21103573,85556,131581,0.185,0.6614363,0.41000003,0.517,0.62,0.88,97,6,0.011000001,-0.001,0.011000001,0.019000001,5.3317003,0,nan,0.0,4,1,18
145067508,1626771275600051,490896237,21103573,85572,131597,0.13800001,0.6614421,0.407,0.514,0.62,0.88,97,6,0.024,0.013,-0.020000001,0.0,5.3317003,0,nan,0.0,4,1,18
145277779,1626771275800051,490896237,21103573,85591,131617,0.157,0.6614485,0.40500003,0.51100004,0.62,0.88,97,5,0.049000002,-0.049000002,0.007,-0.031000001,5.3317003,0,nan,0.0,4,1,18
145478141,1626771276000051,490896237,21103575,85600,131626,0.177,0.66145587,0.402,0.508,0.62,0.88,97,5,0.026,-0.009000001,0.024,0.031000001,5.3317003,0,nan,0.0,4,1,18
145677901,1626771276200051,490896236,21103576,85620,131645,0.19700001,0.66146404,0.4,0.50600004,0.62,0.88,97,5,0.033,-0.026,0.020000001,-0.07300001,5.3317003,0,nan,0.0,4,1,18
145867528,1626771276400051,490896236,21103577,85644,131670,0.177,0.66147137,0.39900002,0.504,0.62,0.88,97,5,0.027,-0.022000002,-0.016,0.004,5.3317003,0,nan,0.0,4,1,18
146068138,1626771276600051,490896236,21103578,85657,131683,0.193,0.6614794,0.397,0.503,0.62,0.88,97,5,0.098000005,0.083000004,0.051000003,-0.026,5.3317003,0,nan,0.0,4,1,18
146268296,1626771276800051,490896237,21103579,85659,131685,0.19700001,0.6614874,0.39600003,0.5,0.62,0.88,97,6,0.031000001,0.027,0.015000001,-0.018000001,5.3317003,0,nan,0.0,4,1,18
146468556,1626771277000051,490896237,21103580,85670,131696,0.19500001,0.6614956,0.39400002,0.49800003,0.62,0.88,97,6,0.007,-0.003,-0.007,-0.044000003,5.3317003,0,nan,0.0,4,1,18
146662152,1626771277200051,490896237,21103580,85688,131714,0.15,0.66150177,0.39400002,0.497,0.62,0.88,97,6,0.008,-0.002,0.008,-0.004,5.3317003,0,nan,0.0,4,1,18
146867927,1626771277400051,490896237,21103581,85704,131730,0.209,0.66151047,0.39400002,0.49600002,0.62,0.88,97,6,0.044000003,0.043,-0.009000001,-0.047000002,5.3317003,0,nan,0.0,4,1,18
147068631,1626771277600051,490896238,21103582,85724,131750,0.21700001,0.6615196,0.39400002,0.49600002,0.62,0.88,97,6,0.002,0.001,0.001,-0.010000001,5.3317003,0,nan,0.0,4,1,18
147268274,1626771277800051,490896239,21103583,85745,131771,0.21300001,0.6615283,0.393,0.49500003,0.62,0.88,97,6,0.022000002,0.016,0.016,-0.019000001,5.3317003,0,nan,0.0,4,1,18
147468070,1626771278000051,490896239,21103584,85754,131780,0.223,0.6615376,0.393,0.49500003,0.62,0.88,97,6,0.042000003,0.034,0.024,-0.059000004,5.3317003,0,nan,0.0,4,1,18
147668135,1626771278200051,490896240,21103585,85784,131810,0.17400001,0.6615447,0.393,0.49400002,0.62,0.88,97,6,0.048,-0.035,-0.032,0.0050000004,5.3317003,0,nan,0.0,4,1,18
147867950,1626771278400051,490896240,21103585,85798,131823,0.18200001,0.6615522,0.39200002,0.49400002,0.62,0.88,97,6,0.004,-0.004,0.001,-0.016,5.3317003,0,nan,0.0,4,1,18
148067551,1626771278600051,490896241,21103586,85818,131844,0.16000001,0.6615588,0.39200002,0.49300003,0.62,0.88,97,6,0.011000001,0.009000001,-0.006,0.008,5.3317003,0,nan,0.0,4,1,18
148267687,1626771278800051,490896241,21103587,85831,131857,0.162,0.6615656,0.39200002,0.49300003,0.62,0.88,97,5,0.048,-0.044000003,0.019000001,-0.028,5.3317003,0,nan,0.0,4,1,18
148468070,1626771279000051,490896241,21103589,85844,131869,0.156,0.6615721,0.39200002,0.49300003,0.62,0.88,97,5,0.018000001,0.011000001,0.014,0.002,5.3317003,0,nan,0.0,4,1,18
148667940,1626771279200050,490896241,21103590,85871,131897,0.17,0.6615791,0.39200002,0.492,0.62,0.88,97,5,0.029000001,0.009000001,-0.028,-0.027,5.3317003,0,nan,0.0,4,1,18
148868126,1626771279400050,490896242,21103591,85886,131912,0.16700001,0.6615861,0.39200002,0.49300003,0.62,0.88,97,5,0.024,-0.010000001,0.022000002,-0.009000001,5.3317003,0,nan,0.0,4,1,18
149068048,1626771279600050,490896242,21103590,85884,131910,0.18100001,0.66159356,0.39200002,0.49300003,0.62,0.88,97,5,0.094000004,0.001,-0.094000004,0.041,5.3317003,0,nan,0.0,4,1,18
149262182,1626771279800050,490896242,21103591,85919,131945,0.171,0.66160053,0.39200002,0.49300003,0.62,0.88,97,6,0.037,-0.035,0.011000001,-0.039,5.3317003,0,nan,0.0,4,1,18
149468087,1626771280000050,490896242,21103592,85934,131959,0.22500001,0.66161,0.39200002,0.49400002,0.62,0.88,97,6,0.033,-0.007,0.033,-0.054,5.3317003,0,nan,0.0,4,1,18
149667991,1626771280200050,490896241,21103593,85931,131957,0.15300001,0.6616162,0.393,0.49600002,0.62,0.88,97,6,0.037,-0.037,0.002,-0.019000001,5.3317003,0,nan,0.0,4,1,18
149868070,1626771280400050,490896241,21103592,85941,131967,0.18900001,0.66162413,0.393,0.497,0.62,0.88,97,6,0.109000005,-0.069000006,-0.08400001,0.017,5.3317003,0,nan,0.0,4,1,18
150067732,1626771280600050,490896240,21103592,85956,131982,0.15900001,0.66163075,0.39400002,0.499,0.62,0.88,97,6,0.030000001,-0.002,-0.030000001,-0.022000002,5.3317003,0,nan,0.0,4,1,18
150268160,1626771280800050,490896240,21103592,85969,131995,0.18300001,0.66163826,0.395,0.5,0.62,0.88,97,7,0.030000001,0.017,0.025,-0.003,5.3317003,0,nan,0.0,4,1,18
150468231,1626771281000050,490896241,21103593,85976,132002,0.22200002,0.6616475,0.39400002,0.499,0.62,0.88,97,7,0.025,0.012,0.023000002,-0.034,5.3317003,0,nan,0.0,4,1,18
150668185,1626771281200050,490896240,21103595,86000,132026,0.149,0.6616536,0.393,0.49800003,0.62,0.88,97,7,0.066,-0.062000003,0.023000002,0.0,5.3317003,0,nan,0.0,4,1,18
150867900,1626771281400050,490896239,21103595,86006,132032,0.155,0.6616601,0.393,0.499,0.62,0.88,97,7,0.068,-0.023000002,-0.064,-0.023000002,5.3317003,0,nan,0.0,4,1,18
151068188,1626771281600050,490896238,21103595,86018,132044,0.16600001,0.66166687,0.393,0.5,0.62,0.88,97,7,0.096,-0.09200001,-0.030000001,-0.093,5.3317003,0,nan,0.0,4,1,18
151268034,1626771281800050,490896238,21103594,86027,132053,0.21800001,0.66167593,0.393,0.50100005,0.62,0.88,97,7,0.057000004,0.053000003,-0.021000002,-0.091000006,5.3317003,0,nan,0.0,4,1,18
151477746,1626771282000050,490896238,21103595,86013,132039,0.23200001,0.6616855,0.393,0.50200003,0.62,0.88,97,7,0.069000006,0.043,0.054,-0.064,5.3317003,0,nan,0.0,4,1,18
151667807,1626771282200050,490896238,21103596,86014,132040,0.22800002,0.661695,0.39200002,0.5,0.62,0.88,97,7,0.028,-0.018000001,-0.022000002,0.058000002,5.3317003,0,nan,0.0,4,1,18
151862246,1626771282400050,490896238,21103596,86012,132038,0.15100001,0.66170126,0.39000002,0.499,0.62,0.88,97,7,0.035,-0.035,0.003,-0.010000001,5.3317003,0,nan,0.0,4,1,18
152068034,1626771282600050,490896238,21103597,86021,132047,0.19900002,0.6617096,0.39100003,0.5,0.62,0.88,97,7,0.019000001,0.019000001,0.0,-0.008,5.3317003,0,nan,0.0,4,1,18
152268280,1626771282800049,490896238,21103597,86024,132050,0.21900001,0.6617187,0.39200002,0.50100005,0.62,0.88,97,7,0.017,0.009000001,0.014,-0.009000001,5.3317003,0,nan,0.0,4,1,18
152471322,1626771283000049,490896238,21103598,86008,132033,0.17300001,0.6617258,0.39200002,0.50200003,0.62,0.88,97,7,0.053000003,-0.044000003,0.029000001,-0.049000002,5.3317003,0,nan,0.0,4,1,18
152668089,1626771283200049,490896237,21103599,86028,132054,0.18900001,0.66173375,0.39100003,0.5,0.62,0.88,97,7,0.049000002,-0.037,-0.031000001,0.010000001,5.3317003,0,nan,0.0,4,1,18
152868190,1626771283400049,490896237,21103598,86020,132045,0.148,0.6617398,0.39000002,0.499,0.62,0.88,97,7,0.030000001,0.026,0.016,0.018000001,5.3317003,0,nan,0.0,4,1,18
153067325,1626771283600049,490896236,21103600,86031,132056,0.127,0.6617451,0.39000002,0.49800003,0.62,0.88,97,7,0.038000003,-0.029000001,0.025,0.001,5.3317003,0,nan,0.0,4,1,18
153261621,1626771283800049,490896236,21103601,86059,132085,0.143,0.66175115,0.38900003,0.49600002,0.62,0.88,97,6,0.012,0.011000001,-0.004,-0.001,5.3317003,0,nan,0.0,4,1,18
153462167,1626771284000049,490896236,21103602,86078,132104,0.162,0.66175777,0.388,0.49500003,0.62,0.88,97,6,0.027,0.023000002,-0.014,-0.012,5.3317003,0,nan,0.0,4,1,18
153662168,1626771284200049,490896236,21103602,86066,132092,0.22600001,0.66176724,0.388,0.49400002,0.62,0.88,97,6,0.019000001,0.007,0.018000001,-0.07300001,5.3317003,0,nan,0.0,4,1,18
153862165,1626771284400049,490896236,21103602,86067,132093,0.21900001,0.6617763,0.388,0.49500003,0.62,0.88,97,6,0.018000001,-0.009000001,0.016,-0.052,5.3317003,0,nan,0.0,4,1,18
154062198,1626771284600049,490896236,21103602,86050,132075,0.23900001,0.6617861,0.38900003,0.497,0.62,0.88,97,6,0.036000002,0.032,0.017,-0.025,5.3317003,0,nan,0.0,4,1,18
154258294,1626771284800049,490896236,21103602,86038,132064,0.14500001,0.66179216,0.388,0.49600002,0.62,0.88,97,6,0.028,-0.022000002,0.018000001,0.0050000004,5.3317003,0,nan,0.0,4,1,18
154458563,1626771285000049,490896236,21103600,86014,132040,0.187,0.66179985,0.388,0.49600002,0.62,0.88,97,6,0.021000002,-0.001,-0.021000002,-0.037,5.3317003,0,nan,0.0,4,1,18
154667527,1626771285200049,490896236,21103599,86008,132034,0.22100002,0.66180897,0.388,0.497,0.62,0.88,97,6,0.033,0.002,-0.032,0.044000003,5.3317003,0,nan,0.0,4,1,18
154862390,1626771285400049,490896236,21103598,85993,132019,0.20500001,0.6618175,0.388,0.497,0.62,0.88,97,6,0.022000002,0.016,0.015000001,-0.008,5.3317003,0,nan,0.0,4,1,18
155067534,1626771285600049,490896236,21103596,85973,131999,0.20600002,0.6618261,0.388,0.49800003,0.62,0.88,97,6,0.022000002,0.010000001,-0.020000001,-0.053000003,5.3317003,0,nan,0.0,4,1,18
155267462,1626771285800049,490896235,21103594,85945,131971,0.22200002,0.66183513,0.386,0.49400002,0.62,0.88,97,7,0.028,-0.026,-0.010000001,0.034,5.3317003,0,nan,0.0,4,1,18
155478179,1626771286000049,490896233,21103595,85949,131974,0.20700002,0.66184366,0.384,0.49,0.62,0.88,97,7,0.05,-0.049000002,-0.011000001,0.027,5.3317003,0,nan,0.0,4,1,18
155662170,1626771286200049,490896233,21103594,85946,131972,0.15300001,0.66185015,0.38200003,0.485,0.62,0.88,97,7,0.086,0.083000004,-0.019000001,-0.012,5.3317003,0,nan,0.0,4,1,18
155872170,1626771286400049,490896233,21103595,85942,131968,0.19700001,0.6618582,0.38200003,0.485,0.62,0.88,97,7,0.027,0.003,0.027,-0.013,5.3317003,0,nan,0.0,4,1,18
156062189,1626771286600048,490896232,21103596,85933,131959,0.185,0.66186583,0.38300002,0.485,0.62,0.88,97,7,0.037,0.029000001,0.022000002,0.067,5.3317003,0,nan,0.0,4,1,18
156262257,1626771286800048,490896233,21103595,85915,131940,0.18200001,0.66187334,0.384,0.48600003,0.62,0.88,97,7,0.065000005,0.063,-0.017,-0.024,5.3317003,0,nan,0.0,4,1,18
156462161,1626771287000048,490896233,21103594,85903,131929,0.163,0.66188014,0.386,0.48800004,0.62,0.88,97,7,0.034,-0.032,-0.011000001,-0.035,5.3317003,0,nan,0.0,4,1,18
156658363,1626771287200048,490896232,21103594,85892,131918,0.257,0.66189075,0.38700002,0.49,0.62,0.88,97,7,0.024,0.017,0.017,-0.033,5.3317003,0,nan,0.0,4,1,18
156862192,1626771287400048,490896232,21103593,85869,131895,0.259,0.6619015,0.38900003,0.49400002,0.62,0.88,97,7,0.020000001,-0.014,-0.014,0.05,5.3317003,0,nan,0.0,4,1,18
157058185,1626771287600048,490896231,21103592,85835,131861,0.16000001,0.66190803,0.39100003,0.49600002,0.62,0.88,97,7,0.030000001,0.008,0.029000001,0.022000002,5.3317003,0,nan,0.0,4,1,18
157258249,1626771287800048,490896231,21103592,85837,131863,0.15400001,0.6619145,0.39100003,0.49600002,0.62,0.88,97,6,0.049000002,-0.048,0.006,0.002,5.3317003,0,nan,0.0,4,1,18
157462403,1626771288000048,490896231,21103591,85828,131854,0.163,0.66192114,0.39100003,0.497,0.62,0.88,97,6,0.047000002,-0.041,-0.023000002,-0.055000003,5.3317003,0,nan,0.0,4,1,18
157662278,1626771288200048,490896230,21103591,85825,131851,0.24300002,0.66193134,0.39200002,0.499,0.62,0.88,97,6,0.07300001,0.030000001,0.067,-0.07300001,5.3317003,0,nan,0.0,4,1,18
157862685,1626771288400048,490896230,21103592,85818,131843,0.216,0.6619402,0.393,0.50100005,0.62,0.88,97,6,0.031000001,0.016,0.027,-0.013,5.3317003,0,nan,0.0,4,1,18
158062182,1626771288600048,490896231,21103592,85814,131839,0.22900002,0.66194975,0.395,0.503,0.62,0.88,97,6,0.013,0.012,-0.006,-0.025,5.3317003,0,nan,0.0,4,1,18
158263158,1626771288800048,490896231,21103591,85797,131823,0.19600001,0.6619578,0.39600003,0.505,0.62,0.88,97,6,0.065000005,0.056,0.033,-0.009000001,5.3317003,0,nan,0.0,4,1,18
158462245,1626771289000048,490896231,21103591,85789,131815,0.17400001,0.661965,0.397,0.507,0.62,0.88,97,6,0.018000001,-0.010000001,0.015000001,-0.008,5.3317003,0,nan,0.0,4,1,18
158662237,1626771289200048,490896230,21103590,85767,131793,0.202,0.66197336,0.39800003,0.51000005,0.62,0.88,97,6,0.036000002,-0.034,0.009000001,0.022000002,5.3317003,0,nan,0.0,4,1,18
158862175,1626771289400048,490896229,21103589,85737,131763,0.259,0.6619842,0.4,0.512,0.62,0.88,97,6,0.040000003,-0.035,-0.019000001,0.051000003,5.3317003,0,nan,0.0,4,1,18
159063385,1626771289600048,490896229,21103590,85728,131754,0.15200001,0.66199046,0.40100002,0.514,0.62,0.88,97,6,0.029000001,-0.009000001,0.028,0.014,5.3317003,0,nan,0.0,4,1,18
159262178,1626771289800048,490896228,21103589,85700,131726,0.15200001,0.6619967,0.402,0.51500005,0.65,0.93,97,5,0.038000003,0.029000001,0.025,0.019000001,5.3317003,0,nan,0.0,4,1,17
159463312,1626771290000048,490896228,21103589,85690,131715,0.245,0.66200686,0.402,0.517,0.62,0.88,97,5,0.054,-0.052,-0.014,0.055000003,5.3317003,0,nan,0.0,4,1,18
159662302,1626771290200047,490896228,21103589,85685,131711,0.22800002,0.66201633,0.40300003,0.51900005,0.62,0.88,97,5,0.009000001,-0.0050000004,0.007,-0.042000003,5.3317003,0,nan,0.0,4,1,18
159858555,1626771290400047,490896228,21103589,85689,131715,0.15400001,0.6620227,0.40300003,0.52000004,0.62,0.88,97,5,0.034,0.029000001,-0.018000001,-0.007,5.3317003,0,nan,0.0,4,1,18
160063437,1626771290600047,490896229,21103588,85663,131689,0.16100001,0.6620294,0.40300003,0.52000004,0.62,0.88,97,5,0.033,0.027,0.020000001,0.007,5.3317003,0,nan,0.0,4,1,18
160268073,1626771290800047,490896229,21103588,85651,131676,0.15400001,0.6620358,0.40300003,0.52000004,0.62,0.88,97,6,0.028,0.003,-0.028,-0.001,5.3317003,0,nan,0.0,4,1,18
160468053,1626771291000047,490896229,21103587,85651,131676,0.22800002,0.66204524,0.40300003,0.52000004,0.62,0.88,97,6,0.059000004,-0.029000001,-0.051000003,0.046000004,5.3317003,0,nan,0.0,4,1,18
160668169,1626771291200047,490896228,21103585,85601,131626,0.19800001,0.6620534,0.402,0.52000004,0.62,0.88,97,6,0.043,-0.040000003,0.015000001,0.033,5.3317003,0,nan,0.0,4,1,18
160862239,1626771291400047,490896228,21103585,85598,131624,0.22000001,0.6620626,0.402,0.52000004,0.62,0.88,97,6,0.08800001,0.006,-0.087000005,0.094000004,5.3317003,0,nan,0.0,4,1,18
161067745,1626771291600047,490896228,21103584,85577,131603,0.21000001,0.6620712,0.40100002,0.52000004,0.62,0.88,97,6,0.011000001,0.001,0.011000001,0.037,5.3317003,0,nan,0.0,4,1,18
161258702,1626771291800047,490896228,21103583,85554,131580,0.155,0.66207755,0.4,0.51900005,0.62,0.88,97,6,0.037,0.037,0.007,0.025,5.3317003,0,nan,0.0,4,1,18
161462173,1626771292000047,490896229,21103582,85537,131562,0.15300001,0.662084,0.39900002,0.518,0.62,0.88,97,6,0.024,-0.001,-0.024,0.001,5.3317003,0,nan,0.0,4,1,18
162662182,1626771293200047,490896230,21103582,85566,131592,0.16100001,0.6621285,0.39100003,0.508,0.62,0.88,97,6,0.053000003,-0.051000003,-0.015000001,-0.0050000004,5.3317003,0,nan,0.0,4,1,18
162868075,1626771293400047,490896230,21103583,85581,131606,0.18300001,0.662136,0.39100003,0.507,0.62,0.88,97,6,0.048,0.046000004,-0.014,-0.023000002,5.3317003,0,nan,0.0,4,1,18
163067544,1626771293600047,490896232,21103583,85592,131617,0.18900001,0.6621439,0.39000002,0.507,0.62,0.88,97,6,0.053000003,0.052,-0.009000001,-0.026,5.3317003,0,nan,0.0,4,1,18
163267509,1626771293800047,490896233,21103584,85612,131637,0.20300001,0.66215223,0.38900003,0.505,0.62,0.88,98,6,0.018000001,0.018000001,0.004,-0.010000001,5.3317003,0,nan,0.0,4,1,18
163468120,1626771294000046,490896233,21103584,85621,131647,0.16000001,0.6621589,0.38700002,0.50200003,0.62,0.88,98,6,0.055000003,-0.016,-0.053000003,-0.05,5.3317003,0,nan,0.0,4,1,18
163663319,1626771294200046,490896232,21103582,85638,131663,0.14500001,0.6621648,0.386,0.499,0.62,0.88,98,6,0.133,-0.117000006,-0.064,-0.059000004,5.3317003,0,nan,0.0,4,1,18
163862326,1626771294400046,490896233,21103584,85662,131688,0.19100001,0.66217285,0.384,0.49600002,0.62,0.88,98,6,0.119,0.09200001,0.075,-0.060000002,5.3317003,0,nan,0.0,4,1,18
164062205,1626771294600046,490896233,21103585,85675,131700,0.165,0.66217965,0.38200003,0.49300003,0.62,0.88,98,6,0.062000003,-0.061000004,-0.012,-0.07,5.3317003,0,nan,0.0,4,1,18
164263228,1626771294800046,490896232,21103587,85705,131731,0.15300001,0.6621859,0.381,0.49,0.62,0.88,97,5,0.072000004,-0.029000001,-0.066,-0.0050000004,5.3317003,0,nan,0.0,4,1,18
164463482,1626771295000046,490896232,21103588,85739,131765,0.16800001,0.6621929,0.38000003,0.48700002,0.62,0.88,97,5,0.045,0.041,-0.019000001,-0.017,5.3317003,0,nan,0.0,4,1,18
164662426,1626771295200046,490896232,21103589,85761,131786,0.187,0.6622006,0.379,0.48400003,0.62,0.88,97,5,0.08400001,-0.028,-0.079,0.044000003,5.3317003,0,nan,0.0,4,1,18
164862291,1626771295400046,490896231,21103590,85801,131826,0.15400001,0.662207,0.37800002,0.48200002,0.62,0.88,97,5,0.030000001,-0.022000002,0.020000001,0.013,5.3317003,0,nan,0.0,4,1,18
165063505,1626771295600046,490896231,21103592,85811,131837,0.148,0.6622132,0.37800002,0.48000002,0.62,0.88,97,5,0.030000001,0.0050000004,0.029000001,0.003,5.3317003,0,nan,0.0,4,1,18
165262236,1626771295800046,490896231,21103593,85826,131852,0.22500001,0.6622224,0.37800002,0.47800002,0.62,0.88,98,5,0.037,0.036000002,0.006,-0.05,5.3317003,0,nan,0.0,4,1,18
165462268,1626771296000046,490896231,21103594,85853,131879,0.21300001,0.6622313,0.377,0.476,0.62,0.88,98,5,0.037,-0.036000002,-0.007,0.029000001,5.3317003,0,nan,0.0,4,1,18
165672213,1626771296200046,490896231,21103596,85876,131901,0.215,0.6622402,0.37600002,0.47400004,0.62,0.88,98,5,0.052,0.05,0.013,-0.036000002,5.3317003,0,nan,0.0,4,1,18
165878496,1626771296400046,490896231,21103597,85902,131927,0.21000001,0.66224897,0.37600002,0.47200003,0.62,0.88,98,5,0.054,0.053000003,0.011000001,-0.031000001,5.3317003,0,nan,0.0,4,1,18
166067516,1626771296600046,490896231,21103599,85940,131966,0.158,0.66225535,0.37500003,0.47000003,0.62,0.88,98,5,0.035,-0.035,0.003,-0.032,5.3317003,0,nan,0.0,4,1,18
166272197,1626771296800046,490896231,21103600,85979,132005,0.22100002,0.66226465,0.37500003,0.467,0.62,0.88,98,5,0.047000002,0.046000004,0.0050000004,-0.068,5.3317003,0,nan,0.0,4,1,18
166471424,1626771297000046,490896232,21103602,86005,132030,0.22600001,0.66227406,0.374,0.46500003,0.62,0.88,98,5,0.066,0.063,0.017,-0.069000006,5.3317003,0,nan,0.0,4,1,18
166667423,1626771297200046,490896232,21103603,86033,132058,0.18,0.6622814,0.374,0.46300003,0.62,0.88,98,5,0.033,-0.028,-0.016,-0.058000002,5.3317003,0,nan,0.0,4,1,18
166867517,1626771297400046,490896231,21103604,86045,132070,0.171,0.6622886,0.37300003,0.46100003,0.62,0.88,98,5,0.072000004,0.064,0.032,0.009000001,5.3317003,0,nan,0.0,4,1,18
167068016,1626771297600045,490896231,21103605,86059,132085,0.124000005,0.66229355,0.372,0.45800003,0.62,0.88,98,5,0.028,0.006,-0.027,0.001,5.3317003,0,nan,0.0,4,1,18
167267735,1626771297800045,490896231,21103606,86084,132110,0.11800001,0.6622985,0.37100002,0.45600003,0.62,0.88,98,5,0.015000001,0.008,-0.013,-0.001,5.3317003,0,nan,0.0,4,1,18
167467515,1626771298000045,490896231,21103606,86101,132127,0.20700002,0.66230726,0.37,0.453,0.62,0.88,98,5,0.056,-0.025,-0.05,0.063,5.3317003,0,nan,0.0,4,1,18
167667926,1626771298200045,490896231,21103606,86112,132138,0.22200002,0.6623163,0.36900002,0.45200002,0.62,0.88,98,5,0.030000001,0.020000001,0.023000002,-0.064,5.3317003,0,nan,0.0,4,1,18
167867945,1626771298400045,490896231,21103607,86135,132160,0.17,0.66232324,0.36900002,0.45100003,0.62,0.88,98,5,0.024,-0.009000001,0.022000002,0.021000002,5.3317003,0,nan,0.0,4,1,18
168063184,1626771298600045,490896230,21103608,86142,132168,0.21100001,0.6623322,0.36800003,0.44900003,0.62,0.88,98,5,0.05,-0.027,-0.043,0.063,5.3317003,0,nan,0.0,4,1,18
168262211,1626771298800045,490896229,21103608,86132,132158,0.16900001,0.6623392,0.367,0.44700003,0.62,0.88,98,7,0.055000003,-0.054,-0.012,0.004,5.3317003,0,nan,0.0,4,1,18
168467753,1626771299000045,490896228,21103609,86128,132154,0.177,0.6623465,0.36600003,0.446,0.62,0.88,98,7,0.054,0.014,0.052,0.087000005,5.3317003,0,nan,0.0,4,1,18
168667474,1626771299200045,490896228,21103610,86139,132165,0.20500001,0.6623549,0.36600003,0.44400004,0.62,0.88,98,7,0.018000001,-0.0050000004,0.017,-0.062000003,5.3317003,0,nan,0.0,4,1,18
169862434,1626771300400045,490896224,21103610,86182,132208,0.19700001,0.66239536,0.365,0.439,0.62,0.88,98,7,0.041,-0.037,-0.017,0.012,5.3317003,0,nan,0.0,4,1,18
170067326,1626771300600045,490896223,21103610,86189,132215,0.19000001,0.66240317,0.36600003,0.43800002,0.62,0.88,98,7,0.026,0.002,-0.025,-0.046000004,5.3317003,0,nan,0.0,4,1,18
170267478,1626771300800045,490896221,21103608,86183,132209,0.15900001,0.66240966,0.36600003,0.43800002,0.62,0.88,98,7,0.066,-0.059000004,-0.030000001,-0.017,5.3317003,0,nan,0.0,4,1,18
170467985,1626771301000045,490896220,21103608,86182,132207,0.17,0.6624169,0.365,0.437,0.62,0.88,98,7,0.026,-0.010000001,0.024,0.025,5.3317003,0,nan,0.0,4,1,18
170667532,1626771301200045,490896219,21103608,86182,132207,0.22200002,0.66242594,0.36600003,0.437,0.62,0.88,98,7,0.008,0.006,-0.004,-0.039,5.3317003,0,nan,0.0,4,1,18
170862192,1626771301400044,490896218,21103606,86188,132214,0.15200001,0.6624322,0.365,0.43600002,0.62,0.88,98,7,0.052,-0.048,-0.020000001,-0.031000001,5.3317003,0,nan,0.0,4,1,18
171067962,1626771301600044,490896217,21103606,86193,132218,0.18,0.66243964,0.365,0.43500003,0.62,0.88,98,7,0.034,0.033,-0.008,-0.016,5.3317003,0,nan,0.0,4,1,18
171268236,1626771301800044,490896217,21103605,86192,132218,0.186,0.6624474,0.36400002,0.43400002,0.62,0.88,98,7,0.038000003,-0.036000002,-0.013,0.011000001,5.3317003,0,nan,0.0,4,1,18
171468281,1626771302000044,490896216,21103604,86196,132221,0.18300001,0.6624551,0.363,0.43300003,0.62,0.88,98,7,0.010000001,0.009000001,-0.006,-0.009000001,5.3317003,0,nan,0.0,4,1,18
171668211,1626771302200044,490896216,21103604,86215,132241,0.19600001,0.6624631,0.36200002,0.432,0.62,0.88,98,7,0.031000001,-0.002,0.031000001,-0.051000003,5.3317003,0,nan,0.0,4,1,18
171868226,1626771302400044,490896216,21103603,86224,132250,0.21400002,0.6624718,0.36100003,0.43100002,0.62,0.88,98,7,0.018000001,0.018000001,-0.001,-0.024,5.3317003,0,nan,0.0,4,1,18
172068106,1626771302600044,490896216,21103602,86226,132252,0.19800001,0.66248,0.36100003,0.43,0.62,0.88,98,7,0.028,-0.025,-0.012,0.014,5.3317003,0,nan,0.0,4,1,18
172263800,1626771302800044,490896215,21103601,86238,132263,0.17500001,0.6624873,0.36,0.42900002,0.62,0.88,98,7,0.020000001,-0.014,-0.014,-0.033,5.3317003,0,nan,0.0,4,1,18
172467523,1626771303000044,490896215,21103600,86248,132273,0.21800001,0.6624962,0.36,0.42900002,0.62,0.88,98,7,0.023000002,0.023000002,0.001,-0.08400001,5.3317003,0,nan,0.0,4,1,18
172667723,1626771303200044,490896215,21103600,86255,132280,0.18900001,0.66250414,0.35900003,0.42900002,0.62,0.88,98,7,0.011000001,0.007,0.009000001,0.031000001,5.3317003,0,nan,0.0,4,1,18
172868148,1626771303400044,490896215,21103600,86253,132279,0.19800001,0.6625123,0.35900003,0.42900002,0.62,0.88,98,7,0.032,0.028,0.014,-0.016,5.3317003,0,nan,0.0,4,1,18
173067529,1626771303600044,490896215,21103600,86258,132284,0.14,0.662518,0.358,0.42800003,0.62,0.88,98,7,0.029000001,-0.028,-0.006,-0.006,5.3317003,0,nan,0.0,4,1,18
173263457,1626771303800044,490896215,21103600,86272,132297,0.21100001,0.6625268,0.35700002,0.42800003,0.62,0.88,98,7,0.08400001,0.069000006,0.048,-0.075,5.3317003,0,nan,0.0,4,1,18
173468128,1626771304000044,490896216,21103600,86289,132314,0.21900001,0.66253585,0.35700002,0.42800003,0.62,0.88,98,7,0.009000001,-0.008,-0.004,0.053000003,5.3317003,0,nan,0.0,4,1,18
173677690,1626771304200044,490896216,21103599,86295,132320,0.21800001,0.6625449,0.35700002,0.42900002,0.62,0.88,98,7,0.007,-0.007,0.001,0.042000003,5.3317003,0,nan,0.0,4,1,18
173868202,1626771304400044,490896216,21103599,86311,132336,0.22200002,0.662554,0.35700002,0.42900002,0.62,0.88,98,7,0.014,0.014,0.002,-0.035,5.3317003,0,nan,0.0,4,1,18
174067533,1626771304600044,490896216,21103598,86329,132354,0.21200001,0.66256297,0.35700002,0.42900002,0.62,0.88,98,7,0.006,0.003,-0.0050000004,-0.026,5.3317003,0,nan,0.0,4,1,18
174268095,1626771304800044,490896217,21103598,86351,132377,0.22000001,0.662572,0.358,0.42900002,0.62,0.88,98,7,0.034,0.031000001,0.013,-0.039,5.3317003,0,nan,0.0,4,1,18
174467908,1626771305000043,490896217,21103597,86360,132385,0.142,0.6625779,0.35700002,0.42900002,0.62,0.88,98,7,0.015000001,-0.015000001,-0.001,-0.002,5.3317003,0,nan,0.0,4,1,18
174667966,1626771305200043,490896218,21103596,86368,132393,0.162,0.6625846,0.35700002,0.42900002,0.62,0.88,98,7,0.031000001,0.021000002,-0.022000002,-0.019000001,5.3317003,0,nan,0.0,4,1,18
174868071,1626771305400043,490896218,21103596,86379,132404,0.16600001,0.6625915,0.35700002,0.42900002,0.62,0.88,98,7,0.016,0.016,0.001,0.024,5.3317003,0,nan,0.0,4,1,18
175063153,1626771305600043,490896219,21103595,86387,132413,0.16100001,0.6625982,0.356,0.42900002,0.62,0.88,98,7,0.056,0.054,-0.016,-0.017,5.3317003,0,nan,0.0,4,1,18
175267475,1626771305800043,490896220,21103595,86402,132428,0.16800001,0.66260517,0.356,0.42900002,0.62,0.88,98,8,0.014,-0.014,-0.001,0.003,5.3317003,0,nan,0.0,4,1,18
175468187,1626771306000043,490896220,21103594,86418,132444,0.13800001,0.66261077,0.35500002,0.42800003,0.62,0.88,98,8,0.019000001,-0.014,0.014,-0.013,5.3317003,0,nan,0.0,4,1,18
175662416,1626771306200043,490896220,21103594,86431,132456,0.16000001,0.6626174,0.354,0.42800003,0.62,0.88,98,8,0.029000001,-0.027,0.009000001,0.009000001,5.3317003,0,nan,0.0,4,1,18
176467769,1626771307000043,490896221,21103591,86489,132515,0.185,0.6626432,0.351,0.425,0.62,0.88,98,7,0.039,0.009000001,-0.038000003,-0.065000005,5.3317003,0,nan,0.0,4,1,18
176668549,1626771307200043,490896222,21103589,86509,132534,0.21400002,0.6626521,0.351,0.425,0.62,0.88,98,7,0.035,0.034,-0.006,-0.059000004,5.3317003,0,nan,0.0,4,1,18
176863303,1626771307400043,490896222,21103589,86524,132550,0.18400002,0.66265976,0.351,0.425,0.62,0.88,98,7,0.013,0.008,0.011000001,0.033,5.3317003,0,nan,0.0,4,1,18
177067431,1626771307600043,490896222,21103588,86539,132565,0.21300001,0.6626685,0.351,0.42600003,0.62,0.88,98,7,0.040000003,-0.038000003,-0.014,0.032,5.3317003,0,nan,0.0,4,1,18
177263275,1626771307800043,490896222,21103587,86551,132576,0.21900001,0.6626776,0.351,0.42600003,0.62,0.88,98,13,0.018000001,-0.010000001,-0.015000001,0.034,5.3317003,0,nan,0.0,4,1,18
177468211,1626771308000043,490896222,21103585,86572,132597,0.21300001,0.6626863,0.351,0.42600003,0.62,0.88,98,13,0.007,0.002,-0.006,-0.044000003,5.3317003,0,nan,0.0,4,1,18
177663422,1626771308200043,490896222,21103584,86592,132617,0.21700001,0.66269535,0.35200003,0.42600003,0.62,0.88,98,13,0.026,-0.022000002,-0.013,0.023000002,5.3317003,0,nan,0.0,4,1,18
177868219,1626771308400043,490896222,21103583,86619,132645,0.15,0.6627015,0.35200003,0.42700002,0.62,0.88,98,13,0.040000003,-0.015000001,-0.038000003,-0.013,5.3317003,0,nan,0.0,4,1,18
178067517,1626771308600042,490896222,21103581,86638,132664,0.141,0.6627074,0.35200003,0.42700002,0.62,0.88,98,13,0.016,0.0,-0.016,-0.006,5.3317003,0,nan,0.0,4,1,18
178268269,1626771308800042,490896222,21103581,86656,132682,0.21300001,0.66271615,0.35300002,0.42700002,0.62,0.88,98,7,0.036000002,0.034,0.011000001,-0.030000001,5.3317003,0,nan,0.0,4,1,18
178667691,1626771309200042,490896222,21103580,86686,132711,0.16800001,0.6627317,0.35300002,0.42800003,0.62,0.88,98,7,0.018000001,-0.006,0.017,-0.015000001,5.3317003,0,nan,0.0,4,1,18
178867499,1626771309400042,490896222,21103580,86697,132723,0.223,0.66274095,0.354,0.42800003,0.62,0.88,98,7,0.033,-0.030000001,-0.016,0.05,5.3317003,0,nan,0.0,4,1,18
179067520,1626771309600042,490896222,21103579,86706,132732,0.21100001,0.66274965,0.354,0.42800003,0.62,0.88,98,7,0.027,-0.019000001,-0.019000001,0.020000001,5.3317003,0,nan,0.0,4,1,18
179262202,1626771309800042,490896221,21103579,86711,132736,0.21900001,0.6627587,0.354,0.42900002,0.62,0.88,98,7,0.027,-0.027,0.004,0.059000004,5.3317003,0,nan,0.0,4,1,18
179467918,1626771310000042,490896221,21103578,86706,132732,0.223,0.662768,0.35500002,0.43,0.62,0.88,98,7,0.024,-0.011000001,-0.021000002,0.054,5.3317003,0,nan,0.0,4,1,18
179668180,1626771310200042,490896221,21103578,86722,132747,0.16700001,0.662775,0.356,0.43100002,0.62,0.88,98,7,0.029000001,0.020000001,0.021000002,0.0050000004,5.3317003,0,nan,0.0,4,1,18
179867908,1626771310400042,490896221,21103578,86729,132755,0.15400001,0.66278124,0.35700002,0.432,0.62,0.88,98,7,0.032,-0.008,-0.031000001,-0.017,5.3317003,0,nan,0.0,4,1,18
180067316,1626771310600042,490896221,21103577,86736,132762,0.133,0.66278684,0.35700002,0.43300003,0.62,0.88,98,7,0.034,0.030000001,-0.016,0.016,5.3317003,0,nan,0.0,4,1,18
180267438,1626771310800042,490896221,21103577,86743,132768,0.22500001,0.6627961,0.358,0.43400002,0.62,0.88,98,7,0.021000002,-0.019000001,-0.010000001,0.022000002,5.3317003,0,nan,0.0,4,1,18
180467952,1626771311000042,490896220,21103576,86744,132770,0.171,0.6628033,0.35900003,0.43500003,0.62,0.88,98,7,0.076000005,-0.047000002,-0.060000002,-0.008,5.3317003,0,nan,0.0,4,1,18
181862513,1626771312400041,490896216,21103572,86707,132733,0.15100001,0.662857,0.363,0.439,0.62,0.88,98,7,0.030000001,0.024,0.018000001,0.015000001,5.3317003,0,nan,0.0,4,1,18
182062323,1626771312600041,490896217,21103572,86715,132741,0.179,0.6628644,0.363,0.439,0.62,0.88,98,7,0.031000001,0.029000001,0.011000001,-0.004,5.3317003,0,nan,0.0,4,1,18
182267483,1626771312800041,490896217,21103572,86710,132736,0.15200001,0.6628706,0.363,0.439,0.62,0.88,98,7,0.043,-0.026,-0.034,-0.014,5.3317003,0,nan,0.0,4,1,18
182467461,1626771313000041,490896216,21103571,86705,132731,0.23200001,0.66288024,0.36400002,0.44000003,0.62,0.88,98,7,0.026,-0.021000002,-0.015000001,0.047000002,5.3317003,0,nan,0.0,4,1,18
182667701,1626771313200041,490896216,21103571,86692,132717,0.172,0.6628874,0.363,0.439,0.62,0.88,98,7,0.013,0.008,0.011000001,0.020000001,5.3317003,0,nan,0.0,4,1,18
182868123,1626771313400041,490896216,21103571,86693,132718,0.21400002,0.66289634,0.363,0.439,0.62,0.88,98,7,0.006,-0.004,0.004,0.053000003,5.3317003,0,nan,0.0,4,1,18
183072214,1626771313600041,490896216,21103571,86687,132712,0.22000001,0.6629054,0.36200002,0.439,0.62,0.88,98,7,0.010000001,-0.007,-0.008,0.030000001,5.3317003,0,nan,0.0,4,1,18
183272152,1626771313800041,490896216,21103571,86675,132700,0.11800001,0.6629102,0.36200002,0.43800002,0.62,0.88,98,7,0.026,0.018000001,-0.019000001,0.003,5.3317003,0,nan,0.0,4,1,18
183472161,1626771314000041,490896217,21103571,86679,132704,0.18100001,0.66291773,0.36100003,0.437,0.62,0.88,98,7,0.057000004,0.047000002,0.032,-0.010000001,5.3317003,0,nan,0.0,4,1,18
183671456,1626771314200041,490896219,21103572,86698,132724,0.19900002,0.6629259,0.35900003,0.43400002,0.62,0.88,98,7,0.048,0.048,-0.006,-0.051000003,5.3317003,0,nan,0.0,4,1,18
183867527,1626771314400041,490896219,21103572,86697,132723,0.16100001,0.6629326,0.358,0.43300003,0.62,0.88,98,7,0.029000001,0.014,0.025,0.027,5.3317003,0,nan,0.0,4,1,18
184067948,1626771314600041,490896220,21103573,86700,132725,0.18300001,0.6629402,0.358,0.432,0.62,0.88,98,7,0.014,-0.010000001,0.010000001,-0.029000001,5.3317003,0,nan,0.0,4,1,18
184268575,1626771314800041,490896220,21103573,86706,132732,0.19000001,0.66294813,0.358,0.432,0.62,0.88,98,7,0.044000003,0.044000003,-0.004,-0.019000001,5.3317003,0,nan,0.0,4,1,18
184472146,1626771315000041,490896221,21103572,86705,132730,0.15900001,0.66295475,0.358,0.432,0.62,0.88,98,7,0.017,-0.014,-0.010000001,-0.013,5.3317003,0,nan,0.0,4,1,18
184668906,1626771315200041,490896221,21103572,86695,132720,0.156,0.66296124,0.35900003,0.43300003,0.62,0.88,98,7,0.027,-0.027,0.004,-0.024,5.3317003,0,nan,0.0,4,1,18
184873432,1626771315400041,490896221,21103572,86682,132707,0.194,0.66296923,0.35900003,0.43300003,0.62,0.88,98,7,0.019000001,0.006,0.019000001,0.052,5.3317003,0,nan,0.0,4,1,18
185071512,1626771315600041,490896222,21103571,86668,132694,0.16100001,0.66297585,0.35900003,0.43300003,0.62,0.88,98,7,0.029000001,-0.010000001,-0.027,0.0050000004,5.3317003,0,nan,0.0,4,1,18
185272197,1626771315800041,490896222,21103570,86660,132686,0.21200001,0.6629847,0.35900003,0.432,0.62,0.88,98,7,0.009000001,0.007,-0.0050000004,-0.042000003,5.3317003,0,nan,0.0,4,1,18
185472167,1626771316000040,490896223,21103570,86656,132682,0.216,0.66299367,0.358,0.432,0.62,0.88,98,7,0.065000005,0.056,0.034,-0.07,5.3317003,0,nan,0.0,4,1,18
185668184,1626771316200040,490896224,21103570,86663,132689,0.142,0.6629996,0.358,0.43100002,0.62,0.88,98,7,0.041,-0.039,0.011000001,-0.021000002,5.3317003,0,nan,0.0,4,1,18
185877725,1626771316400040,490896224,21103570,86664,132689,0.19600001,0.6630076,0.358,0.432,0.62,0.88,98,7,0.014,0.007,-0.013,-0.023000002,5.3317003,0,nan,0.0,4,1,18
186082436,1626771316600040,490896225,21103570,86668,132694,0.187,0.6630153,0.35900003,0.432,0.62,0.88,98,7,0.014,0.0050000004,-0.013,0.021000002,5.3317003,0,nan,0.0,4,1,18
186277783,1626771316800040,490896225,21103570,86659,132685,0.15,0.6630216,0.35900003,0.43300003,0.62,0.88,98,7,0.034,-0.015000001,-0.031000001,-0.017,5.3317003,0,nan,0.0,4,1,18
186472148,1626771317000040,490896226,21103569,86664,132690,0.22500001,0.66303086,0.36,0.43300003,0.62,0.88,98,7,0.010000001,-0.009000001,-0.0050000004,0.023000002,5.3317003,0,nan,0.0,4,1,18
186668142,1626771317200040,490896226,21103569,86648,132674,0.202,0.6630392,0.36,0.43400002,0.62,0.88,98,7,0.024,-0.003,-0.024,0.034,5.3317003,0,nan,0.0,4,1,18
186868144,1626771317400040,490896227,21103569,86633,132659,0.22000001,0.66304827,0.36,0.43400002,0.62,0.88,98,7,0.003,0.002,-0.002,-0.027,5.3317003,0,nan,0.0,4,1,18
187072156,1626771317600040,490896227,21103569,86634,132659,0.209,0.66305685,0.35900003,0.43400002,0.62,0.88,98,7,0.029000001,-0.028,0.007,0.027,5.3317003,0,nan,0.0,4,1,18
187268488,1626771317800040,490896227,21103570,86626,132652,0.17500001,0.6630642,0.35900003,0.43400002,0.62,0.88,98,7,0.039,-0.029000001,0.026,-0.058000002,5.3317003,0,nan,0.0,4,1,18
187478408,1626771318000040,490896227,21103570,86628,132654,0.156,0.6630706,0.36,0.43500003,0.62,0.88,98,7,0.015000001,0.001,-0.015000001,-0.010000001,5.3317003,0,nan,0.0,4,1,18
187667974,1626771318200040,490896227,21103570,86612,132638,0.148,0.6630767,0.36,0.43500003,0.62,0.89,98,7,0.016,-0.015000001,0.008,0.001,5.3317003,0,nan,0.0,4,1,18
187867889,1626771318400040,490896227,21103570,86607,132633,0.19500001,0.66308475,0.36,0.43600002,0.62,0.89,98,7,0.049000002,-0.049000002,0.009000001,0.020000001,5.3317003,0,nan,0.0,4,1,18
188068325,1626771318600040,490896227,21103570,86602,132627,0.209,0.6630933,0.36100003,0.437,0.62,0.89,98,7,0.019000001,-0.003,-0.019000001,0.032,5.3317003,0,nan,0.0,4,1,18
188272194,1626771318800040,490896226,21103569,86576,132601,0.185,0.663101,0.36100003,0.43800002,0.62,0.89,98,7,0.049000002,-0.006,-0.049000002,0.040000003,5.3317003,0,nan,0.0,4,1,18
188472152,1626771319000040,490896227,21103568,86574,132599,0.223,0.6631102,0.36100003,0.43800002,0.62,0.89,98,7,0.030000001,-0.022000002,-0.021000002,0.066,5.3317003,0,nan,0.0,4,1,18
188672165,1626771319200040,490896226,21103567,86553,132578,0.19600001,0.6631184,0.36100003,0.43800002,0.62,0.89,98,7,0.071,-0.026,-0.066,0.059000004,5.3317003,0,nan,0.0,4,1,18
188872184,1626771319400040,490896227,21103567,86542,132568,0.209,0.663127,0.36100003,0.43800002,0.62,0.89,98,7,0.032,-0.025,0.020000001,0.049000002,5.3317003,0,nan,0.0,4,1,18
189072217,1626771319600040,490896227,21103568,86534,132560,0.18900001,0.6631348,0.36100003,0.439,0.62,0.89,98,7,0.018000001,0.002,0.018000001,-0.017,5.3317003,0,nan,0.0,4,1,18
189272172,1626771319800039,490896227,21103567,86521,132547,0.16700001,0.66314185,0.36100003,0.439,0.62,0.89,98,6,0.024,0.021000002,-0.012,-0.008,5.3317003,0,nan,0.0,4,1,18
189467525,1626771320000039,490896227,21103567,86514,132539,0.201,0.6631502,0.36,0.43800002,0.62,0.89,98,6,0.022000002,0.017,0.014,-0.014,5.3317003,0,nan,0.0,4,1,18
189672149,1626771320200039,490896228,21103567,86505,132531,0.135,0.66315585,0.358,0.43600002,0.62,0.89,98,6,0.015000001,0.014,-0.004,0.006,5.3317003,0,nan,0.0,4,1,18
189873358,1626771320400039,490896227,21103567,86496,132522,0.185,0.6631635,0.35500002,0.43400002,0.62,0.89,98,6,0.09,-0.078,-0.045,0.043,5.3317003,0,nan,0.0,4,1,18
190072160,1626771320600039,490896227,21103567,86504,132529,0.17500001,0.66317064,0.35300002,0.432,0.62,0.89,98,6,0.019000001,0.012,0.015000001,-0.008,5.3317003,0,nan,0.0,4,1,18
190273523,1626771320800039,490896228,21103567,86509,132535,0.165,0.6631775,0.351,0.43,0.62,0.89,98,6,0.021000002,-0.011000001,-0.018000001,-0.027,5.3317003,0,nan,0.0,4,1,18
190472222,1626771321000039,490896228,21103567,86520,132545,0.18400002,0.6631851,0.35000002,0.42800003,0.62,0.89,98,6,0.036000002,-0.034,-0.012,0.017,5.3317003,0,nan,0.0,4,1,18
190672163,1626771321200039,490896228,21103568,86518,132543,0.201,0.66319335,0.34800002,0.42600003,0.62,0.89,98,6,0.045,0.015000001,0.043,-0.086,5.3317003,0,nan,0.0,4,1,18
190871446,1626771321400039,490896229,21103570,86522,132548,0.127,0.6631986,0.34600002,0.425,0.62,0.89,98,6,0.021000002,-0.008,0.020000001,-0.004,5.3317003,0,nan,0.0,4,1,18
191071488,1626771321600039,490896230,21103571,86516,132542,0.15400001,0.6632051,0.34600002,0.42400002,0.62,0.89,98,6,0.025,0.014,0.021000002,0.0,5.3317003,0,nan,0.0,4,1,18
191272274,1626771321800039,490896231,21103571,86515,132541,0.17400001,0.6632122,0.34600002,0.42400002,0.62,0.89,98,6,0.022000002,0.017,-0.015000001,-0.015000001,5.3317003,0,nan,0.0,4,1,18
191472174,1626771322000039,490896231,21103571,86507,132533,0.19500001,0.6632202,0.34600002,0.42400002,0.62,0.89,98,6,0.007,-0.0050000004,0.006,0.012,5.3317003,0,nan,0.0,4,1,18
191671470,1626771322200039,490896232,21103570,86498,132524,0.17500001,0.66322756,0.34600002,0.42400002,0.62,0.89,98,6,0.031000001,0.015000001,-0.027,0.037,5.3317003,0,nan,0.0,4,1,18
191872163,1626771322400039,490896233,21103570,86496,132522,0.21900001,0.6632366,0.34600002,0.42400002,0.62,0.89,98,6,0.006,-0.004,-0.004,0.014,5.3317003,0,nan,0.0,4,1,18
192067995,1626771322600039,490896233,21103570,86488,132514,0.15,0.6632429,0.34600002,0.425,0.62,0.89,98,6,0.020000001,0.006,0.019000001,0.001,5.3317003,0,nan,0.0,4,1,18
192271354,1626771322800039,490896233,21103571,86487,132512,0.16000001,0.6632494,0.347,0.425,0.62,0.89,98,6,0.019000001,-0.019000001,0.002,-0.001,5.3317003,0,nan,0.0,4,1,18
193478407,1626771324000038,490896233,21103571,86391,132417,0.21900001,0.6632969,0.349,0.42600003,0.62,0.89,98,5,0.007,0.007,-0.001,-0.025,5.3317003,0,nan,0.0,4,1,18
193667963,1626771324200038,490896233,21103571,86371,132397,0.21700001,0.66330594,0.35000002,0.42600003,0.62,0.89,98,5,0.019000001,0.019000001,-0.0050000004,-0.043,5.3317003,0,nan,0.0,4,1,18
193867532,1626771324400038,490896234,21103571,86364,132389,0.21900001,0.6633148,0.35000002,0.42600003,0.62,0.89,98,5,0.006,-0.006,-0.003,0.059000004,5.3317003,0,nan,0.0,4,1,18
194067726,1626771324600038,490896234,21103571,86352,132377,0.22100002,0.6633239,0.351,0.42700002,0.62,0.89,98,5,0.015000001,-0.014,-0.0050000004,0.058000002,5.3317003,0,nan,0.0,4,1,18
194262189,1626771324800038,490896234,21103571,86337,132363,0.16100001,0.6633307,0.351,0.42700002,0.62,0.89,98,5,0.008,-0.006,-0.0050000004,-0.006,5.3317003,0,nan,0.0,4,1,18
194467532,1626771325000038,490896234,21103571,86323,132349,0.19600001,0.6633387,0.35000002,0.42600003,0.62,0.89,98,5,0.026,-0.002,-0.026,0.042000003,5.3317003,0,nan,0.0,4,1,18
194662229,1626771325200038,490896235,21103571,86308,132333,0.186,0.6633464,0.349,0.425,0.62,0.89,98,5,0.020000001,0.019000001,-0.0050000004,0.045,5.3317003,0,nan,0.0,4,1,18
194862308,1626771325400038,490896236,21103572,86301,132327,0.18300001,0.66335386,0.34800002,0.425,0.62,0.89,98,5,0.024,0.020000001,0.014,0.047000002,5.3317003,0,nan,0.0,4,1,18
195067525,1626771325600038,490896237,21103573,86288,132314,0.14600001,0.66336,0.347,0.42400002,0.62,0.89,98,5,0.020000001,0.017,-0.010000001,0.012,5.3317003,0,nan,0.0,4,1,18
195267502,1626771325800038,490896238,21103573,86293,132318,0.19000001,0.66336787,0.347,0.423,0.62,0.89,98,5,0.024,0.023000002,0.008,-0.010000001,5.3317003,0,nan,0.0,4,1,18
195468160,1626771326000038,490896238,21103574,86303,132328,0.21100001,0.6633766,0.34600002,0.423,0.62,0.89,98,5,0.009000001,-0.007,-0.0050000004,0.016,5.3317003,0,nan,0.0,4,1,18
195668180,1626771326200038,490896239,21103574,86302,132328,0.17600001,0.6633839,0.34500003,0.42200002,0.62,0.89,98,5,0.025,0.004,0.025,0.032,5.3317003,0,nan,0.0,4,1,18
195868336,1626771326400038,490896239,21103575,86306,132331,0.17500001,0.66339105,0.344,0.42200002,0.62,0.89,98,5,0.020000001,-0.017,-0.010000001,-0.028,5.3317003,0,nan,0.0,4,1,18
196072164,1626771326600038,490896240,21103575,86312,132338,0.17400001,0.66339827,0.344,0.42200002,0.62,0.89,98,5,0.044000003,0.035,-0.026,-0.029000001,5.3317003,0,nan,0.0,4,1,18
196272209,1626771326800038,490896241,21103576,86316,132342,0.19900002,0.6634065,0.34300002,0.42100003,0.62,0.89,98,5,0.064,0.046000004,0.045,-0.054,5.3317003,0,nan,0.0,4,1,18
196468135,1626771327000038,490896241,21103576,86306,132332,0.156,0.66341287,0.34300002,0.42100003,0.62,0.89,98,5,0.024,-0.016,-0.017,-0.008,5.3317003,0,nan,0.0,4,1,18
196672181,1626771327200037,490896242,21103577,86300,132325,0.15900001,0.6634195,0.342,0.42100003,0.62,0.89,98,5,0.052,0.032,0.041,0.007,5.3317003,0,nan,0.0,4,1,18
196863354,1626771327400037,490896243,21103577,86297,132323,0.187,0.6634272,0.342,0.42100003,0.62,0.89,98,5,0.022000002,0.013,-0.017,0.042000003,5.3317003,0,nan,0.0,4,1,18
197067970,1626771327600037,490896243,21103576,86292,132318,0.162,0.663434,0.342,0.42100003,0.62,0.89,98,5,0.022000002,-0.002,-0.022000002,-0.018000001,5.3317003,0,nan,0.0,4,1,18
197268228,1626771327800037,490896243,21103576,86286,132311,0.19600001,0.663442,0.342,0.42000002,0.62,0.89,98,5,0.041,-0.033,-0.024,0.027,5.3317003,0,nan,0.0,4,1,18
197462258,1626771328000037,490896243,21103576,86282,132308,0.18800001,0.6634499,0.34100002,0.42000002,0.62,0.89,98,5,0.016,-0.014,-0.008,-0.046000004,5.3317003,0,nan,0.0,4,1,18
197668024,1626771328200037,490896243,21103576,86285,132311,0.158,0.6634563,0.34100002,0.41900003,0.62,0.89,98,5,0.010000001,-0.007,-0.007,-0.002,5.3317003,0,nan,0.0,4,1,18
197868144,1626771328400037,490896242,21103576,86273,132299,0.194,0.66346437,0.34,0.41900003,0.62,0.89,98,5,0.058000002,-0.053000003,-0.025,0.039,5.3317003,0,nan,0.0,4,1,18
198067717,1626771328600037,490896242,21103576,86265,132290,0.177,0.6634717,0.34,0.418,0.62,0.89,98,5,0.034,0.031000001,0.015000001,-0.011000001,5.3317003,0,nan,0.0,4,1,18
198267970,1626771328800037,490896242,21103576,86250,132276,0.192,0.66347957,0.33900002,0.418,0.62,0.89,98,5,0.019000001,0.010000001,-0.016,0.051000003,5.3317003,0,nan,0.0,4,1,18
198467729,1626771329000037,490896242,21103577,86254,132280,0.20600002,0.6634881,0.33800003,0.41700003,0.62,0.89,98,5,0.029000001,-0.024,-0.016,0.037,5.3317003,0,nan,0.0,4,1,18
198667741,1626771329200037,490896242,21103578,86258,132284,0.16000001,0.66349477,0.33800003,0.41700003,0.62,0.89,98,5,0.07,0.052,0.048,0.052,5.3317003,0,nan,0.0,4,1,18
198867532,1626771329400037,490896242,21103579,86254,132279,0.15400001,0.66350126,0.337,0.41700003,0.62,0.89,98,5,0.072000004,-0.043,-0.058000002,-0.015000001,5.3317003,0,nan,0.0,4,1,18
199067941,1626771329600037,490896242,21103579,86259,132285,0.186,0.6635089,0.337,0.416,0.62,0.89,98,5,0.011000001,-0.003,-0.011000001,0.011000001,5.3317003,0,nan,0.0,4,1,18
199268140,1626771329800037,490896243,21103580,86257,132283,0.16600001,0.6635157,0.337,0.416,0.62,0.89,98,5,0.030000001,0.022000002,0.020000001,-0.001,5.3317003,0,nan,0.0,4,1,18
199478528,1626771330000037,490896244,21103581,86264,132289,0.147,0.66352177,0.33600003,0.416,0.62,0.89,98,5,0.030000001,0.030000001,-0.001,0.007,5.3317003,0,nan,0.0,4,1,18
199667725,1626771330200037,490896244,21103581,86261,132287,0.14600001,0.6635277,0.33600003,0.41500002,0.62,0.89,98,5,0.031000001,-0.030000001,0.007,-0.020000001,5.3317003,0,nan,0.0,4,1,18
199867722,1626771330400037,490896243,21103583,86256,132282,0.149,0.66353405,0.335,0.41500002,0.62,0.89,98,5,0.060000002,0.001,0.060000002,0.032,5.3317003,0,nan,0.0,4,1,18
200068065,1626771330600037,490896244,21103584,86256,132281,0.19500001,0.66354203,0.335,0.41500002,0.62,0.89,98,5,0.011000001,-0.010000001,-0.0050000004,-0.05,5.3317003,0,nan,0.0,4,1,18
200267185,1626771330800036,490896244,21103585,86254,132280,0.16700001,0.6635489,0.335,0.41500002,0.62,0.89,98,5,0.034,0.018000001,0.029000001,0.036000002,5.3317003,0,nan,0.0,4,1,18
200468195,1626771331000036,490896246,21103587,86251,132276,0.162,0.5256844,0.335,0.41500002,0.62,0.89,98,5,0.24300002,0.21400002,0.115,0.012,6.219607,0,nan,0.0,4,1,18
200668241,1626771331200036,490896261,21103599,86281,132307,0.16600001,0.081009805,0.335,0.41400003,0.62,0.89,98,5,1.58,1.3870001,0.75600004,-0.063,0.48567694,0,nan,0.0,4,1,18
200867511,1626771331400036,490896297,21103628,86301,132326,0.208,0.048334625,0.337,0.41700003,0.62,0.89,98,5,3.0110002,2.6660001,1.3980001,-0.208,0.48365605,0,nan,0.0,4,1,18
201067467,1626771331600036,490896355,21103674,86336,132361,0.20700002,0.033574197,0.34100002,0.42000002,0.62,0.89,98,5,4.4350004,3.9620001,1.9930001,-0.125,0.47143888,0,nan,0.0,4,1,18
201268328,1626771331800036,490896436,21103739,86350,132375,0.20500001,0.023043059,0.344,0.423,0.62,0.89,98,6,5.761,5.0810003,2.7150002,0.037,0.48552057,0,nan,0.0,4,1,18
201468151,1626771332000036,490896536,21103821,86391,132416,0.20700002,0.019960282,0.347,0.425,0.62,0.89,98,6,6.8680005,6.043,3.2640002,-0.37,0.49230272,0,nan,0.0,4,1,18
201662195,1626771332200036,490896654,21103918,86379,132405,0.2,0.016128762,0.349,0.42700002,0.62,0.89,98,6,8.184,7.2170005,3.8600001,0.36200002,0.49109182,0,nan,0.0,4,1,18
202268178,1626771332800036,490897119,21104292,86427,132452,0.19500001,0.012023398,0.356,0.43600002,0.62,0.89,98,5,11.158001,9.97,5.0090003,-0.646,0.46552292,0,nan,0.0,4,1,18
203472259,1626771334000036,490898524,21105052,88763,134788,0.187,0.010003878,0.36100003,0.44700003,0.65,0.89,98,5,14.904,14.686001,2.5400002,-4.873,0.17125066,0,nan,0.0,4,1,17
203668304,1626771334200036,490898795,21105115,89634,135660,0.209,0.0103522455,0.363,0.44900003,0.65,0.89,98,5,15.6310005,15.493001,2.071,-4.0220003,0.13291223,0,nan,0.0,4,1,17
203868248,1626771334400036,490899079,21105166,90462,136487,0.19900002,0.010198831,0.36400002,0.45100003,0.62,0.89,98,5,16.101,16.023,1.5860001,-4.0600004,0.09864967,0,nan,0.0,4,1,18
204068044,1626771334600035,490899372,21105203,91210,137236,0.16800001,0.009525658,0.365,0.45100003,0.62,0.89,98,5,16.751001,16.713001,1.1270001,-3.4720001,0.06733777,0,nan,0.0,4,1,18
204268548,1626771334800035,490899679,21105228,91751,137776,0.162,0.009228777,0.365,0.45200002,0.62,0.89,98,5,17.393002,17.379002,0.69000006,-2.1790001,0.03970502,0,nan,0.0,4,1,18
204467406,1626771335000035,490899997,21105243,92050,138076,0.162,0.009065414,0.365,0.453,0.62,0.89,98,5,18.02,18.015001,0.41500002,-1.016,0.02302316,0,nan,0.0,4,1,18
204663166,1626771335200035,490900326,21105252,92193,138219,0.158,0.008925962,0.365,0.45400003,0.62,0.89,98,5,18.570002,18.567001,0.279,-0.63600004,0.015033917,0,nan,0.0,4,1,18
204863173,1626771335400035,490900666,21105258,92334,138359,0.163,0.0080834925,0.365,0.455,0.62,0.89,98,5,19.205002,19.204,0.19000001,-0.59900004,0.00986844,0,nan,0.0,4,1,18
205068217,1626771335600035,490901015,21105263,92498,138523,0.16000001,0.00798523,0.365,0.455,0.62,0.89,98,5,19.644001,19.642,0.263,-1.1240001,0.013411109,0,nan,0.0,4,1,18
205267543,1626771335800035,490901370,21105270,92758,138783,0.156,0.00830864,0.36400002,0.45600003,0.62,0.89,105,5,19.894001,19.893002,0.22900002,-1.695,0.011519346,0,nan,0.0,4,1,18
205472247,1626771336000035,490901730,21105275,93118,139144,0.17400001,0.008862258,0.365,0.45800003,0.62,0.89,105,5,20.077002,20.076,0.19900002,-2.025,0.009911899,0,nan,0.0,4,1,18
