timestamp,timestamp_sample,accel_device_id,gyro_device_id,delta_angle[0],delta_angle[1],delta_angle[2],delta_velocity[0],delta_velocity[1],delta_velocity[2],delta_angle_dt,delta_velocity_dt,delta_velocity_clipping
128610530,128609848,2359330,2359330,-2.3872995e-05,2.7744292e-05,-2.7877957e-05,-0.0012732509,-0.00016911334,-0.049884494,5000,5000,0
129110523,129109848,2359330,2359330,-1.3294669e-05,-1.0452586e-05,1.4466354e-05,-0.0008740575,-0.00044874407,-0.049119454,4962,4962,0
129610485,129609892,2359330,2359330,4.5158067e-05,-1.1358116e-05,-3.310525e-05,-0.0013317883,-0.0002523933,-0.049570393,5035,5035,0
130110457,130109848,2359330,2359330,3.311135e-05,3.0596884e-06,-1.8704075e-05,-0.001203433,-0.0002479318,-0.049105942,4999,4999,0
130610435,130609848,2359330,2359330,1.8740424e-05,-3.2224946e-06,-1.9037276e-05,-0.0011372172,-0.00034265427,-0.049302086,4996,4996,0
131110501,131109878,2359330,2359330,-1.6825074e-05,-1.1055946e-05,-7.307601e-06,-0.0012006962,-0.0003909402,-0.049628302,5030,5030,0
131610475,131609850,2359330,2359330,1.7438188e-05,-8.8887e-06,-5.6676313e-06,-0.0012418877,-0.0003365759,-0.049164254,5000,5000,0
132110520,132109848,2359330,2359330,3.894541e-05,-1.11149875e-05,-1.03618295e-05,-0.0011138751,-0.00044516407,-0.049295258,5000,5000,0
132610458,132609848,2359330,2359330,3.0659998e-05,-1.2951011e-05,-1.8048193e-05,-0.0012668285,-0.00028791878,-0.04928759,4993,4993,0
133110665,133109848,2359330,2359330,-5.550296e-06,2.1533767e-06,-1.2540625e-05,-0.0012003109,-0.000450372,-0.049041532,4985,4985,0
133610542,133609848,2359330,2359330,-0.00015663082,8.291741e-06,2.8088261e-05,-0.0017119641,0.0011860463,-0.04859608,5000,5000,0
134110520,134109848,2359330,2359330,-2.9609482e-06,-3.301404e-05,-2.2030072e-06,-0.0012112794,-0.00050673314,-0.04773655,4987,4987,0
134610543,134609848,2359330,2359330,4.8740385e-05,-6.852009e-05,-8.1777e-06,-0.0011551877,-2.6554755e-05,-0.050863508,4990,4990,0
135110450,135109848,2359330,2359330,8.048075e-05,-5.0120685e-05,-2.9000259e-05,-0.0014468475,-0.0004277476,-0.05097863,4999,4999,0
135610451,135609848,2359330,2359330,7.945758e-05,-4.906738e-05,-1.1107466e-05,-0.0019341352,-0.00019049647,-0.049869236,5000,5000,0
136110497,136109848,2359330,2359330,1.5644928e-05,6.2251474e-06,-1.1983599e-05,-0.0010674411,0.0008678691,-0.04703761,4997,4997,0
136610476,136609848,2359330,2359330,5.2514137e-05,1.937936e-05,-4.455359e-05,0.0028884953,0.0014954014,-0.050092645,4999,4999,0
137110450,137109861,2359330,2359330,0.00011239005,-1.15217945e-05,-1.8062101e-05,0.00023477915,0.002167203,-0.050388888,4978,4978,0
137610480,137609891,2359330,2359330,-0.00020707467,-3.819221e-05,2.9296107e-05,-0.0024024865,-0.0064452463,-0.046807114,5042,5042,0
138110473,138109848,2359330,2359330,3.8620696e-05,2.9453213e-05,5.01159e-06,-0.0017521249,5.396903e-05,-0.05051578,5000,5000,0
138610561,138609914,2359330,2359330,-8.8178684e-05,2.533657e-05,1.3345828e-05,-0.0005163169,0.00010146074,-0.049094856,4996,4996,0
139110486,139109848,2359330,2359330,7.871939e-05,-9.060878e-06,-1.7782933e-05,1.633274e-05,0.0022661765,-0.05121713,5000,5000,0
139610561,139609873,2359330,2359330,-4.451972e-06,4.4367513e-05,-1.6472794e-05,-0.002076678,0.00020754525,-0.04674416,4962,4962,0
140110549,140109848,2359330,2359330,-3.7513746e-05,1.7042465e-05,8.788847e-06,-0.0015422357,-0.0033834423,-0.048272055,4990,4990,0
140610440,140609850,2359330,2359330,0.00012697303,-3.7141563e-05,-1.4378164e-05,-0.00016547709,-0.00042859017,-0.051626746,5001,5001,0
141110457,141109851,2359330,2359330,-6.352345e-06,-2.0375328e-05,-1.9364605e-05,-0.0005568051,0.0009770587,-0.04995575,4965,4965,0
141610499,141609848,2359330,2359330,0.00022258823,-9.5016265e-05,-4.078071e-05,-0.0013417667,0.0027651754,-0.049899776,5000,5000,0
142110447,142109848,2359330,2359330,0.00019702982,5.9969294e-05,-3.6732286e-05,0.00071517256,-0.0015916869,-0.05165663,5000,5000,0
142610473,142609848,2359330,2359330,-1.7017159e-05,2.2561885e-06,-1.8255518e-05,-0.0007908037,-0.0022231515,-0.052753586,5000,5000,0
145110503,145109877,2359330,2359330,3.3225653e-05,2.883096e-06,-2.171243e-05,-0.0010203636,-0.00017332302,-0.048867732,4962,4962,0
145610447,145609851,2359330,2359330,1.494797e-05,-8.25227e-06,-9.118675e-06,-0.0010318083,-0.00024205964,-0.04934025,5002,5002,0
146110488,146109851,2359330,2359330,-8.907163e-06,-6.0702173e-06,-1.5861768e-05,-0.0010262374,-0.00031139844,-0.048873287,4946,4946,0
146610621,146609851,2359330,2359330,3.038458e-06,-1.7448695e-06,-1.9053394e-06,-0.00090084615,-0.00026230645,-0.049211223,5000,5000,0
147110489,147109852,2359330,2359330,2.7329263e-05,-2.6362543e-06,-1.6163704e-05,-0.0010112324,-0.0003568194,-0.049317785,4993,4993,0
147610538,147609848,2359330,2359330,1.1748823e-05,-1.1355676e-06,-1.15300045e-05,-0.0009085477,-0.00025198318,-0.049033806,4980,4980,0
148110510,148109896,2359330,2359330,5.6854556e-06,-1.2942498e-05,-1.5724105e-05,-0.00084956,-0.00022473648,-0.049738016,5048,5048,0
148610448,148609850,2359330,2359330,2.4896837e-05,-8.353758e-06,-1.1120219e-05,-0.00089962437,-0.0003795229,-0.04925748,5002,5002,0
149110455,149109850,2359330,2359330,6.8224654e-06,3.4832763e-06,-1.384421e-05,-0.0009132821,-0.00034030172,-0.049137026,4997,4997,0
149610473,149609862,2359330,2359330,3.383673e-05,1.931889e-06,-1.5911324e-05,-0.0009568754,-0.00029509712,-0.048824504,4963,4963,0
150110499,150109848,2359330,2359330,3.1669817e-05,1.6267739e-05,-6.8343936e-05,-0.0012245022,-0.00049979385,-0.049108256,4968,4968,0
150610472,150609848,2359330,2359330,-3.1181407e-06,1.2130628e-05,-3.3465785e-05,-0.00102462,-0.0001028808,-0.049274135,5000,5000,0
151110453,151109878,2359330,2359330,9.274419e-06,-4.2940505e-06,-1.6260383e-05,-0.00075588265,-0.0004029681,-0.049208906,5002,5002,0
151610475,151609881,2359330,2359330,3.172643e-05,-8.082383e-06,-1.112206e-05,-0.0010017174,-0.0003378316,-0.049321096,4994,4994,0
152110488,152109851,2359330,2359330,2.4096853e-05,5.18437e-06,-8.5831525e-06,-0.0010364407,-0.0002905568,-0.04927946,5000,5000,0
152610512,152609862,2359330,2359330,-1.443201e-06,-4.8550655e-06,-8.056074e-06,-0.0009665789,-0.00023707908,-0.049258076,5007,5007,0
153110568,153109848,2359330,2359330,3.1476204e-06,-4.8782713e-06,-1.3394796e-05,-0.0009523864,-0.00040167657,-0.048754405,4968,4968,0
153610441,153609848,2359330,2359330,6.918777e-06,-6.935845e-06,-5.916546e-06,-0.0009682637,-0.00031917496,-0.049078222,4987,4987,0
154110498,154109852,2359330,2359330,2.4477215e-05,-4.6056803e-06,-2.1284312e-05,-0.0008261167,-0.00034499812,-0.049207993,5004,5004,0
154610446,154609849,2359330,2359330,2.7131542e-05,-1.9904744e-06,-1.3301244e-05,-0.0009535159,-0.00034060064,-0.04887095,4955,4955,0
155110485,155109848,2359330,2359330,1.25978695e-05,-8.176544e-06,-1.0546634e-05,-0.0009528739,-0.00039911442,-0.049194966,5000,5000,0
155610485,155609851,2359330,2359330,7.908567e-06,-1.479601e-05,-1.1773017e-05,-0.0008748767,-0.0003181622,-0.048407074,4917,4917,0
156110433,156109870,2359330,2359330,-2.0383595e-05,-1.33382255e-05,-1.3198181e-05,-0.0009557796,-0.0002750744,-0.049113877,4995,4995,0
156610446,156609848,2359330,2359330,1.2500897e-05,-1.2641271e-05,-1.2941108e-05,-0.00089258776,-0.00039153706,-0.04917721,4997,4997,0
157110519,157109852,2359330,2359330,4.9985418e-05,1.0858022e-05,-1.5949865e-05,-0.0008875432,-0.00021183454,-0.049059194,4991,4991,0
157610472,157609848,2359330,2359330,3.2690778e-06,-1.0891943e-05,-1.3353752e-05,-0.00091641274,-0.00013307433,-0.0491367,4992,4992,0
158110615,158109951,2359330,2359330,-2.5123642e-05,-9.493371e-06,-1.8748569e-06,-0.0009339264,-0.00035324183,-0.049348503,5013,5013,0
158610453,158609889,2359330,2359330,8.422994e-06,-9.97911e-07,3.4580303e-06,-0.0009830114,-0.00033064396,-0.049678974,5039,5039,0
159110564,159109848,2359330,2359330,4.418181e-05,-4.990166e-06,-1.6086518e-05,-0.00088435167,-0.00032579232,-0.048815526,4947,4947,0
159610408,159609848,2359330,2359330,2.254944e-05,-9.13841e-06,-1.621021e-05,-0.0008781442,-0.00014463808,-0.048794404,4959,4959,0
160110532,160109848,2359330,2359330,-2.8599337e-05,-6.4011056e-06,-8.707064e-06,-0.0009535623,-0.00039553177,-0.0491967,5000,5000,0
160610546,160609848,2359330,2359330,7.717451e-06,-7.145387e-06,-1.6485166e-05,-0.0008116831,-0.00030458506,-0.04866682,4968,4968,0
161110611,161109908,2359330,2359330,1.792841e-05,-4.75626e-06,-5.5524197e-06,-0.0009115103,-0.00037347467,-0.049567863,5031,5031,0
162610490,162609858,2359330,2359330,1.6734342e-05,-8.0343716e-07,-1.2368864e-05,-0.0008130617,-0.0002536078,-0.049319442,5010,5010,0
163110498,163109848,2359330,2359330,-0.00023739082,-0.0006851324,-0.0013773539,-0.0022341635,0.0001967182,-0.050333593,5000,5000,0
163610494,163609848,2359330,2359330,0.00016249083,0.00086049153,-0.00042576584,0.0015922476,-0.0021165037,-0.04945786,5000,5000,0
164110440,164109845,2359330,2359330,-3.5171506e-05,6.962025e-05,-7.870566e-05,-0.0021646083,-0.00047557143,-0.047792967,4986,4986,0
164610407,164609848,2359330,2359330,1.1317976e-06,5.081512e-07,-3.7419646e-05,-0.0016430714,-0.000821611,-0.048772264,4954,4954,0
165110485,165109848,2359330,2359330,3.163224e-05,2.9939542e-06,-2.0678835e-05,-0.0011383444,-0.00079485297,-0.04934093,4987,4987,0
165610566,165609850,2359330,2359330,2.6953545e-05,-6.686564e-06,-6.5069526e-06,-0.0012883717,-0.00081325334,-0.049224716,4988,4988,0
166110687,166109893,2359330,2359330,2.6122087e-05,3.5883065e-06,-9.124716e-06,-0.0011941101,-0.0007451516,-0.049260374,5010,5010,0
166610500,166609848,2359330,2359330,9.21415e-06,6.6032403e-06,-1.2555124e-05,-0.0011949423,-0.00076609687,-0.04915316,5000,5000,0
167110443,167109848,2359330,2359330,1.37163715e-05,-1.7808154e-05,-1.5567479e-05,-0.0011820928,-0.0007973932,-0.04920182,5000,5000,0
167610500,167609849,2359330,2359330,1.873749e-05,1.6881322e-06,-1.6254457e-05,-0.0011080495,-0.00077307323,-0.049002133,5001,5001,0
168110489,168109860,2359330,2359330,-0.00024455157,-0.0002564259,0.00016841148,-0.0015173921,-0.0005565258,-0.050131276,4997,4997,0
168610484,168609848,2359330,2359330,0.00013089669,0.0011515094,-7.774669e-05,-0.0027600236,0.0012881361,-0.049494267,4999,4999,0
170110412,170109849,2359330,2359330,1.4136702e-05,-6.62491e-06,-1.0159608e-05,-0.0011051954,-0.0003479723,-0.04920148,4998,4998,0
170610491,170609848,2359330,2359330,-0.00011253408,-1.2971761e-05,1.3802124e-05,-0.000978278,-0.00073222193,-0.049395144,5000,5000,0
171110501,171109888,2359330,2359330,2.0026815e-05,5.0178937e-06,-6.921927e-06,-0.0009033697,-0.0009341261,-0.048860237,4973,4973,0
171610541,171609848,2359330,2359330,0.000113947994,-2.977525e-06,-2.5513107e-05,-0.00096384686,-0.00075267634,-0.049291875,5000,5000,0
172110457,172109851,2359330,2359330,4.751741e-06,-1.1764767e-05,-8.476863e-06,-0.0009946019,-0.00044076913,-0.049115255,4994,4994,0
172610483,172609848,2359330,2359330,-4.954029e-05,-7.51972e-06,-2.4071398e-06,-0.0010503868,-0.0007383508,-0.049249403,5000,5000,0
173110493,173109853,2359330,2359330,5.8160276e-06,-3.5031846e-07,-1.4090338e-05,-0.00100135,-0.00086456706,-0.049323786,5005,5005,0
173610472,173609848,2359330,2359330,6.11848e-05,-2.9824341e-06,-2.2528387e-05,-0.0010010975,-0.0007011412,-0.049217302,5000,5000,0
174110478,174109848,2359330,2359330,4.07784e-05,1.4942339e-07,-1.4365278e-05,-0.00096493703,-0.00074720883,-0.048985895,4980,4980,0
174610421,174609851,2359330,2359330,-2.8383834e-05,-4.3488876e-06,5.5099366e-07,-0.0009599201,-0.0005814417,-0.048856057,4964,4964,0
175110447,175109851,2359330,2359330,-8.16789e-06,1.3708143e-07,1.1611232e-07,-0.0010927914,-0.0007859288,-0.049221072,4994,4994,0
175610484,175609855,2359330,2359330,3.6263013e-05,8.348231e-06,-8.984474e-06,-0.0011066217,-0.00070577493,-0.049383897,5007,5007,0
176610545,176609914,2359330,2359330,-9.091213e-06,1.3781215e-07,-5.1869038e-06,-0.0010056191,-0.00069325045,-0.049143054,4993,4993,0
177110443,177109848,2359330,2359330,-4.4287535e-06,-5.610674e-06,-3.1107477e-06,-0.000913686,-0.00074884895,-0.049208146,5000,5000,0
177610528,177609853,2359330,2359330,1.7511307e-05,-4.988955e-06,-1.782556e-05,-0.000932466,-0.00076265563,-0.048342984,4920,4920,0
178110599,178109848,2359330,2359330,2.1702821e-05,1.953703e-06,-1.5245076e-05,-0.0010441386,-0.00066178193,-0.049232766,4986,4986,0
178610515,178609848,2359330,2359330,7.462277e-06,-6.680392e-06,-1.2132902e-05,-0.0009583837,-0.0006865818,-0.04922798,4991,4991,0
179110474,179109851,2359330,2359330,1.0776781e-05,-7.035659e-06,-2.2920615e-07,-0.0010137749,-0.0007162292,-0.049210623,5002,5002,0
179610541,179609891,2359330,2359330,8.785758e-06,-3.524677e-07,-1.2362042e-05,-0.001052414,-0.0008151727,-0.049607653,5025,5025,0
180110450,180109860,2359330,2359330,4.4575727e-06,-1.50324795e-05,-1.271716e-05,-0.001727154,-0.0007302095,-0.049370002,5012,5012,0
180610444,180609848,2359330,2359330,-2.1347405e-06,-6.969168e-06,1.5171213e-06,-0.0008124671,-0.000626066,-0.049504746,5000,5000,0
182110468,182109848,2359330,2359330,3.098872e-05,-1.572411e-06,-3.7875009e-06,-0.00084463373,-0.0007199946,-0.049115248,4991,4991,0
182610541,182609927,2359330,2359330,1.0308893e-05,-1.5241353e-05,-1.0827939e-05,-0.0010579731,-0.0007475294,-0.04933776,4992,4992,0
183110480,183109850,2359330,2359330,3.1204945e-05,4.984579e-07,-1.1573033e-05,-0.0009874362,-0.00060997554,-0.049222462,5002,5002,0
183610604,183609848,2359330,2359330,1.3845662e-05,-9.705299e-07,-1.47098945e-05,-0.0010278949,-0.0005256222,-0.04928554,4998,4998,0
184110472,184109848,2359330,2359330,9.525659e-06,-4.50114e-06,-1.4321762e-05,-0.0011003433,-0.00067724346,-0.04883976,4962,4962,0
184610543,184609848,2359330,2359330,3.327684e-05,7.927072e-05,-8.424548e-05,0.0006189057,-0.0014096062,-0.04954711,4984,4984,0
185110443,185109848,2359330,2359330,-3.739755e-05,-8.308896e-05,7.1809576e-05,-0.0017641049,-0.00033482997,-0.05182707,4990,4990,0
185610444,185609849,2359330,2359330,3.7267346e-05,2.7466426e-06,-3.6443027e-05,-0.00031302078,-0.0015477586,-0.050534368,4998,4998,0
186110473,186109873,2359330,2359330,4.145549e-05,-2.9318646e-05,0.0001664981,-0.0009686142,-0.00010183396,-0.049041774,4998,4998,0
186610500,186609848,2359330,2359330,4.975495e-06,5.9918143e-06,-1.4478085e-05,-0.00058963516,-0.0009740246,-0.048772488,5000,5000,0
187110476,187109849,2359330,2359330,2.9526569e-05,-9.8026176e-05,-3.0887026e-05,0.00025204977,-0.0011055105,-0.04823601,4997,4997,0
187610442,187609848,2359330,2359330,3.3348897e-05,-1.3685628e-05,-3.5764486e-05,-0.0008431419,0.0012020717,-0.04884365,5000,5000,0
188110459,188109848,2359330,2359330,-5.7096695e-05,6.211017e-05,-3.0520723e-06,-0.001834329,-0.00087535835,-0.049124833,4999,4999,0
188610502,188609851,2359330,2359330,2.2726726e-05,-1.4671921e-06,2.2402844e-05,-0.0006354496,-0.0018580088,-0.04896995,4988,4988,0
189110468,189109848,2359330,2359330,1.695332e-05,6.5963046e-05,-1.7434306e-05,-0.00047233386,-0.0010122646,-0.04892568,5000,5000,0
189610540,189609848,2359330,2359330,-6.161812e-05,5.8621023e-05,-6.5189306e-06,0.0004153482,-0.0010219141,-0.05026813,4978,4978,0
190110487,190109899,2359330,2359330,5.332097e-05,-1.513559e-05,-2.0540367e-06,0.001391848,-3.0150806e-05,-0.0501598,5040,5040,0
190610501,190609848,2359330,2359330,-0.00019885584,0.0001464692,1.1621473e-05,-0.00063971005,-0.006483837,-0.047395688,5000,5000,0
191110487,191109870,2359330,2359330,0.00017538996,-0.00023894588,-3.375329e-05,-0.00011236449,0.00067620963,-0.0487977,4917,4917,0
191610491,191609848,2359330,2359330,0.00023861989,-0.0002805962,-7.839907e-05,-0.0048304745,-0.0005968213,-0.047351148,5000,5000,0
192110492,192109848,2359330,2359330,-0.00014370114,-0.00012463733,2.4212246e-05,0.001284946,0.002233896,-0.048969798,4968,4968,0
193610442,193609851,2359330,2359330,-8.3001476e-05,-0.00052630674,-8.840657e-05,-0.013866801,-0.0047139674,-0.050656192,5000,5000,0
194110515,194109883,2359330,2359330,-4.2840857e-05,0.000119714095,-1.2012242e-06,-0.011666898,0.0020836547,-0.044705726,5005,5005,0
194610501,194609848,2359330,2359330,0.000111218455,-0.00031092844,-5.0497805e-05,-0.0033953448,-0.0021901364,-0.049571488,4996,4996,0
195110511,195109848,2359330,2359330,0.00021118869,6.8400244e-05,-6.9167036e-05,0.00044292002,0.00096341444,-0.047413275,4999,4999,0
195610530,195609852,2359330,2359330,-5.829502e-05,-3.3470802e-05,9.672416e-06,-0.004424865,8.4485204e-05,-0.045896716,5002,5002,0
196110426,196109863,2359330,2359330,0.00029858924,-0.00022505858,2.492033e-05,-0.0017791569,-0.0009886314,-0.04802816,4984,4984,0
196610530,196609848,2359330,2359330,-0.0003899224,-9.433608e-06,9.5613366e-05,-3.6187044e-05,-0.0006440874,-0.05122449,5000,5000,0
197110526,197109851,2359330,2359330,0.00015887925,-5.16017e-05,-0.00012077105,-0.0024984567,-0.0015659854,-0.04905795,5000,5000,0
197610472,197609848,2359330,2359330,-0.000117122305,-0.00012508746,-2.9523562e-05,-0.0027305547,-0.002282794,-0.045435768,4996,4996,0
198110490,198109848,2359330,2359330,9.943845e-05,-0.00017826275,-3.1397005e-05,-0.0018668803,0.00026934344,-0.046189055,5000,5000,0
198610447,198609848,2359330,2359330,-9.573287e-05,7.380301e-05,-0.0001264455,-0.004073704,-0.0016546828,-0.048190605,4998,4998,0
199110501,199109851,2359330,2359330,0.00012441195,-0.0002164588,-3.285008e-05,-0.0037213478,-0.00027027077,-0.049454477,5000,5000,0
199610592,199609895,2359330,2359330,0.00043229543,4.0718855e-06,-9.749224e-05,-0.00036530785,-0.0009766559,-0.04804902,5047,5047,0
200110500,200109886,2359330,2359330,-0.00020335462,0.00017222782,0.00010028909,-0.0010348128,0.0010227677,-0.04944734,4980,4980,0
200610475,200609889,2359330,2359330,-0.00037339085,-0.0009301558,-0.00012000245,0.021923147,0.0017303886,-0.065249875,5041,5041,0
201110490,201109894,2359330,2359330,-0.0004934681,0.0002877398,0.00063744455,0.033834558,-0.035328064,-0.028148647,5009,5009,0
201610577,201609849,2359330,2359330,-0.0015697087,0.0032887433,0.00016321526,-0.006756073,-0.0069050337,-0.09630483,4997,4997,0
202275515,202274849,2359330,2359330,-0.0008038453,-0.0012024912,-0.001544262,0.027401714,-0.0039985767,-0.043752283,5001,5001,0
203610402,203609849,2359330,2359330,0.0016816279,-0.0010742493,6.7777044e-05,0.01656339,-0.00030218114,-0.0464968,5001,5001,0
204110459,204109861,2359330,2359330,0.0010196989,-0.0006448258,-0.00011572266,0.018788148,-0.0036914998,-0.01946546,5005,5005,0
204610516,204609848,2359330,2359330,0.0019282306,-0.0001399554,7.777344e-05,0.012439351,-0.011147938,-0.035717428,4997,4997,0
205110468,205109848,2359330,2359330,0.000281033,0.0011609043,-0.00033341398,0.008879788,-0.010814923,-0.06695167,4993,4993,0
205610483,205609856,2359330,2359330,-0.00018120941,0.0013228492,1.5087347e-05,0.009796032,-0.008003483,-0.087231666,4994,4994,0
206110418,206109853,2359330,2359330,0.0005464138,0.000784931,-0.00020255739,0.0050767986,-0.012591572,-0.058932453,4998,4998,0
206610464,206609851,2359330,2359330,0.0016268207,-0.00019512042,-0.00010513978,0.009753068,-0.01392075,-0.014464934,5000,5000,0
207110557,207109848,2359330,2359330,-0.00094344537,-3.1234755e-05,0.00051312015,0.008381248,-0.0123168975,-0.052861586,5000,5000,0
207610481,207609857,2359330,2359330,-0.0008327097,0.0004043914,0.0005914546,0.009203871,-0.012204962,-0.061417643,5006,5006,0
208610455,208609848,2359330,2359330,0.00037069598,-0.00027075523,0.00010767135,0.0059979307,-0.010640875,-0.04157326,4984,4984,0
209110454,209109848,2359330,2359330,0.0010158491,-3.9860897e-05,-9.769363e-05,0.0038388874,-0.011600002,-0.047865223,5000,5000,0
209610511,209609852,2359330,2359330,-0.0035321033,-0.0004822108,0.00020311562,0.009595362,-0.011086365,-0.06313516,5004,5004,0
210110481,210109850,2359330,2359330,0.0033137696,-0.00074568525,0.00039964324,0.014346245,-0.007989115,0.0132250115,4995,4995,0
210610524,210609848,2359330,2359330,0.000662532,0.00021492853,3.3925858e-06,0.006300913,-0.012461683,-0.048014954,4980,4980,0
211110436,211109882,2359330,2359330,-0.0012421679,0.00015225701,9.030811e-05,0.0060722018,-0.016966704,-0.057638567,5031,5031,0
211610512,211609901,2359330,2359330,-0.00064905477,2.6402322e-05,0.00057676435,0.0066107647,-0.016037866,-0.042865064,4996,4996,0
212110460,212109848,2359330,2359330,-0.00034482585,0.00023091491,0.00055714825,0.008383035,-0.018297693,-0.058248725,5000,5000,0
212610625,212609851,2359330,2359330,0.0002696005,0.00019890639,-0.00013232265,0.0045067677,-0.013840725,-0.04626398,5000,5000,0
213110590,213109851,2359330,2359330,-0.0007064608,0.00011922744,-0.00039825498,0.004643779,-0.017587405,-0.05935624,4969,4969,0
213610489,213609854,2359330,2359330,-0.0022065116,0.00012451138,0.00057813537,0.007637195,-0.016047528,-0.059974957,5006,5006,0
214110465,214109873,2359330,2359330,-0.0020659885,0.00065914454,0.00029324935,0.009131647,-0.011911768,-0.061267648,5025,5025,0
214610480,214609848,2359330,2359330,-0.0022086476,0.00044692715,-0.00024170257,0.00931361,-0.0100424355,-0.0626722,4993,4993,0
216110448,216109848,2359330,2359330,-0.0005120734,-0.00014752311,-0.0007703559,0.0066196984,-0.00026901925,-0.035964813,4981,4981,0
216610441,216609848,2359330,2359330,0.0017142926,0.0009385462,-0.0016692634,0.009962993,-0.0012526391,-0.055904515,5000,5000,0
217110445,217109850,2359330,2359330,0.0013387632,0.00028131602,-0.0019420225,0.0045091244,-0.005160335,-0.056758992,4953,4953,0
217610478,217609851,2359330,2359330,-0.00048631427,0.0004445801,-0.0012951106,0.009778979,-0.008863124,-0.056038503,4949,4949,0
218110597,218109881,2359330,2359330,-0.000651219,0.0009243248,-0.0006124596,0.006763872,-0.0044574942,-0.059487354,5014,5014,0
218610547,218609854,2359330,2359330,0.00015964906,0.00064931536,-0.0006103454,0.0041502435,-0.0011772392,-0.061708327,5002,5002,0
219110493,219109849,2359330,2359330,-0.00020832158,0.0013563348,-0.00028310364,0.009415334,0.0012262191,-0.06368375,4981,4981,0
219610532,219609851,2359330,2359330,0.00077704806,0.0004909025,-0.00024102948,0.0053659296,0.0050166375,-0.05528825,5000,5000,0
220610476,220609848,2359330,2359330,-0.0004139329,0.00047768684,-0.00060986495,0.008563595,0.0073257857,-0.05361139,5000,5000,0
221110470,221109864,2359330,2359330,-0.0011879242,0.00011881021,-0.0005327363,0.0097337635,0.008667619,-0.043337185,5014,5014,0
221610485,221609889,2359330,2359330,-0.002111502,5.360965e-05,-0.0012576713,0.01027188,0.009940725,-0.026170228,5041,5041,0
222110449,222109857,2359330,2359330,-0.001482741,0.0008464244,-0.0012613082,0.010030476,0.0075587505,-0.036345027,5007,5007,0
222610436,222609879,2359330,2359330,0.00027964034,0.0018002295,-0.001303806,0.00839905,0.0058738505,-0.056773894,5004,5004,0
223110482,223109848,2359330,2359330,0.0013077013,0.0012960542,-0.0012177221,0.005984147,0.010368874,-0.044404533,5000,5000,0
223610509,223609848,2359330,2359330,0.0022231843,0.0013179411,-0.0023524496,0.006417492,0.009689292,-0.06908846,4963,4963,0
224110591,224109849,2359330,2359330,0.00298131,0.0016101558,-0.0027658157,0.004247685,0.004546606,-0.08327676,4954,4954,0
225610478,225609848,2359330,2359330,0.0004193104,0.0010126632,-0.00065300945,0.005022369,-0.0005304986,-0.058821704,5000,5000,0
226110450,226109848,2359330,2359330,0.0029478525,-0.0002213412,-0.0013289931,0.006861885,0.0012298359,-0.047222007,4954,4954,0
226610515,226609848,2359330,2359330,0.003062342,-0.00047807663,-0.0015306931,0.0056105126,-0.00519009,-0.036204237,4997,4997,0
227110440,227109848,2359330,2359330,-0.0017400166,-0.00084852055,2.2658316e-05,0.003829702,-0.0092303995,-0.035606034,5000,5000,0
227610450,227609892,2359330,2359330,-0.00063240627,-0.00028379264,0.00028305003,0.0038610527,-0.0041597146,-0.04654633,5006,5006,0
228110487,228109850,2359330,2359330,0.00024820652,-0.00028925244,0.00019792769,0.002085701,0.00017544576,-0.042788554,5000,5000,0
228610471,228609848,2359330,2359330,0.0030593448,9.245649e-07,-0.00044466642,0.003928392,0.0030517587,-0.054549977,4992,4992,0
229110550,229109848,2359330,2359330,0.0025055583,-0.0003395854,-0.0011064449,0.0058767446,-0.00074398564,-0.028971488,4978,4978,0
229610569,229609861,2359330,2359330,-0.00048131275,-0.0003976591,-0.00088166003,0.005196836,-0.0082544,-0.038584918,5013,5013,0
230110430,230109851,2359330,2359330,-0.0020508948,-0.00047317392,0.00039861712,0.0030432094,-0.0091403965,-0.0471402,5003,5003,0
230610545,230609848,2359330,2359330,-0.00078574126,-2.9086099e-05,0.00014761965,0.0007168905,-0.0064284275,-0.06460925,5000,5000,0
231110450,231109848,2359330,2359330,6.668596e-05,0.00035254256,-5.975148e-05,0.004557584,-0.003916192,-0.06431786,4956,4956,0
231610474,231609848,2359330,2359330,0.0015152676,-9.366386e-05,-0.0007724407,0.000569511,-0.004610554,-0.03479309,4980,4980,0
233610475,233609848,2359330,2359330,0.00027085692,0.00035147186,-0.00028385586,-0.015850505,-0.009099371,-0.057305135,5000,5000,0
234110506,234109848,2359330,2359330,0.0024299251,8.012971e-06,-0.00084863196,-0.0038101152,-0.0043851985,-0.047027096,4878,4878,0
234610494,234609848,2359330,2359330,0.00087089627,-0.00013869705,-0.00075687637,-0.0032049494,-0.0055579827,-0.04316222,5000,5000,0
235110550,235109848,2359330,2359330,4.4515225e-05,-0.00036398912,-0.00090537575,-4.3280306e-05,-0.0071228794,-0.033243023,5000,5000,0
235610480,235609888,2359330,2359330,-0.001311058,-0.00030518573,-0.00047093292,-0.0025092498,-0.0091571,-0.055570234,5034,5034,0
236610486,236609848,2359330,2359330,-0.0006469454,0.00014321895,-0.00045472334,0.006697414,-0.0053268257,-0.048059482,5000,5000,0
237110534,237109851,2359330,2359330,1.9646615e-05,-0.00027371556,-0.0008281768,-0.0040622014,-0.00794468,-0.05266306,5000,5000,0
237610455,237609894,2359330,2359330,-0.0017988413,-0.00016849452,-0.0006386426,-0.0046836585,-0.0069345073,-0.048727036,5009,5009,0
238110459,238109850,2359330,2359330,-0.0004518034,0.0003388889,-0.0006759617,-0.005240004,-0.0037053695,-0.0437303,4991,4991,0
238610541,238609855,2359330,2359330,-0.00044446622,0.0015594474,-0.0007752714,-0.0032259973,-0.0027985843,-0.06994985,5007,5007,0
239110483,239109863,2359330,2359330,0.000888834,0.00049663836,-0.0010560364,0.00062528934,-0.002109296,-0.064352944,5002,5002,0
239610481,239609851,2359330,2359330,0.00028326202,8.828986e-05,-0.0009863906,-0.0067076804,-0.001494559,-0.04638985,4983,4983,0
240110559,240109849,2359330,2359330,-9.1458365e-05,0.0006154013,-0.00066813146,-0.0029657725,-0.0030832784,-0.053477846,5001,5001,0
240610511,240609848,2359330,2359330,-0.00010356282,0.0006251955,-0.00046741922,0.004297102,-0.0017043394,-0.061890434,5000,5000,0
241110536,241109850,2359330,2359330,-0.0010358343,-0.000104398125,7.019172e-05,-0.0005314511,0.0025993313,-0.046562027,4974,4974,0
241610526,241609849,2359330,2359330,-0.00087101717,-0.00039663634,-4.877163e-05,-0.000892437,0.0066337357,-0.037612937,4990,4990,0
242110483,242109865,2359330,2359330,-0.0025099963,3.6392335e-05,-0.00017260453,0.0041315635,0.010568165,-0.030759946,4997,4997,0
242610502,242609894,2359330,2359330,-0.0020471807,0.0004645913,-0.0014822084,-0.004352482,0.012828386,-0.034961086,5006,5006,0
243110455,243109859,2359330,2359330,0.0017077798,0.0013008403,-0.0023552813,-0.0009940083,0.0077706645,-0.056922395,5009,5009,0
243610443,243609848,2359330,2359330,0.0020487404,0.0013809145,-0.0019350325,-0.004242782,0.005875441,-0.07310285,5000,5000,0
244110470,244109848,2359330,2359330,0.00080195203,0.0016367357,-0.00095174817,-0.006154653,0.00074437895,-0.0903897,5000,5000,0
244610505,244609848,2359330,2359330,-0.00087654125,-7.536189e-05,-0.000658199,-0.0048314612,0.0054695057,-0.044262994,4956,4956,0
245110473,245109848,2359330,2359330,-0.0007424403,-0.0008068919,-0.00034103586,-0.006063212,0.0076000253,-0.028582592,5000,5000,0
245610443,245609849,2359330,2359330,-0.000955619,5.038447e-05,-0.0007771644,0.0021392955,0.007854041,-0.03967582,5001,5001,0
246110597,246109848,2359330,2359330,0.0009628446,-0.00068305293,-0.0012608789,-0.0053076954,0.009512217,-0.03123868,4964,4964,0
248610447,248609848,2359330,2359330,-0.0013450041,0.00027132232,0.0012385361,0.000321647,-0.0070070927,-0.054334383,4948,4948,0
249110478,249109848,2359330,2359330,-0.0004020557,0.0002565775,0.00088168983,-0.00079408597,0.0012092422,-0.048876897,5000,5000,0
249610485,249609848,2359330,2359330,0.0012595855,-0.00010490983,3.315014e-05,-0.0023977426,0.0034763652,-0.04597767,4999,4999,0
250110467,250109848,2359330,2359330,0.00015825576,0.00030967745,-9.627924e-05,-0.0022990766,0.0006332931,-0.055040795,4993,4993,0
250610446,250609848,2359330,2359330,0.00027941004,0.00031400617,-0.00021242589,-0.0034584042,-0.00013741266,-0.053633526,5000,5000,0
251110445,251109855,2359330,2359330,-0.00037125108,0.00015515543,-0.00014522398,-0.005237426,-0.006592037,-0.05095154,4982,4982,0
251610541,251609848,2359330,2359330,-0.00089063944,0.00035942433,6.319348e-05,-0.0046809977,-0.0073261824,-0.05537155,4999,4999,0
252110473,252109848,2359330,2359330,-0.0007372754,0.00031864792,-1.7033333e-05,-0.0041640378,-0.009571811,-0.05973996,5000,5000,0
252610588,252609878,2359330,2359330,-0.00029671344,0.000108638684,-0.00036817056,-0.0017152455,-0.00990732,-0.04482895,5002,5002,0
253110493,253109889,2359330,2359330,-0.0003316749,-0.00021501868,-0.00055156066,-0.0061084377,-0.0120892795,-0.047752924,5041,5041,0
253610456,253609848,2359330,2359330,0.00035281605,0.0020208822,-0.0013987459,-0.0035465797,-0.017857198,-0.07967636,5000,5000,0
254110443,254109848,2359330,2359330,-0.0005822803,-0.0010489419,-0.00041827012,0.0039435513,-0.018689673,-0.04988817,4997,4997,0
254610482,254609848,2359330,2359330,0.0015467718,-0.0027224445,0.0012832172,0.0076661822,-0.0064327028,0.042572226,5000,5000,0
255110462,255109848,2359330,2359330,0.0020572168,0.0025564292,-0.0004921613,-0.0056356248,-0.0073097004,-0.06923911,4956,4956,0
255610518,255609890,2359330,2359330,-0.001788063,0.0026182025,-0.0013297893,-0.007045973,-0.02108479,-0.1283447,5041,5041,0
256110419,256109848,2359330,2359330,-0.0017220716,-0.0011003242,0.00042745343,-0.0026440064,-0.019713469,-0.040826127,4980,4980,0
256610443,256609848,2359330,2359330,0.0007256503,-0.0049642995,0.0012728984,0.012154801,-0.0029403677,0.07309084,4974,4974,0
257110598,257109850,2359330,2359330,0.00023179258,0.0017128992,-0.00048117325,-0.0045869965,-0.0051088543,-0.053429198,5002,5002,0
257610467,257609873,2359330,2359330,-0.0023243206,0.0022342429,-0.0018776179,-0.009748647,-0.022582129,-0.123531535,4995,4995,0
258110538,258109848,2359330,2359330,-0.0031162775,-0.0011317326,0.00030629878,-0.006519781,-0.020642092,-0.050687637,4998,4998,0
258610456,258609848,2359330,2359330,-0.0010538738,0.001544101,-8.662817e-05,-0.005895722,-0.00964083,-0.07515684,5000,5000,0
259110454,259109848,2359330,2359330,-0.0003192699,0.0012266639,-0.0018142387,-0.008188099,-0.011464247,-0.08305819,5000,5000,0
259610480,259609852,2359330,2359330,-0.002816788,-0.00022109931,-0.0010070242,-0.0028349478,-0.01416863,-0.05318438,4990,4990,0
260110473,260109848,2359330,2359330,0.0002113717,0.0009975384,-0.001033229,-0.0046300823,-0.0057222727,-0.06243377,4985,4985,0
260610481,260609851,2359330,2359330,0.0013171314,0.0017680405,-0.0020269032,-0.0061261132,-0.007783982,-0.088640116,4988,4988,0
261110523,261109893,2359330,2359330,-0.00018965227,0.0013992613,-0.0019372364,-0.0022905616,-0.008663429,-0.069755435,5039,5039,0
261610439,261609848,2359330,2359330,0.0005186521,0.001568399,-0.0015403138,0.000818216,-0.009370215,-0.08024511,4991,4991,0
263610470,263609889,2359330,2359330,0.00021366662,0.000116049334,-0.0003168599,0.0065952544,0.0007940643,-0.045221597,5041,5041,0
264110440,264109849,2359330,2359330,-0.0014819892,0.00050198426,0.0002693386,-0.0020110079,0.0043851538,-0.049481776,5001,5001,0
264610460,264609863,2359330,2359330,-0.0010221857,0.00017311353,-7.089844e-05,0.004862666,0.009064349,-0.04559698,5015,5015,0
265110493,265109857,2359330,2359330,-0.00020451982,-0.00019318606,-0.00086362654,0.0016118768,0.008506877,-0.040888745,5009,5009,0
265610508,265609848,2359330,2359330,-0.0010633817,0.0004467158,-0.00087308435,-0.0018564233,0.01019349,-0.03630836,4968,4968,0
266110506,266109848,2359330,2359330,-0.0011697657,0.00097261224,-0.00076432666,0.0023715927,0.010986594,-0.049754728,4993,4993,0
266610492,266609853,2359330,2359330,0.0007413149,0.0016723196,-0.0012644775,5.219571e-05,0.010685299,-0.066426486,4989,4989,0
267110456,267109851,2359330,2359330,-0.00053623744,0.0011499975,-0.00083801884,-0.0024614886,0.011980936,-0.05728316,4994,4994,0
268110544,268109848,2359330,2359330,5.1908784e-05,0.0013917395,-0.0010866524,-0.0037225264,0.011436236,-0.059836466,5000,5000,0
268610521,268609848,2359330,2359330,0.0017791882,0.0006190135,-0.001458292,-0.007806728,0.010210803,-0.059322126,5000,5000,0
269110466,269109871,2359330,2359330,0.0015823195,0.0010152739,-0.0007615032,-0.0072651533,0.009215602,-0.065609165,5023,5023,0
269610447,269609849,2359330,2359330,0.0026096378,-0.00024889995,-0.00070840004,-0.005814421,0.01024246,-0.053740267,5001,5001,0
270110517,270109848,2359330,2359330,0.001559355,-0.00010981283,-0.0007695368,-0.006098444,0.010788168,-0.05158794,5000,5000,0
270610477,270609851,2359330,2359330,0.0014489235,0.00011350637,-0.00041611365,-0.004879595,0.0031460833,-0.04656646,5000,5000,0
271110498,271109848,2359330,2359330,0.000351869,2.2187736e-05,0.0006276261,-0.0076037114,0.004765625,-0.050234765,5000,5000,0
271610443,271609853,2359330,2359330,0.00060015323,-0.0004081842,0.00044683207,-0.007828525,0.009067464,-0.037051946,5001,5001,0
272110497,272109908,2359330,2359330,-0.0010431454,-0.00025090863,-0.0017139956,-0.01164606,0.0010504473,-0.042973686,4990,4990,0
272610480,272609860,2359330,2359330,-0.0010041704,-9.764123e-05,0.0013591625,-0.011171194,-0.0045120097,-0.047664218,5000,5000,0
274110535,274109892,2359330,2359330,0.0003844385,3.75464e-05,0.0021365979,-0.009825728,0.0008434014,-0.044769235,5041,5041,0
274610459,274609848,2359330,2359330,0.0016153876,-0.0006256498,-0.0013003642,-0.009343772,0.013608236,-0.03802582,5000,5000,0
275110442,275109848,2359330,2359330,-0.0017612054,0.00033814416,-0.000934938,-0.0071120174,-0.007337542,-0.06107326,4993,4993,0
275610487,275609848,2359330,2359330,-0.000781963,0.0005597428,-0.000100616286,-0.011105887,-0.00485433,-0.06973169,5000,5000,0
276110540,276109848,2359330,2359330,0.00080991397,0.00059085403,-0.00030720144,-0.015776802,-0.004429294,-0.08639102,4968,4968,0
276610473,276609848,2359330,2359330,-0.0008404677,0.00014491746,0.00049685966,-0.010726343,0.007369712,-0.05228808,5000,5000,0
277110442,277109848,2359330,2359330,0.005748506,-0.00089300884,-0.0023056604,-0.0072877314,0.0012126614,-0.023999661,5000,5000,0
277610625,277609863,2359330,2359330,-0.004382603,1.2338872e-05,-0.00094635744,-0.0007386592,-0.016244179,-0.056312636,5009,5009,0
278110488,278109848,2359330,2359330,-0.004473481,-0.00041444635,0.0025797726,-0.004321907,-0.00427939,-0.055152144,5000,5000,0
278610540,278609848,2359330,2359330,0.0052773277,-0.00059343607,-0.0012945171,-0.00074761285,0.007789104,-0.031253964,5000,5000,0
279110476,279109848,2359330,2359330,0.003130835,-0.0003575912,-0.002576278,-0.0011562532,-0.0022569948,-0.040631965,4997,4997,0
279610504,279609857,2359330,2359330,-0.0031877642,-0.00069088273,-0.00038739844,0.0044396366,-0.01923235,-0.037653677,5008,5008,0
280110437,280109848,2359330,2359330,-1.0910362e-05,1.17564e-05,0.0007820953,-0.003939818,-0.005927902,-0.040060114,5000,5000,0
280610493,280609848,2359330,2359330,0.0048264493,0.00030948027,-0.0026130388,-0.0065673185,-0.011718123,-0.05774726,4996,4996,0
281110497,281109851,2359330,2359330,0.0025147519,-0.0009393878,-0.0012966109,0.0018642101,-0.023189826,-0.011686129,5000,5000,0
281610472,281609848,2359330,2359330,-0.0035552136,-0.0005267782,0.0022915353,0.004077316,-0.01484926,-0.018701252,4996,4996,0
282610421,282609859,2359330,2359330,-0.0019546787,0.0008135134,-7.1495095e-05,-0.0068053124,-0.0035592748,-0.070466876,4999,4999,0
283110529,283109848,2359330,2359330,-0.0035769383,0.00055266224,3.2255255e-05,-0.005250937,-0.0007726614,-0.07219434,4996,4996,0
283610526,283609848,2359330,2359330,-0.0030124418,0.00017651508,-0.00012738012,-0.004022754,0.0031613372,-0.04328803,4994,4994,0
284110546,284109851,2359330,2359330,0.0017688257,0.00073773036,-0.001791321,-0.0032890877,0.002384023,-0.0533474,4991,4991,0
284610484,284609889,2359330,2359330,0.0005240501,0.0006011353,-0.0020536508,-0.0015641109,-0.005849316,-0.05770803,5038,5038,0
285110435,285109848,2359330,2359330,0.000108800115,0.00054246717,-0.0015061043,-0.0016145052,-0.010336148,-0.057800796,5000,5000,0
285610456,285609848,2359330,2359330,-0.00022549614,0.00032720575,-0.0011566132,-0.0021087967,-0.010838331,-0.040334225,5000,5000,0
286110510,286109849,2359330,2359330,-0.0004370338,0.00039218555,-0.0010897304,-0.00952635,-0.009549683,-0.06062604,4987,4987,0
286610509,286609848,2359330,2359330,-0.00014481101,0.000773104,-0.0010441019,-0.01007488,-0.008452349,-0.07284128,4968,4968,0
287110467,287109848,2359330,2359330,0.00027431047,0.00029236721,-0.0009680138,-0.00873073,-0.0052088355,-0.03373346,5000,5000,0
287610413,287609848,2359330,2359330,0.0010574744,0.0006318939,-0.0010924028,-0.006608272,-0.00014437655,-0.055176254,4982,4982,0
288110457,288109848,2359330,2359330,-0.0004341588,0.0004557151,-0.0008445408,-0.010449227,-0.011025366,-0.07317292,4984,4984,0
288610499,288609851,2359330,2359330,-0.00080471556,0.00034354776,-0.00020818498,-0.007048847,-0.007906795,-0.059489813,5000,5000,0
289110544,289109881,2359330,2359330,0.000623252,0.0005229262,-0.00040993694,-0.012372626,-0.0011738621,-0.051065452,4955,4955,0
289610547,289609848,2359330,2359330,-4.188483e-05,-0.0002342852,-0.00042760684,-0.017672364,-0.00022368069,-0.039683715,5000,5000,0
290110488,290109848,2359330,2359330,-0.0026045314,-0.0002708981,3.636183e-05,-0.016796414,0.00011938186,-0.041045573,5000,5000,0
290610458,290609848,2359330,2359330,-0.0026868552,-7.077042e-05,0.0009298462,-0.014062426,0.0049024336,-0.052330688,4934,4934,0
291110517,291109848,2359330,2359330,0.0024622304,-1.32074365e-05,-0.001757567,-0.012169971,0.0072578043,-0.042044125,5000,5000,0
291610481,291609857,2359330,2359330,0.0015458536,-0.00014721692,-0.0018463825,-0.014585407,-0.002137557,-0.03996812,5008,5008,0
293610531,293609905,2359330,2359330,0.00038174374,0.0003342146,-0.00033836282,-0.0076374975,0.006557861,-0.058393814,4997,4997,0
294110472,294109879,2359330,2359330,-0.001534924,-0.0003806933,-0.0013198011,-0.012567386,0.0024869496,-0.013822699,4995,4995,0
294610542,294609848,2359330,2359330,-0.0010800661,0.00088268035,-0.00033218035,-0.016305717,-0.0034879155,-0.078895964,4996,4996,0
295110474,295109889,2359330,2359330,0.0013127901,0.0003020471,-0.00080175814,-0.015237517,0.008071521,-0.059744578,5041,5041,0
295610502,295609849,2359330,2359330,-0.0004669346,0.0005789432,-0.0017048838,-0.010567644,0.0041406355,-0.046693347,5001,5001,0
296110540,296109851,2359330,2359330,-0.0024125983,0.0012183336,-0.0002739784,-0.016090572,-0.002348955,-0.072812036,4998,4998,0
296610470,296609848,2359330,2359330,0.0023733778,-7.060352e-05,-0.0010510033,-0.020241663,0.0064853514,-0.039263472,5000,5000,0
297110498,297109848,2359330,2359330,-0.00058205327,0.0012086283,-0.00091157935,-0.016145337,-0.0017876968,-0.08916344,4968,4968,0
297610442,297609848,2359330,2359330,-0.0016233937,0.0006099734,-5.816776e-05,-0.013143871,-0.0021835533,-0.075340815,4957,4957,0
298110446,298109848,2359330,2359330,0.00022066447,6.895934e-05,-0.00041911702,-0.007435514,0.002879678,-0.03389923,5000,5000,0
298610437,298609848,2359330,2359330,0.00025393514,0.00048393517,-0.00074161147,-0.008645412,0.0017565405,-0.057730325,5000,5000,0
299110600,299109883,2359330,2359330,0.001028607,0.000691342,-0.00063162245,-0.010099732,-0.0015732249,-0.06388313,4995,4995,0
299610489,299609851,2359330,2359330,0.00086059247,-0.0001326191,-0.00030436908,-0.010365671,0.0019859904,-0.041734952,4997,4997,0
300110540,300109848,2359330,2359330,-0.0009770457,0.0001909357,-0.00026798004,-0.0078120693,-0.005485072,-0.04840195,4950,4950,0
300610453,300609848,2359330,2359330,-0.003011909,0.00010392998,0.00030390872,-0.012149708,-0.004564056,-0.047165763,4999,4999,0
301110557,301109848,2359330,2359330,0.0015790587,0.0004419197,-0.00014088045,-0.008757391,0.0078041884,-0.04549796,4986,4986,0
301610474,301609848,2359330,2359330,0.003783368,-0.0004115917,-0.001698655,-0.008978551,0.0022759517,-0.03727832,5000,5000,0
303610406,303609851,2359330,2359330,0.0069818627,-0.0006303396,-0.002856355,-0.005476574,-0.0027818158,-0.019379789,5000,5000,0
304110401,304109870,2359330,2359330,-0.0022621343,-0.00033324523,-0.0009749268,-0.005691545,-0.020569174,-0.038731948,4993,4993,0
304610476,304609848,2359330,2359330,-0.0041188123,0.00015341859,0.0017543717,-0.012474094,-0.013055029,-0.08264472,4999,4999,0
305110550,305109853,2359330,2359330,0.0020193679,-0.00019011943,-6.685826e-05,-0.0075732195,0.0027799082,-0.043072827,4981,4981,0
305610563,305609894,2359330,2359330,0.003989078,0.00022907804,-0.0026206656,-0.0032885964,-0.009307972,-0.04618924,5046,5046,0
306110496,306109848,2359330,2359330,-0.0010743507,-0.0007493082,0.00022444861,0.0026579117,-0.022907853,-0.026388554,4934,4934,0
306610414,306609850,2359330,2359330,-0.0035148936,0.00034090035,0.0016734349,-0.0069700745,-0.010546905,-0.063800804,5001,5001,0
307110494,307109848,2359330,2359330,0.0045864675,0.0008994281,-0.0014320142,-0.005699216,-0.0028738393,-0.067414194,4978,4978,0
307610535,307609851,2359330,2359330,0.0046579354,-5.7583534e-06,-0.0029169065,-0.00023379471,-0.02049465,-0.023648573,4918,4918,0
309610507,309609882,2359330,2359330,-0.0017091737,0.0022297734,-0.0015242574,0.001396772,-0.01894465,-0.067454986,4995,4995,0
310110473,310109848,2359330,2359330,-0.0013097697,-0.00013110676,-0.00054154574,0.0039543672,-0.019553013,-0.09583609,4995,4995,0
310610573,310609849,2359330,2359330,0.00043980253,-0.0065741353,0.0014192781,0.020934325,-0.0029738536,0.06824246,5000,5000,0
311110481,311109848,2359330,2359330,0.0024703045,0.000828438,-4.9523096e-05,0.005591379,0.00039172763,-0.026100172,4991,4991,0
311610682,311609851,2359330,2359330,0.0006845716,0.0041164896,-0.002030467,0.0048515145,-0.011608292,-0.13112997,5000,5000,0
312110475,312109848,2359330,2359330,-0.0015950549,0.00063987897,-0.0017192311,0.0090304585,-0.018450115,-0.10012443,5000,5000,0
312610452,312609850,2359330,2359330,-0.0004655517,-0.0059027816,0.0009586327,0.020896714,-0.0075847376,0.04625549,4970,4970,0
313110514,313109848,2359330,2359330,-9.758115e-05,-9.2887385e-05,0.00012377741,0.006839222,-0.0046177437,-0.03902843,4996,4996,0
313610450,313609848,2359330,2359330,-0.00073931913,0.0006739763,-0.0006325516,0.0043226583,-0.004099071,-0.07309048,5000,5000,0
314110448,314109891,2359330,2359330,-0.0014963815,0.001158522,-0.00037928566,0.0059422487,-0.000767515,-0.07024621,5002,5002,0
314610512,314609848,2359330,2359330,-0.0016390162,0.00060383545,-0.00028078322,0.0063218265,0.004889327,-0.04721387,4993,4993,0
315110439,315109849,2359330,2359330,-0.0016863414,0.0007488032,-0.0007943537,0.004348757,0.0068747313,-0.045692906,4998,4998,0
315610527,315609859,2359330,2359330,-0.00042711434,0.0016555605,-0.0013140322,0.0069214595,0.009125901,-0.048736755,4974,4974,0
316110555,316109893,2359330,2359330,0.0023802654,0.001749637,-0.0022701854,0.0012223385,0.004380067,-0.08285428,5045,5045,0
316610442,316609848,2359330,2359330,0.0007213547,0.00024897404,-0.0020331356,0.00147329,0.0015296101,-0.06621919,5000,5000,0
317110555,317109848,2359330,2359330,-0.0007494853,0.0012192404,-0.0017796007,0.0012607978,-0.0007300341,-0.06506038,5000,5000,0
317610448,317609848,2359330,2359330,0.0007816662,0.0010640563,-0.0023101917,-0.0019885735,-0.0046278886,-0.06088984,4976,4976,0
318110551,318109848,2359330,2359330,-0.000112485744,0.0009825256,-0.0016723294,-0.0014333852,-0.0036294921,-0.05742035,4966,4966,0
318610487,318609848,2359330,2359330,0.0005297095,0.0008987227,-0.0010450342,-0.0022120175,-0.0033510427,-0.06331006,5000,5000,0
319110450,319109883,2359330,2359330,0.0011222505,0.0007485616,-0.0009365301,-0.016319282,0.0012274159,-0.04647816,5001,5001,0
319610449,319609851,2359330,2359330,0.0007689229,0.0006061913,-0.0012123411,-0.022907164,0.0020861183,-0.04794517,5003,5003,0
320110432,320109848,2359330,2359330,0.0022193172,-5.7841e-05,-0.00029262906,-0.012677683,0.006276112,-0.053721245,4974,4974,0
320610480,320609848,2359330,2359330,0.0013435555,-0.00057993387,-0.0014686153,-0.010415707,0.004503533,-0.040143557,5000,5000,0
321110500,321109853,2359330,2359330,-0.0029365956,2.5917103e-05,-0.00063830847,-0.012022625,-0.0003146215,-0.042275153,5001,5001,0
321610532,321609848,2359330,2359330,-0.0021068724,0.0009115017,0.00095005444,-0.012011596,0.0046446426,-0.053955257,5000,5000,0
322110489,322109848,2359330,2359330,0.0006624566,-2.7664082e-05,-0.0008099495,-0.009195317,0.0098743,-0.04213718,5000,5000,0
322610569,322609861,2359330,2359330,0.00065386057,-0.00040456225,-0.0027248405,-0.01268537,0.0053040194,-0.049813706,4985,4985,0
323110468,323109848,2359330,2359330,-0.00010827403,0.00030060255,-0.0014898736,-0.010324499,-0.002602116,-0.051208667,4997,4997,0
323610486,323609851,2359330,2359330,0.0004517426,0.00036193358,-0.00026900036,-0.011970351,-0.00075177796,-0.053778917,4999,4999,0
324110436,324109872,2359330,2359330,0.0010488431,-3.143683e-05,-2.5102727e-05,-0.014124924,0.0037299977,-0.052531138,4993,4993,0
324610449,324609848,2359330,2359330,0.0032823617,-0.00013651456,-0.00079703203,-0.0121397935,0.0029330482,-0.052767277,4994,4994,0
327110447,327109855,2359330,2359330,0.00034804785,-0.0003490162,0.00026459838,-0.011209752,0.0027744824,-0.04848151,5004,5004,0
327610589,327609851,2359330,2359330,-0.00042132373,6.3120046e-05,-1.6718857e-05,-0.01111116,0.002882067,-0.045762334,4985,4985,0
328110474,328109848,2359330,2359330,-0.0006258381,-0.0001256014,0.00011310801,-0.011640367,-0.000100248755,-0.046431012,5000,5000,0
328610544,328609848,2359330,2359330,0.00046426256,0.00016662497,-0.00042858816,-0.008736939,0.000330759,-0.04670161,4968,4968,0
329110474,329109886,2359330,2359330,-0.00034411193,2.0744515e-05,-0.0004295927,-0.012375141,-0.0033105318,-0.04599993,4965,4965,0
329610445,329609848,2359330,2359330,9.1757596e-05,0.00014512427,-0.00034400012,-0.0106488485,-0.0022631143,-0.051573064,5000,5000,0
330110460,330109848,2359330,2359330,-0.0018193068,1.8954608e-05,0.00013063707,-0.009495053,-0.006729591,-0.048534937,4982,4982,0
330610476,330609848,2359330,2359330,-0.0018391329,6.409614e-05,0.00055485487,-0.011672185,-0.00081097224,-0.043197677,4949,4949,0
331110570,331109863,2359330,2359330,-0.0011163716,-8.2043e-05,0.00015029903,-0.011634027,0.004938635,-0.040103275,5012,5012,0
331610523,331609851,2359330,2359330,-0.0008298463,6.782769e-05,-0.0006960849,-0.014197858,0.005458639,-0.047420043,5002,5002,0
332110509,332109848,2359330,2359330,-0.0009855932,0.00023344015,-0.0010234462,-0.010297104,0.0047772857,-0.04019237,5000,5000,0
332610412,332609848,2359330,2359330,-0.0008209646,0.0015075734,-0.0010543561,-0.011578758,0.0036378861,-0.05623096,4984,4984,0
333110595,333109919,2359330,2359330,0.0005736167,0.0010883436,-0.0020129785,-0.012909337,0.0024520524,-0.06786023,5059,5059,0
333610488,333609861,2359330,2359330,-0.00059278565,0.001013837,-0.0018049157,-0.011841953,-0.0011257123,-0.061919603,5013,5013,0
334110463,334109872,2359330,2359330,5.678814e-05,0.00094715034,-0.0011542211,-0.010341427,-0.002317893,-0.06006469,5012,5012,0
334610447,334609848,2359330,2359330,-0.00027871603,0.0009416554,-0.0009779342,-0.012595494,-0.0022343993,-0.06276978,4978,4978,0
335110443,335109848,2359330,2359330,0.0015365466,0.00030373695,-0.0013586691,-0.014427523,-0.00057788903,-0.055772536,4997,4997,0
335610502,335609851,2359330,2359330,0.00026541427,0.00043818326,-0.0012624979,-0.013719284,-0.0042597735,-0.05933141,4998,4998,0
336110486,336109855,2359330,2359330,-0.00042916165,0.00023544305,-0.00057340425,-0.012045456,-0.0056338096,-0.050586604,4987,4987,0
336610432,336609848,2359330,2359330,5.5568555e-05,-3.1927517e-05,-0.00018107462,-0.00986205,-0.002181337,-0.034057423,4985,4985,0
337110518,337109885,2359330,2359330,0.0014350098,-0.00022433652,-0.0008509357,-0.011837245,-0.0014473071,-0.050294846,5033,5033,0
337610421,337609848,2359330,2359330,0.000532352,2.5764288e-05,-0.0009701775,-0.011699709,-0.0017037463,-0.054426193,4988,4988,0
338110556,338109848,2359330,2359330,-5.6498622e-05,-8.059254e-05,-0.00035203042,-0.011248893,-0.004216973,-0.05076102,5000,5000,0
338610479,338609848,2359330,2359330,-0.0011532053,-0.00014806978,0.00027044347,-0.011688513,-0.002303909,-0.051042393,5000,5000,0
339110564,339109893,2359330,2359330,0.00043286328,-0.00012230538,0.00029803626,-0.012175571,0.0023291444,-0.042492956,4965,4965,0
339610476,339609851,2359330,2359330,0.0003382468,-0.0001097467,-0.0006169142,-0.011346415,1.043103e-06,-0.044132017,5000,5000,0
340110474,340109848,2359330,2359330,0.0014702609,1.4689428e-05,-0.0008480024,-0.012000622,-0.00055928895,-0.0378825,4985,4985,0
340610444,340609849,2359330,2359330,0.0016140427,-0.000108437205,-0.0019471336,-0.0130888885,-0.0073620602,-0.057441592,5001,5001,0
341110538,341109850,2359330,2359330,-0.00131586,-0.0002560209,-0.00017311849,-0.008792451,-0.009943745,-0.038072396,5002,5002,0
341610507,341609888,2359330,2359330,0.0011210056,0.00033485636,0.00034461552,-0.012763843,-0.0066025057,-0.04665773,4983,4983,0
342110473,342109848,2359330,2359330,0.0026180712,-0.00013991048,-0.0011412501,-0.009679139,-0.009433496,-0.027184824,5000,5000,0
342610557,342609848,2359330,2359330,-0.0012315594,0.0001771088,3.1872565e-05,-0.013261323,-0.010600928,-0.05868343,4991,4991,0
343110443,343109848,2359330,2359330,-0.0011378836,-1.6812947e-06,0.00092699577,-0.014557581,-0.009750975,-0.047924563,4990,4990,0
343610543,343609851,2359330,2359330,0.0008515539,0.00011454319,-0.00024259086,-0.012578886,-0.005783728,-0.04004013,4994,4994,0
344110466,344109858,2359330,2359330,-0.00018456207,8.181236e-05,-0.00043821216,-0.010580977,-0.0072189155,-0.04474618,5005,5005,0
344610590,344609896,2359330,2359330,-0.0007029568,0.00015210816,-0.00028900517,-0.011795288,-0.009683567,-0.053283636,5044,5044,0
345110451,345109848,2359330,2359330,0.00055086246,-6.77392e-05,-0.00036264132,-0.012700504,-0.007956574,-0.05246981,5000,5000,0
345610444,345609848,2359330,2359330,-0.0022897047,-0.00014571972,-7.484979e-05,-0.010944714,-0.011241234,-0.058444813,5000,5000,0
346610535,346609848,2359330,2359330,0.00202731,0.0001804117,-0.0016938401,-0.014076925,-0.008617936,-0.058636244,4998,4998,0
347110524,347109848,2359330,2359330,-0.00029422803,-0.00013603631,-0.00073578075,-0.012966619,-0.009883802,-0.039172634,4980,4980,0
347610529,347609895,2359330,2359330,-0.0005069367,-0.00045471598,-0.00011956921,-0.01143498,-0.012771439,-0.03860524,5028,5028,0
348110517,348109860,2359330,2359330,-0.0011205246,0.00023933046,-0.00020293258,-0.010310113,-0.0113016395,-0.044881087,5012,5012,0
348610445,348609848,2359330,2359330,-0.00025845165,6.845344e-05,-0.00064624136,-0.010581324,-0.007973466,-0.046465337,5000,5000,0
349110563,349109862,2359330,2359330,-0.0003815139,-0.00018995359,-0.0012705184,-0.0136557035,-0.013616698,-0.067709625,4999,4999,0
349610531,349609880,2359330,2359330,0.0011244711,9.491302e-05,2.3848765e-05,-0.009775241,-0.016010137,-0.03392633,5006,5006,0
350110468,350109848,2359330,2359330,0.0012331596,0.00061539136,5.45048e-05,-0.010346636,-0.0086916685,-0.058566492,5000,5000,0
351110506,351109848,2359330,2359330,-0.002822909,3.0229096e-05,0.0011756707,-0.010026751,-0.008758532,-0.049902275,5000,5000,0
351610481,351609851,2359330,2359330,-0.0012300174,0.000666204,-0.0006904871,-0.009925481,-0.007174026,-0.069043174,5000,5000,0
352110474,352109849,2359330,2359330,-0.0016026506,-0.00022205965,-0.0016536918,-0.010652514,-0.0069294972,-0.047713194,4994,4994,0
352610514,352609848,2359330,2359330,-0.0012293865,-0.0010388474,-0.0010675436,-0.009020671,-0.0076050432,-0.0337855,4984,4984,0
353610519,353609857,2359330,2359330,-0.0012056889,-0.0004959069,-0.0011135414,-0.005853569,-0.01767551,-0.04715472,5007,5007,0
354110584,354109854,2359330,2359330,0.002703951,0.0001684527,0.00038875823,-0.0056393594,-0.011027248,-0.022852859,5002,5002,0
354610477,354609848,2359330,2359330,-0.0011003234,0.0004519094,0.00054983154,-0.004534162,-0.01276084,-0.04856987,5000,5000,0
355110474,355109848,2359330,2359330,-0.0017493283,0.0014437205,0.0008970477,-0.0046689515,-0.010993107,-0.06300193,4996,4996,0
356610499,356609848,2359330,2359330,-0.0053173187,-0.0015153413,0.00096421334,-0.0049166074,-0.013480023,-0.040831804,5000,5000,0
357110480,357109856,2359330,2359330,-0.00083310343,-1.8734025e-06,0.0019214118,-0.0041014054,-0.0036286744,-0.04363466,5008,5008,0
357610616,357609910,2359330,2359330,0.0047487384,-0.0003324299,-0.0011118638,-0.001930622,-0.0038237274,-0.05448406,5001,5001,0
358110517,358109890,2359330,2359330,0.0021231612,-8.959203e-06,-0.0013780879,-0.0029351495,-0.0059763747,-0.036946576,5041,5041,0
358610594,358609872,2359330,2359330,-0.0015543371,-0.00147479,-0.00010873104,-0.0034292112,-0.006936997,-0.035239734,5024,5024,0
359110428,359109848,2359330,2359330,-0.00706122,0.00093731197,-0.0004128181,-0.0066605187,-0.0041717505,-0.062012732,4984,4984,0
359610539,359609848,2359330,2359330,-0.006721031,0.0012092076,-0.005704691,-0.0101884175,-0.0016463575,-0.01266095,4997,4997,0
360110531,360109851,2359330,2359330,0.0075244186,-0.0021805363,-0.002339996,-0.0052504344,-0.09027813,-0.063947245,4968,4968,0
360610471,360609851,2359330,2359330,-0.0052694925,-0.0027172298,-0.00022634826,-0.015922973,-0.031697974,-0.06711015,4976,4976,0
361110449,361109848,2359330,2359330,0.0038938,-0.0008643898,-0.00041344704,-0.0010167664,0.018622002,-0.040582184,5000,5000,0
361610438,361609848,2359330,2359330,-0.002075616,-1.696054e-05,0.00026385905,-0.001039176,0.00014985552,-0.05176868,5000,5000,0
362110487,362109848,2359330,2359330,-0.00040367432,2.2933718e-05,7.028084e-05,-0.0019940306,-0.0036722715,-0.04862665,4987,4987,0
362610494,362609848,2359330,2359330,0.0011925191,3.6531823e-05,-0.00015590458,-0.0017293427,-0.00024906202,-0.049426764,5000,5000,0
364110552,364109851,2359330,2359330,0.00014038383,-2.7975732e-06,-2.276209e-05,-0.0013464162,-0.00066077645,-0.048956793,4990,4990,0
364610494,364609850,2359330,2359330,0.00044190983,1.7948154e-05,-6.0569164e-05,-0.0015217627,0.0005134338,-0.048696883,4951,4951,0
365110531,365109848,2359330,2359330,-7.7510085e-05,-4.88277e-06,-1.0055345e-05,-0.0015487006,0.0010190284,-0.04941537,5000,5000,0
