timestamp,states[0],states[1],states[2],states[3],states[4],states[5],states[6],states[7],states[8],states[9],states[10],states[11],states[12],states[13],states[14],states[15],states[16],states[17],states[18],states[19],states[20],states[21],states[22],states[23],vibe[0],vibe[1],vibe[2],covariances[0],covariances[1],covariances[2],covariances[3],covariances[4],covariances[5],covariances[6],covariances[7],covariances[8],covariances[9],covariances[10],covariances[11],covariances[12],covariances[13],covariances[14],covariances[15],covariances[16],covariances[17],covariances[18],covariances[19],covariances[20],covariances[21],covariances[22],covariances[23],output_tracking_error[0],output_tracking_error[1],output_tracking_error[2],control_mode_flags,pos_horiz_accuracy,pos_vert_accuracy,mag_test_ratio,vel_test_ratio,pos_test_ratio,hgt_test_ratio,tas_test_ratio,hagl_test_ratio,beta_test_ratio,time_slip,gps_check_fail_flags,filter_fault_flags,innovation_check_flags,solution_status_flags,n_states,pre_flt_fail_innov_heading,pre_flt_fail_innov_vel_horiz,pre_flt_fail_innov_vel_vert,pre_flt_fail_innov_height,pre_flt_fail_mag_field_disturbed,health_flags,timeout_flags
128104855,0.9478806,0.007801048,-0.011849368,0.31830966,-0.0010354884,-0.009074293,-0.0036058882,-0.88267076,0.14015752,-0.5534857,2.7342994e-05,-8.859131e-06,-2.2011154e-05,0.0,0.0,-0.00046035595,0.23951438,0.0040492886,0.36314076,0.0,0.0,0.0,0.0,0.0,7.159502e-10,1.4855907e-05,0.00029401804,3.5984567e-06,3.50741e-06,3.5053338e-06,3.120399e-05,0.008863259,0.008863294,0.0113988025,0.031754352,0.031754375,0.15546295,1.9517669e-11,1.9514177e-11,3.2779487e-11,0.0,0.0,5.0000363e-08,0.0,0.0,0.0,0.0,0.0,0.0,0.0,0.0,0.00015720213,0.0014217973,0.0037300019,67240471,0.2520094,0.3942879,0.03307932,0.015185385,0.008436252,0.008436252,0.0,0.0,0.0,0.0,0,0,0,895,24,0,0,0,0,0,0,0
128304852,0.947937,0.00759627,-0.012055627,0.31813926,-0.0027454565,-0.0068761273,-0.005633983,-0.88625747,0.14273772,-0.5604141,2.7297183e-05,-8.872551e-06,-2.21105e-05,0.0,0.0,-0.0004576681,0.23951438,0.0040492886,0.36314076,0.0,0.0,0.0,0.0,0.0,5.603247e-10,1.3799285e-05,0.0002845632,3.5909638e-06,3.508811e-06,3.506446e-06,3.121123e-05,0.008862712,0.008862753,0.011381446,0.03164497,0.031644996,0.15482567,1.9519228e-11,1.9515731e-11,3.2779446e-11,0.0,0.0,5.000009e-08,0.0,0.0,0.0,0.0,0.0,0.0,0.0,0.0,0.00026137388,0.0020237297,0.00720887,67240471,0.251575,0.39347893,0.020289944,0.018428586,0.0071665333,0.0071665333,0.0,0.0,0.0,0.0,0,0,0,895,24,0,0,0,0,0,0,0
128504848,0.9479772,0.007838472,-0.011858948,0.31802085,-0.002491776,-0.0036001024,-0.0047864043,-0.88450474,0.14694431,-0.56347185,2.728018e-05,-8.835633e-06,-2.2002236e-05,0.0,0.0,-0.00045712775,0.23951438,0.0040492886,0.36314076,0.0,0.0,0.0,0.0,0.0,5.2306054e-10,1.4815254e-05,0.0002816189,3.5917892e-06,3.5071962e-06,3.5051664e-06,3.1210235e-05,0.0088484315,0.008848472,0.011361032,0.031502515,0.031502537,0.15418422,1.9517832e-11,1.9514324e-11,3.2779404e-11,0.0,0.0,5e-08,0.0,0.0,0.0,0.0,0.0,0.0,0.0,0.0,0.00017376666,0.0023262247,0.007965362,67240471,0.25100806,0.392663,0.04410484,0.014328667,0.008887457,0.008887457,0.0,0.0,0.0,0.0,0,0,0,895,24,0,0,0,0,0,0,0
128704871,0.94789475,0.007719098,-0.011510653,0.3182822,-0.0034641498,-0.0042481534,-0.0014222609,-0.8841555,0.14945637,-0.5634217,2.7268972e-05,-8.823808e-06,-2.2016085e-05,0.0,0.0,-0.00045756425,0.23951438,0.0040492886,0.36314076,0.0,0.0,0.0,0.0,0.0,6.4664324e-10,1.5470425e-05,0.00031922187,3.596781e-06,3.5057537e-06,3.5039466e-06,3.1205345e-05,0.008834658,0.008834697,0.011400619,0.03135952,0.031359546,0.15551408,1.9516685e-11,1.9513165e-11,3.2779363e-11,0.0,0.0,5.000036e-08,0.0,0.0,0.0,0.0,0.0,0.0,0.0,0.0,0.00013329872,0.001751936,0.005953266,67240471,0.25043774,0.39435273,0.024572514,0.0035778675,0.009995925,0.009995925,0.0,0.0,0.0,0.0,0,0,0,895,24,0,0,0,0,0,0,0
128904884,0.9480303,0.0072305873,-0.011139469,0.31790283,0.0030908554,2.3574e-05,-0.0034395442,-0.88047904,0.15254828,-0.56212866,2.7277329e-05,-8.784605e-06,-2.205703e-05,0.0,0.0,-0.00045709507,0.23951438,0.0040492886,0.36314076,0.0,0.0,0.0,0.0,0.0,6.487618e-10,1.573422e-05,0.00033158337,3.5866578e-06,3.5045175e-06,3.502767e-06,3.1215757e-05,0.008824519,0.008824555,0.011381136,0.031216526,0.031216552,0.15487982,1.9515766e-11,1.9512227e-11,3.2779307e-11,0.0,0.0,5.000018e-08,0.0,0.0,0.0,0.0,0.0,0.0,0.0,0.0,0.00015681236,0.0026464548,0.0051486343,67240471,0.24986613,0.39354774,0.012622457,0.016921975,0.009135174,0.009135174,0.0,0.0,0.0,0.0,0,0,0,895,24,0,0,0,0,0,0,0
129104886,0.9479825,0.007674193,-0.010492308,0.31805712,0.0011719505,0.0024859125,-0.0026394504,-0.8806762,0.15531616,-0.55693376,2.725512e-05,-8.793937e-06,-2.2056818e-05,0.0,0.0,-0.00045865437,0.23951438,0.0040492886,0.36314076,0.0,0.0,0.0,0.0,0.0,5.635822e-10,1.5388876e-05,0.00029601125,3.5897776e-06,3.5033074e-06,3.5022565e-06,3.1212603e-05,0.008816073,0.008816108,0.011362492,0.031085303,0.031085325,0.15426011,1.9515027e-11,1.951147e-11,3.2779262e-11,0.0,0.0,5.0000093e-08,0.0,0.0,0.0,0.0,0.0,0.0,0.0,0.0,7.278103e-05,0.0012777431,0.0037127796,67240471,0.24934039,0.39275962,0.026510613,0.013706273,0.008727968,0.008727968,0.0,0.0,0.0,0.0,0,0,0,895,24,0,0,0,0,0,0,0
129304848,0.9479161,0.007479611,-0.010736708,0.3182512,-0.0012902876,-0.00080302684,-0.0056943856,-0.8848946,0.15413322,-0.55909604,2.7239677e-05,-8.858323e-06,-2.2039689e-05,0.0,0.0,-0.00045807788,0.23951438,0.0040492886,0.36314076,0.0,0.0,0.0,0.0,0.0,4.8491194e-10,1.4823649e-05,0.00028045152,3.5943876e-06,3.5026655e-06,3.501311e-06,3.120772e-05,0.008808214,0.008808256,0.011402733,0.03095271,0.03095273,0.15559918,1.9514213e-11,1.951064e-11,3.277922e-11,0.0,0.0,5.000036e-08,0.0,0.0,0.0,0.0,0.0,0.0,0.0,0.0,0.00015164072,0.001988057,0.002646557,67240471,0.24880804,0.39446062,0.012473562,0.032937996,0.008841125,0.008841125,0.0,0.0,0.0,0.0,0,0,0,895,24,0,0,0,0,0,0,0
129504848,0.9479307,0.0068512433,-0.010974942,0.3182137,0.00097278535,0.00218939,-0.0056225555,-0.87916714,0.15703852,-0.55723935,2.7249682e-05,-8.813921e-06,-2.2032593e-05,0.0,0.0,-0.0004598359,0.23951438,0.0040492886,0.36314076,0.0,0.0,0.0,0.0,0.0,4.812019e-10,1.4331345e-05,0.00027365473,3.5935357e-06,3.502066e-06,3.5002568e-06,3.1208554e-05,0.008801351,0.0088013895,0.011384665,0.0308307,0.030830715,0.15498497,1.9513467e-11,1.9509876e-11,3.2779175e-11,0.0,0.0,5.000027e-08,0.0,0.0,0.0,0.0,0.0,0.0,0.0,0.0,6.1088125e-05,0.0018103386,0.0041915197,67240471,0.24831717,0.3936813,0.0719695,0.015559551,0.010407374,0.010407374,0.0,0.0,0.0,0.0,0,0,0,895,24,0,0,0,0,0,0,0
129704848,0.94788134,0.0073973252,-0.010620972,0.3183605,-0.004067212,0.0024255225,-0.005035549,-0.8825598,0.15773454,-0.56539005,2.7226919e-05,-8.861724e-06,-2.2106033e-05,0.0,0.0,-0.0004584799,0.23951438,0.0040492886,0.36314076,0.0,0.0,0.0,0.0,0.0,4.2431222e-10,1.338719e-05,0.0002776587,3.593974e-06,3.5011585e-06,3.499853e-06,3.1207932e-05,0.008793666,0.008793708,0.011365826,0.030717833,0.030717846,0.15436393,1.9512768e-11,1.9509167e-11,3.2779123e-11,0.0,0.0,5e-08,0.0,0.0,0.0,0.0,0.0,0.0,0.0,0.0,0.00024222933,0.0018066177,0.007298125,67240471,0.24786222,0.39289176,0.08061574,0.027816284,0.0083315335,0.0083315335,0.0,0.0,0.0,0.0,0,0,0,895,24,0,0,0,0,0,0,0
129904861,0.9478738,0.0075131804,-0.0106766885,0.3183786,0.0039106836,0.0034808721,-0.007932311,-0.87308645,0.16155763,-0.5722949,2.7254555e-05,-8.78278e-06,-2.2141507e-05,0.0,0.0,-0.0004549917,0.23951438,0.0040492886,0.36314076,0.0,0.0,0.0,0.0,0.0,3.5118833e-10,1.31386305e-05,0.00024937303,3.5929531e-06,3.5003882e-06,3.4991667e-06,3.1208758e-05,0.008786719,0.008786767,0.011405555,0.03060138,0.03060139,0.15569791,1.9512017e-11,1.9508402e-11,3.2779064e-11,0.0,0.0,5.000036e-08,0.0,0.0,0.0,0.0,0.0,0.0,0.0,0.0,0.00031221364,0.0036956773,0.008969657,67240471,0.24739194,0.39458576,0.0071131326,0.03477602,0.009633115,0.009633115,0.0,0.0,0.0,0.0,0,0,0,895,24,0,0,0,0,0,0,0
130104849,0.94786584,0.006933952,-0.010759831,0.31841248,-0.0005956136,-0.0001375591,-0.001945862,-0.87807655,0.15646565,-0.55670506,2.725669e-05,-8.882196e-06,-2.211078e-05,0.0,0.0,-0.0004625853,0.23951438,0.0040492886,0.36314076,0.0,0.0,0.0,0.0,0.0,3.1886332e-10,1.2981551e-05,0.00028017283,3.59449e-06,3.4996933e-06,3.4980726e-06,3.1207226e-05,0.008778693,0.008778745,0.011386512,0.030481763,0.030481769,0.15506992,1.9511191e-11,1.9507562e-11,3.2779005e-11,0.0,0.0,5.000027e-08,0.0,0.0,0.0,0.0,0.0,0.0,0.0,0.0,0.00014376329,0.0036221792,0.0066536036,67240471,0.24690795,0.39378917,0.039963763,0.044196967,0.0102116745,0.0102116745,0.0,0.0,0.0,0.0,0,0,0,895,24,0,0,0,0,0,0,0
130304849,0.94782716,0.0072634644,-0.010725547,0.31852168,-0.00015518069,0.003625957,-0.002021866,-0.87538683,0.15935344,-0.55855626,2.7242975e-05,-8.857775e-06,-2.2174207e-05,0.0,0.0,-0.00046051582,0.23951438,0.0040492886,0.36314076,0.0,0.0,0.0,0.0,0.0,3.0929004e-10,1.212792e-05,0.0002662743,3.5944954e-06,3.4989052e-06,3.4974887e-06,3.1207008e-05,0.008771181,0.008771238,0.011367331,0.030371202,0.030371208,0.1544427,1.9510456e-11,1.9506811e-11,3.2778946e-11,0.0,0.0,5.0000093e-08,0.0,0.0,0.0,0.0,0.0,0.0,0.0,0.0,0.00016535918,0.0011377857,0.0030008792,67240471,0.24645975,0.392992,0.048385732,0.015420323,0.008018043,0.008018043,0.0,0.0,0.0,0.0,0,0,0,895,24,0,0,0,0,0,0,0
130504848,0.94779736,0.007584717,-0.01059376,0.31860688,0.0032155425,0.0024747544,-0.001479343,-0.8716179,0.15864109,-0.5565673,2.7260461e-05,-8.855878e-06,-2.2236423e-05,0.0,0.0,-0.00046165704,0.23951438,0.0040492886,0.36314076,0.0,0.0,0.0,0.0,0.0,2.7699887e-10,1.2173201e-05,0.0002661743,3.5940427e-06,3.4982177e-06,3.49708e-06,3.1207277e-05,0.008766675,0.008766731,0.011348945,0.030279936,0.030279942,0.15382954,1.9509857e-11,1.9506194e-11,3.2778884e-11,0.0,0.0,5e-08,0.0,0.0,0.0,0.0,0.0,0.0,0.0,0.0,0.0003381899,0.0018344226,0.004240085,67240471,0.24608916,0.3922111,0.005141131,0.0072702304,0.011105803,0.011105803,0.0,0.0,0.0,0.0,0,0,0,895,24,0,0,0,0,0,0,0
130704861,0.94777715,0.0070388443,-0.010842898,0.31867155,0.004843705,-0.0018211434,-0.0012246607,-0.86846894,0.15395154,-0.55517703,2.7299877e-05,-8.879893e-06,-2.2206725e-05,0.0,0.0,-0.00046261208,0.23951438,0.0040492886,0.36314076,0.0,0.0,0.0,0.0,0.0,2.4370606e-10,1.2093653e-05,0.00025528687,3.5963067e-06,3.497772e-06,3.4961918e-06,3.1204996e-05,0.008761667,0.008761723,0.011389603,0.03019359,0.030193597,0.15517083,1.950921e-11,1.9505526e-11,3.277882e-11,0.0,0.0,5.000027e-08,0.0,0.0,0.0,0.0,0.0,0.0,0.0,0.0,0.00013592832,0.002833658,0.0057426332,67240471,0.24573804,0.3939173,0.00690567,0.021163134,0.009720671,0.009720671,0.0,0.0,0.0,0.0,0,0,0,895,24,0,0,0,0,0,0,0
130904848,0.9477338,0.007085448,-0.010878638,0.31879812,0.0075927977,-0.0007694854,-0.0005582537,-0.86223453,0.1544778,-0.55314374,2.7308597e-05,-8.852993e-06,-2.2245038e-05,0.0,0.0,-0.00046469754,0.23951438,0.0040492886,0.36314076,0.0,0.0,0.0,0.0,0.0,3.059119e-10,1.2711479e-05,0.00025359355,3.5976082e-06,3.4995571e-06,3.4980017e-06,3.1203606e-05,0.008770523,0.008770576,0.011374635,0.030151056,0.030151062,0.15456875,1.951119e-11,1.9507482e-11,3.2778755e-11,0.0,0.0,5.000018e-08,0.0,0.0,0.0,0.0,0.0,0.0,0.0,0.0,0.00013599431,0.0022152548,0.004662453,67240471,0.2455649,0.39315233,0.04862389,0.015214422,0.012659086,0.012659086,0.0,0.0,0.0,0.0,0,0,0,895,24,0,0,0,0,0,0,0
131104848,0.9477428,0.0074681696,-0.010750265,0.31876677,0.011346014,-0.0035228012,3.5437748e-05,-0.85531807,0.14915021,-0.5451422,2.7355474e-05,-8.867925e-06,-2.225874e-05,0.0,0.0,-0.00046705647,0.23951438,0.0040492886,0.36314076,0.0,0.0,0.0,0.0,0.0,2.6444316e-10,1.26457635e-05,0.00028293935,3.5962616e-06,3.500631e-06,3.4993968e-06,3.120477e-05,0.008776958,0.008777006,0.011360106,0.030107448,0.030107452,0.15397951,1.9512496e-11,1.9508764e-11,3.2778683e-11,0.0,0.0,5.000009e-08,0.0,0.0,0.0,0.0,0.0,0.0,0.0,0.0,0.00013680987,0.003121219,0.0071595786,67240471,0.24538724,0.39240223,0.017766109,0.021315651,0.018562054,0.018562054,0.0,0.0,0.0,0.0,0,0,0,895,24,0,0,0,0,0,0,0
131304853,0.94771624,0.007181434,-0.01090754,0.31884712,0.011333086,-0.0065028183,0.0031085387,-0.85044533,0.14475259,-0.53677374,2.7373466e-05,-8.898408e-06,-2.226652e-05,0.0,0.0,-0.00047139576,0.23951438,0.0040492886,0.36314076,0.0,0.0,0.0,0.0,0.0,2.3040747e-10,1.2528986e-05,0.0002626222,3.5975888e-06,3.4992188e-06,3.4977268e-06,3.1203377e-05,0.008769424,0.008769477,0.011401063,0.030045534,0.03004554,0.15533479,1.9510803e-11,1.9507045e-11,3.2778613e-11,0.0,0.0,5.000036e-08,0.0,0.0,0.0,0.0,0.0,0.0,0.0,0.0,0.00015120425,0.0028611366,0.0065359264,67240471,0.2451348,0.39412534,0.004456971,0.027253693,0.020047156,0.020047156,0.0,0.0,0.0,0.0,0,0,0,895,24,0,0,0,0,0,0,0
131504853,0.9477052,0.007038283,-0.011006082,0.31887984,0.015240472,-0.0043193176,0.0014947614,-0.8388376,0.14501026,-0.53807503,2.738299e-05,-8.856007e-06,-2.2247685e-05,0.0,0.0,-0.0004690687,0.23951438,0.0040492886,0.36314076,0.0,0.0,0.0,0.0,0.0,2.6224484e-10,1.26480145e-05,0.00026164204,3.5987846e-06,3.497827e-06,3.4962254e-06,3.12021e-05,0.008761543,0.008761596,0.011379012,0.029983155,0.02998316,0.1546762,1.9509267e-11,1.9505484e-11,3.2778537e-11,0.0,0.0,5e-08,0.0,0.0,0.0,0.0,0.0,0.0,0.0,0.0,6.910682e-05,0.0021011294,0.005133953,67240471,0.2448802,0.39328894,0.023586208,0.017480131,0.026485085,0.026485085,0.0,0.0,0.0,0.0,0,0,0,895,24,0,0,0,0,0,0,0
131704867,0.94774866,0.007439276,-0.010864804,0.31874645,0.01824793,-0.002766781,-0.0010348944,-0.8299351,0.14456029,-0.5439796,2.7380715e-05,-8.847858e-06,-2.2204116e-05,0.0,0.0,-0.00046753467,0.23951438,0.0040492886,0.36314076,0.0,0.0,0.0,0.0,0.0,2.4779026e-10,1.296635e-05,0.00028192948,3.5971254e-06,3.4963805e-06,3.495095e-06,3.1203595e-05,0.008754035,0.0087540895,0.011417093,0.029920297,0.029920297,0.15599534,1.950788e-11,1.9504065e-11,3.277846e-11,0.0,0.0,5.000036e-08,0.0,0.0,0.0,0.0,0.0,0.0,0.0,0.0,0.00017668646,0.002079855,0.0072493074,67240471,0.24462338,0.39496246,0.07995975,0.008952644,0.02632675,0.02632675,0.0,0.0,0.0,0.0,0,0,0,895,24,0,0,0,0,0,0,0
131904948,0.9477498,0.007407689,-0.01087767,0.31874314,0.021070002,0.000493299,-0.0020552264,-0.8200397,0.14867997,-0.5448288,2.7349008e-05,-8.815264e-06,-2.2144428e-05,0.0,0.0,-0.00046545122,0.23951438,0.0040492886,0.36314076,0.0,0.0,0.0,0.0,0.0,2.0985778e-10,1.2665369e-05,0.00031259767,3.5988735e-06,3.4951206e-06,3.493806e-06,3.1201824e-05,0.008745911,0.008745974,0.011396321,0.029856866,0.029856864,0.15534571,1.9506601e-11,1.950276e-11,3.277839e-11,0.0,0.0,5.000027e-08,0.0,0.0,0.0,0.0,0.0,0.0,0.0,0.0,0.00028135485,0.002551378,0.0054426505,67240471,0.24436393,0.3941392,0.030293502,0.022057408,0.027171891,0.027171891,0.0,0.0,0.0,0.0,0,0,0,895,24,0,0,0,0,0,0,0
132104848,0.947722,0.0071028783,-0.01091315,0.31883147,0.02240748,0.000787513,-0.0026194446,-0.8112004,0.1486788,-0.54384077,2.7342992e-05,-8.822957e-06,-2.2126054e-05,0.0,0.0,-0.00046362422,0.23951438,0.0040492886,0.36314076,0.0,0.0,0.0,0.0,0.0,2.431502e-10,1.2636601e-05,0.00037494503,3.6012348e-06,3.4940238e-06,3.4925238e-06,3.119952e-05,0.008737743,0.008737807,0.011376075,0.02979296,0.029792957,0.1547048,1.9505477e-11,1.9501605e-11,3.277832e-11,0.0,0.0,5.0000093e-08,0.0,0.0,0.0,0.0,0.0,0.0,0.0,0.0,0.00014124658,0.0014656987,0.0024944667,67240471,0.24410227,0.3933253,0.029466175,0.01741554,0.027655942,0.027655942,0.0,0.0,0.0,0.0,0,0,0,895,24,0,0,0,0,0,0,0
132304850,0.9477332,0.0073554353,-0.010729366,0.3187985,0.024462692,-0.0024410968,-0.0027803367,-0.80099714,0.14178409,-0.53914434,2.739496e-05,-8.861689e-06,-2.2152128e-05,0.0,0.0,-0.0004640292,0.23951438,0.0040492886,0.36314076,0.0,0.0,0.0,0.0,0.0,2.451971e-10,1.2744439e-05,0.00033835825,3.5993946e-06,3.4929842e-06,3.4917637e-06,3.120123e-05,0.008731206,0.00873127,0.011356299,0.02974006,0.029740056,0.15407224,1.950458e-11,1.9500679e-11,3.2778252e-11,0.0,0.0,5e-08,0.0,0.0,0.0,0.0,0.0,0.0,0.0,0.0,0.00013815153,0.0019991207,0.004297006,67240471,0.24388546,0.39252037,0.01694481,0.029939026,0.028495554,0.028495554,0.0,0.0,0.0,0.0,0,0,0,895,24,0,0,0,0,0,0,0
132504907,0.9476627,0.0074572368,-0.0107399635,0.3190055,0.02692499,-0.0011282772,-0.0031525465,-0.7899153,0.14282002,-0.5388007,2.7381324e-05,-8.848672e-06,-2.2230592e-05,0.0,0.0,-0.00046322346,0.23951438,0.0040492886,0.36314076,0.0,0.0,0.0,0.0,0.0,2.1037638e-10,1.2575381e-05,0.00035861635,3.6010636e-06,3.4921004e-06,3.4909253e-06,3.1199477e-05,0.008724312,0.0087243775,0.01139639,0.029685013,0.029685013,0.15540779,1.9503746e-11,1.9499813e-11,3.277818e-11,0.0,0.0,5.000036e-08,0.0,0.0,0.0,0.0,0.0,0.0,0.0,0.0,0.000289193,0.00057148555,0.0019377434,67240471,0.24365965,0.39421794,0.03922669,0.010599212,0.028871728,0.028871728,0.0,0.0,0.0,0.0,0,0,0,895,24,0,0,0,0,0,0,0
132704866,0.9476302,0.007078773,-0.010878072,0.31910577,0.0275816,-0.0031520415,-0.0034132765,-0.7817166,0.13960621,-0.5374557,2.7383048e-05,-8.889331e-06,-2.2261322e-05,0.0,0.0,-0.00046287454,0.23951438,0.0040492886,0.36314076,0.0,0.0,0.0,0.0,0.0,2.2122765e-10,1.3030463e-05,0.00032243022,3.602027e-06,3.4914028e-06,3.4899233e-06,3.1198506e-05,0.00871745,0.008717518,0.011377847,0.029628078,0.029628076,0.15478818,1.9502993e-11,1.9499026e-11,3.2778107e-11,0.0,0.0,5.000018e-08,0.0,0.0,0.0,0.0,0.0,0.0,0.0,0.0,0.0003380751,0.0012971314,0.0022925225,67240471,0.24342586,0.3934313,0.10165069,0.02725913,0.028922312,0.028922312,0.0,0.0,0.0,0.0,0,0,0,895,24,0,0,0,0,0,0,0
132904872,0.9476912,0.0072255167,-0.010795284,0.31892416,0.027504502,-0.0013990797,-0.005390205,-0.7724567,0.13980468,-0.5427819,2.7370823e-05,-8.895349e-06,-2.2178127e-05,0.0,0.0,-0.0004606534,0.23951438,0.0040492886,0.36314076,0.0,0.0,0.0,0.0,0.0,2.662437e-10,1.3289413e-05,0.0002998482,3.6006604e-06,3.4906966e-06,3.4893449e-06,3.119975e-05,0.008711893,0.008711962,0.011416202,0.029580938,0.029580938,0.15610693,1.950241e-11,1.9498408e-11,3.2778034e-11,0.0,0.0,5.000036e-08,0.0,0.0,0.0,0.0,0.0,0.0,0.0,0.0,9.842991e-05,0.0013699405,0.0034856815,67240471,0.24323215,0.3951037,0.063581206,0.017555768,0.025869051,0.025869051,0.0,0.0,0.0,0.0,0,0,0,895,24,0,0,0,0,0,0,0
133104863,0.94768417,0.0074066445,-0.01057056,0.31894863,0.02982429,-0.002735246,-0.00606873,-0.7636592,0.13909405,-0.5495775,2.7367994e-05,-8.911795e-06,-2.2220484e-05,0.0,0.0,-0.00045764583,0.23951438,0.0040492886,0.36314076,0.0,0.0,0.0,0.0,0.0,2.1040884e-10,1.2729987e-05,0.0003158345,3.5995217e-06,3.490033e-06,3.488924e-06,3.1200852e-05,0.008706541,0.00870661,0.011393803,0.029542051,0.029542059,0.1554277,1.950195e-11,1.9497914e-11,3.2777957e-11,0.0,0.0,5.000018e-08,0.0,0.0,0.0,0.0,0.0,0.0,0.0,0.0,4.5476634e-05,0.0017369234,0.005004415,67240471,0.24307223,0.39424318,0.0396649,0.018925989,0.022424715,0.022424715,0.0,0.0,0.0,0.0,0,0,0,895,24,0,0,0,0,0,0,0
133304880,0.9476799,0.007166036,-0.010612793,0.31896526,0.02993005,-0.0013125184,-0.00783791,-0.7566494,0.13994414,-0.5549837,2.7344999e-05,-8.929574e-06,-2.2178683e-05,0.0,0.0,-0.00045512282,0.23951438,0.0040492886,0.36314076,0.0,0.0,0.0,0.0,0.0,1.9748557e-10,1.3091364e-05,0.00036315457,3.6011186e-06,3.491886e-06,3.4906075e-06,3.119928e-05,0.008713567,0.00871364,0.0113755725,0.029527044,0.029527053,0.15477212,1.9504056e-11,1.9499987e-11,3.277786e-11,0.0,0.0,5.0000093e-08,0.0,0.0,0.0,0.0,0.0,0.0,0.0,0.0,9.8762044e-05,0.0020367499,0.005763508,67240471,0.24301049,0.3934109,0.014752978,0.02217959,0.019286742,0.019286742,0.0,0.0,0.0,0.0,0,0,0,895,24,0,0,0,0,0,0,0
133504849,0.9476696,0.0071461843,-0.010584412,0.31899723,0.027325455,3.2310665e-05,-0.006198332,-0.7498474,0.14029527,-0.5512537,2.7330085e-05,-8.947504e-06,-2.218797e-05,0.0,0.0,-0.00045669798,0.23951438,0.0040492886,0.36314076,0.0,0.0,0.0,0.0,0.0,6.501622e-09,9.682909e-05,0.0028969264,3.6012786e-06,3.4909456e-06,3.489666e-06,3.1199095e-05,0.008707015,0.008707094,0.011413812,0.029488584,0.029488599,0.1560839,1.9503118e-11,1.9499014e-11,3.277775e-11,0.0,0.0,5.000036e-08,0.0,0.0,0.0,0.0,0.0,0.0,0.0,0.0,8.784443e-05,0.0014494623,0.0033785445,131607,0.24285218,0.39507455,0.045718122,0.018367829,0.016555483,0.016555483,0.0,0.0,0.0,0.0,0,0,0,895,24,0,0,0,0,0,0,0
133704851,0.9476998,0.0072152996,-0.010556621,0.31890702,0.0257387,0.0008071103,-0.002636251,-0.74189997,0.13729724,-0.542162,2.7352611e-05,-8.978561e-06,-2.2057826e-05,0.0,0.0,-0.00046014303,0.23951438,0.0040492886,0.36314076,0.0,0.0,0.0,0.0,0.0,7.79873e-09,0.00013226907,0.0035483905,3.6035522e-06,3.4924196e-06,3.491199e-06,3.1196763e-05,0.008712512,0.008712595,0.011396617,0.029473634,0.02947365,0.15543815,1.9504853e-11,1.9500708e-11,3.2777628e-11,0.0,0.0,5.000027e-08,0.0,0.0,0.0,0.0,0.0,0.0,0.0,0.0,0.00041759017,0.0021105849,0.005898315,131607,0.24279062,0.39425647,0.081476666,0.018064206,0.018323941,0.018323941,0.0,0.0,0.0,0.0,0,0,0,895,24,0,0,0,0,0,0,0
133904875,0.94764346,0.0071354806,-0.010624058,0.31907406,0.025962546,0.0022900826,-0.0051133092,-0.7380943,0.14190482,-0.54289156,2.7295611e-05,-8.99421e-06,-2.1988832e-05,0.0,0.0,-0.00045957998,0.23951438,0.0040492886,0.36314076,0.0,0.0,0.0,0.0,0.0,5.767825e-09,0.0001059545,0.0027361626,3.6093506e-06,3.493411e-06,3.4920695e-06,3.119095e-05,0.008715356,0.008715437,0.011379245,0.029440193,0.029440207,0.15479487,1.9505998e-11,1.950182e-11,3.2777513e-11,0.0,0.0,5.0000093e-08,0.0,0.0,0.0,0.0,0.0,0.0,0.0,0.0,0.0005219062,0.0022315457,0.0050387513,131607,0.24265283,0.3934398,0.053894147,0.030060992,0.015404346,0.015404346,0.0,0.0,0.0,0.0,0,0,0,895,24,0,0,0,0,0,0,0
134104861,0.9476586,0.0074045314,-0.010522492,0.31902602,0.02448332,0.0020753972,-0.0010175386,-0.73146534,0.14196597,-0.54035324,2.7295577e-05,-9.026054e-06,-2.188913e-05,0.0,0.0,-0.00045976945,0.23951438,0.0040492886,0.36314076,0.0,0.0,0.0,0.0,0.0,4.180808e-09,8.397019e-05,0.0023292797,3.6114373e-06,3.4914347e-06,3.4902848e-06,3.1188738e-05,0.008700253,0.008700338,0.011359734,0.029361797,0.02936182,0.15416096,1.950404e-11,1.9499817e-11,3.2777395e-11,0.0,0.0,5e-08,0.0,0.0,0.0,0.0,0.0,0.0,0.0,0.0,0.0005720936,0.0015606756,0.00454169,131607,0.24232957,0.39263338,0.039299,0.022789348,0.022309596,0.022309596,0.0,0.0,0.0,0.0,0,0,0,895,24,0,0,0,0,0,0,0
134704851,0.9478048,0.008007373,-0.010626741,0.31857336,0.025787955,0.005597501,-0.0023549537,-0.70376474,0.15032665,-0.5333101,2.7267886e-05,-9.059856e-06,-2.1526857e-05,0.0,0.0,-0.00046017667,0.23951438,0.0040492886,0.36314076,0.0,0.0,0.0,0.0,0.0,2.2511892e-09,5.9375616e-05,0.002306363,3.612833e-06,3.4871214e-06,3.4861769e-06,3.1186984e-05,0.008664184,0.008664273,0.0113595575,0.029090425,0.02909046,0.15420564,1.9499806e-11,1.949543e-11,3.277703e-11,0.0,0.0,5e-08,0.0,0.0,0.0,0.0,0.0,0.0,0.0,0.0,0.0007199082,0.0009063155,0.0030154719,131607,0.24120714,0.39269024,0.022079606,0.020478262,0.034523502,0.034523502,0.0,0.0,0.0,0.0,0,0,0,895,24,0,0,0,0,0,0,0
134904848,0.94758874,0.0072505223,-0.011046513,0.3192194,0.031737972,0.0055881063,-0.0011799858,-0.68641376,0.15258603,-0.52934366,2.7295602e-05,-9.033652e-06,-2.1963368e-05,0.0,0.0,-0.00046086553,0.23951438,0.0040492886,0.36314076,0.0,0.0,0.0,0.0,0.0,1.89982e-09,5.563669e-05,0.0023605744,3.6118706e-06,3.486556e-06,3.4849422e-06,3.1187992e-05,0.0086564515,0.008656544,0.01139928,0.029021157,0.029021196,0.15553303,1.9499005e-11,1.9494578e-11,3.277691e-11,0.0,0.0,5.0000363e-08,0.0,0.0,0.0,0.0,0.0,0.0,0.0,0.0,0.0010516823,0.002500735,0.005227796,131607,0.24091981,0.39437675,0.010830049,0.011153849,0.038974646,0.038974646,0.0,0.0,0.0,0.0,0,0,0,895,24,0,0,0,0,0,0,0
135104849,0.9476532,0.0072643277,-0.011193535,0.3190229,0.031792823,0.009106757,-0.0026639448,-0.6715205,0.1583649,-0.53217345,2.7289167e-05,-9.0161875e-06,-2.1840115e-05,0.0,0.0,-0.0004591274,0.23951438,0.0040492886,0.36314076,0.0,0.0,0.0,0.0,0.0,2.0056516e-09,5.6682024e-05,0.0025078077,3.611474e-06,3.4859845e-06,3.4842742e-06,3.1188272e-05,0.008650648,0.00865074,0.011379893,0.028963586,0.028963637,0.1548961,1.9498386e-11,1.949391e-11,3.2776788e-11,0.0,0.0,5.0000178e-08,0.0,0.0,0.0,0.0,0.0,0.0,0.0,0.0,0.00012698144,0.0023039556,0.004959346,131607,0.24068074,0.39356843,0.020915464,0.013834621,0.040792823,0.040792823,0.0,0.0,0.0,0.0,0,0,0,895,24,0,0,0,0,0,0,0
135304896,0.9478043,0.007848691,-0.010968778,0.31856745,0.034620795,0.01070844,-0.006597397,-0.65649277,0.16223517,-0.5330102,2.7303031e-05,-9.020184e-06,-2.1602229e-05,0.0,0.0,-0.00045746946,0.23951438,0.0040492886,0.36314076,0.0,0.0,0.0,0.0,0.0,1.8191282e-09,5.9004593e-05,0.0023419366,3.6092213e-06,3.4853642e-06,3.484123e-06,3.119037e-05,0.008647775,0.008647857,0.011361363,0.028916202,0.028916255,0.15427394,1.9497976e-11,1.949345e-11,3.2776667e-11,0.0,0.0,5.000009e-08,0.0,0.0,0.0,0.0,0.0,0.0,0.0,0.0,0.0009213589,0.0016516494,0.004184399,131607,0.24048379,0.3927772,0.037012633,0.018343346,0.043575805,0.043575805,0.0,0.0,0.0,0.0,0,0,0,895,24,0,0,0,0,0,0,0
135504856,0.9478764,0.0073734163,-0.01106299,0.31836095,0.032435138,0.00966418,-0.0049850936,-0.6464158,0.16483058,-0.53340197,2.7290982e-05,-9.072262e-06,-2.1452674e-05,0.0,0.0,-0.00045679402,0.23951438,0.0040492886,0.36314076,0.0,0.0,0.0,0.0,0.0,1.8148143e-09,6.1430335e-05,0.002243032,3.6093527e-06,3.482681e-06,3.4810819e-06,3.119034e-05,0.008631089,0.008631175,0.0113987755,0.02884874,0.028848795,0.15560494,1.9494961e-11,1.9490383e-11,3.2776545e-11,0.0,0.0,5.0000363e-08,0.0,0.0,0.0,0.0,0.0,0.0,0.0,0.0,0.0010326928,0.00076866086,0.00062762736,131607,0.24020311,0.39446792,0.0017555287,0.043172326,0.041932248,0.041932248,0.0,0.0,0.0,0.0,0,0,0,895,24,0,0,0,0,0,0,0
135704854,0.94793874,0.00712068,-0.011085894,0.31818026,0.033613425,0.008590926,-0.00040132273,-0.63215744,0.16498734,-0.5220695,2.7323433e-05,-9.1012e-06,-2.1327152e-05,0.0,0.0,-0.00045951238,0.23951438,0.0040492886,0.36314076,0.0,0.0,0.0,0.0,0.0,2.1073816e-09,6.309553e-05,0.002222554,3.609217e-06,3.4829036e-06,3.481163e-06,3.1190477e-05,0.008629532,0.008629615,0.011380996,0.0288195,0.028819561,0.15498874,1.9495239e-11,1.9490607e-11,3.277642e-11,0.0,0.0,5.000027e-08,0.0,0.0,0.0,0.0,0.0,0.0,0.0,0.0,0.0007669003,0.0019629495,0.005900131,131607,0.24008137,0.3936861,0.03081426,0.0256088,0.04249045,0.04249045,0.0,0.0,0.0,0.0,0,0,0,895,24,0,0,0,0,0,0,0
136104851,0.9481414,0.007508208,-0.011105624,0.31756622,0.04310544,0.013147866,0.0048036603,-0.5951579,0.17647414,-0.5017108,2.7352464e-05,-9.037397e-06,-2.0969113e-05,0.0,0.0,-0.00046371325,0.23951438,0.0040492886,0.36314076,0.0,0.0,0.0,0.0,0.0,1.6352033e-09,5.7042704e-05,0.0023636054,3.606922e-06,3.4812056e-06,3.4796833e-06,3.119259e-05,0.008618432,0.00861851,0.011399672,0.028752143,0.02875219,0.15569225,1.9493551e-11,1.9488815e-11,3.2776178e-11,0.0,0.0,5.0000363e-08,0.0,0.0,0.0,0.0,0.0,0.0,0.0,0.0,0.00090754434,0.0027234536,0.009144549,131607,0.23980062,0.39457858,0.052754667,0.0065717185,0.04281398,0.04281398,0.0,0.0,0.0,0.0,0,0,0,895,24,0,0,0,0,0,0,0
136304848,0.9480657,0.007130003,-0.011321898,0.3177931,0.041275274,0.014646238,0.0053597717,-0.584218,0.17711268,-0.5009893,2.7350832e-05,-9.106928e-06,-2.0995762e-05,0.0,0.0,-0.00046326092,0.23951438,0.0040492886,0.36314076,0.0,0.0,0.0,0.0,0.0,3.0966902e-09,9.521616e-05,0.0029316375,3.6104936e-06,3.481899e-06,3.4799923e-06,3.1188985e-05,0.008619859,0.008619929,0.011381093,0.028740365,0.028740423,0.15506294,1.9494146e-11,1.9489356e-11,3.2776053e-11,0.0,0.0,5.000027e-08,0.0,0.0,0.0,0.0,0.0,0.0,0.0,0.0,0.0003435818,0.0012724951,0.0025173125,131607,0.23975152,0.39378032,0.048084736,0.04468143,0.039844446,0.039844446,0.0,0.0,0.0,0.0,0,0,0,895,24,0,0,0,0,0,0,0
136504848,0.94814163,0.0075877807,-0.0115392525,0.31754816,0.04257754,0.020479415,0.00011710229,-0.5705314,0.18085733,-0.5043366,2.7352751e-05,-9.139543e-06,-2.0747832e-05,0.0,0.0,-0.00046113075,0.23951438,0.0040492886,0.36314076,0.0,0.0,0.0,0.0,0.0,6.7582464e-09,0.00014630648,0.0045593157,3.6130302e-06,3.4846817e-06,3.4828358e-06,3.1186075e-05,0.008635187,0.008635239,0.011365252,0.028759558,0.028759612,0.15444085,1.9497078e-11,1.9492241e-11,3.2775938e-11,0.0,0.0,5.000009e-08,0.0,0.0,0.0,0.0,0.0,0.0,0.0,0.0,0.0009849509,0.0016921363,0.004571639,131607,0.23983154,0.39298964,0.06992427,0.031597406,0.04010017,0.04010017,0.0,0.0,0.0,0.0,0,0,0,895,24,0,0,0,0,0,0,0
136704859,0.9483415,0.007794587,-0.0118393395,0.3169344,0.045439433,0.012250717,-0.0027250971,-0.55110884,0.18319689,-0.50682974,2.739504e-05,-9.131267e-06,-2.0497886e-05,0.0,0.0,-0.00045889115,0.23951438,0.0040492886,0.36314076,0.0,0.0,0.0,0.0,0.0,7.682583e-09,0.00015105687,0.0049933977,3.6074046e-06,3.4844445e-06,3.4825152e-06,3.1191423e-05,0.008634346,0.008634415,0.011347028,0.028750338,0.028750388,0.15382686,1.9496618e-11,1.949174e-11,3.2775838e-11,0.0,0.0,5e-08,0.0,0.0,0.0,0.0,0.0,0.0,0.0,0.0,0.0013557349,0.0016615381,0.0041454704,131607,0.23979309,0.39220768,0.051191557,0.017137302,0.04315769,0.04315769,0.0,0.0,0.0,0.0,0,0,0,895,24,0,0,0,0,0,0,0
136904855,0.94864684,0.0073033203,-0.011699742,0.3160364,0.034345616,0.0034747557,0.00064947264,-0.5352499,0.18887118,-0.50449765,2.7392685e-05,-9.117892e-06,-2.0188741e-05,0.0,0.0,-0.00045964317,0.23951438,0.0040492886,0.36314076,0.0,0.0,0.0,0.0,0.0,9.437322e-09,0.00015315488,0.005300615,3.59734e-06,3.4840107e-06,3.4819304e-06,3.120175e-05,0.008631826,0.008631949,0.011387743,0.028743356,0.028743396,0.1551674,1.9496236e-11,1.9491301e-11,3.2775706e-11,0.0,0.0,5.0000267e-08,0.0,0.0,0.0,0.0,0.0,0.0,0.0,0.0,0.0016243709,0.0009161292,0.002498757,131607,0.23976395,0.39391294,0.08037987,0.015574356,0.040015753,0.040015753,0.0,0.0,0.0,0.0,0,0,0,895,24,0,0,0,0,0,0,0
137104883,0.94894576,0.0074307215,-0.01056348,0.3151749,0.026948169,-0.00040040584,-0.006833737,-0.52427214,0.19144298,-0.5109642,2.7377595e-05,-9.13511e-06,-1.9954054e-05,0.0,0.0,-0.00045685697,0.23951438,0.0040492886,0.36314076,0.0,0.0,0.0,0.0,0.0,9.734017e-09,0.0001651438,0.0056016287,3.5853866e-06,3.482951e-06,3.4817099e-06,3.1214215e-05,0.008632765,0.00863292,0.011370043,0.028738331,0.028738374,0.15455854,1.9495894e-11,1.9490867e-11,3.2775515e-11,0.0,0.0,5.0000178e-08,0.0,0.0,0.0,0.0,0.0,0.0,0.0,0.0,0.0014442927,0.0015480848,0.0055650463,131607,0.239743,0.39313933,0.08698729,0.031595938,0.042495556,0.042495556,0.0,0.0,0.0,0.0,0,0,0,895,24,0,0,0,0,0,0,0
137304894,0.94910663,0.008110398,-0.010545849,0.3146737,0.03744575,0.011375112,0.0011913643,-0.5175983,0.19192725,-0.5044025,2.736047e-05,-9.222531e-06,-1.9701072e-05,0.0,0.0,-0.00045912113,0.23951438,0.0040492886,0.36314076,0.0,0.0,0.0,0.0,0.0,9.312691e-09,0.00018153847,0.005827907,3.5820815e-06,3.4825557e-06,3.4816062e-06,3.121709e-05,0.008628071,0.008628163,0.0113531845,0.02873428,0.028734319,0.15396269,1.9495482e-11,1.9490354e-11,3.2775314e-11,0.0,0.0,5.0000093e-08,0.0,0.0,0.0,0.0,0.0,0.0,0.0,0.0,0.0013772224,0.0029799663,0.005446724,131607,0.2397261,0.3923808,0.11155453,0.05796695,0.038390614,0.038390614,0.0,0.0,0.0,0.0,0,0,0,895,24,0,0,0,0,0,0,0
137504948,0.9491459,0.0073976493,-0.010525617,0.31457382,0.037550565,0.0070569557,-0.0019590645,-0.50484604,0.19633211,-0.50652885,2.7344937e-05,-9.237007e-06,-1.9504716e-05,0.0,0.0,-0.00045840244,0.23951438,0.0040492886,0.36314076,0.0,0.0,0.0,0.0,0.0,9.55402e-09,0.00019489258,0.0060102562,3.5855978e-06,3.4823443e-06,3.480998e-06,3.1213847e-05,0.008627998,0.00862809,0.01139514,0.02873147,0.028731504,0.1553239,1.9495225e-11,1.9490052e-11,3.2775165e-11,0.0,0.0,5.000044e-08,0.0,0.0,0.0,0.0,0.0,0.0,0.0,0.0,0.0012039123,0.0019323924,0.0048192604,131607,0.23971437,0.3941115,0.048787378,0.029323602,0.039991472,0.039991472,0.0,0.0,0.0,0.0,0,0,0,895,24,0,0,0,0,0,0,0
137704851,0.9492872,0.0071661375,-0.010638429,0.3141486,0.037332464,0.011274287,-0.002849322,-0.48429903,0.20389597,-0.49960363,2.735241e-05,-9.177388e-06,-1.9301935e-05,0.0,0.0,-0.0004599076,0.23951438,0.0040492886,0.36314076,0.0,0.0,0.0,0.0,0.0,1.2457878e-08,0.00023434003,0.0066035637,3.582124e-06,3.4820714e-06,3.4805541e-06,3.1217314e-05,0.008627605,0.00862771,0.011378302,0.028729163,0.028729193,0.15473086,1.949489e-11,1.948967e-11,3.277501e-11,0.0,0.0,5.0000267e-08,0.0,0.0,0.0,0.0,0.0,0.0,0.0,0.0,0.0011400582,0.0022189966,0.0034529804,131607,0.23970473,0.39335844,0.012932393,0.009954867,0.043607987,0.043607987,0.0,0.0,0.0,0.0,0,0,0,895,24,0,0,0,0,0,0,0
137904848,0.9494117,0.0077447155,-0.010334402,0.31376863,0.04769014,0.014283889,0.004273136,-0.47289738,0.20585033,-0.49388695,2.7348482e-05,-9.227078e-06,-1.9194458e-05,0.0,0.0,-0.00046298254,0.23951438,0.0040492886,0.36314076,0.0,0.0,0.0,0.0,0.0,1.3569215e-08,0.00024865376,0.0065792208,3.5763214e-06,3.4815782e-06,3.4805212e-06,3.1222953e-05,0.008623897,0.008623976,0.011362067,0.028727477,0.028727513,0.15414964,1.9494578e-11,1.9489299e-11,3.277485e-11,0.0,0.0,5.0000178e-08,0.0,0.0,0.0,0.0,0.0,0.0,0.0,0.0,0.0007571211,0.0013417866,0.0027633558,131607,0.2396977,0.39261895,0.02898505,0.03900818,0.040020775,0.040020775,0.0,0.0,0.0,0.0,0,0,0,895,24,0,0,0,0,0,0,0
138104848,0.9493544,0.0075343107,-0.010426548,0.3139441,0.04831055,0.009544487,0.008012288,-0.45462573,0.20896243,-0.47801724,2.7371658e-05,-9.237737e-06,-1.912093e-05,0.0,0.0,-0.00046800452,0.23951438,0.0040492886,0.36314076,0.0,0.0,0.0,0.0,0.0,1.0088428e-08,0.00020257513,0.0054360107,3.5816217e-06,3.4814254e-06,3.4802063e-06,3.1217667e-05,0.008622708,0.0086227935,0.01134521,0.028726352,0.028726393,0.15356652,1.9494354e-11,1.9489054e-11,3.277473e-11,0.0,0.0,5e-08,0.0,0.0,0.0,0.0,0.0,0.0,0.0,0.0,0.00048424842,0.0027981915,0.008518061,131607,0.23969303,0.39187565,0.059051774,0.024655335,0.04406732,0.04406732,0.0,0.0,0.0,0.0,0,0,0,895,24,0,0,0,0,0,0,0
138304848,0.9494405,0.00723113,-0.010486718,0.31368855,0.049126558,0.015357231,0.0055448315,-0.43843874,0.216239,-0.48145512,2.7353462e-05,-9.238715e-06,-1.899051e-05,0.0,0.0,-0.0004656864,0.23951438,0.0040492886,0.36314076,0.0,0.0,0.0,0.0,0.0,7.8897795e-09,0.0001661445,0.0047222143,3.579286e-06,3.4812904e-06,3.4798647e-06,3.1220046e-05,0.008622001,0.008622086,0.011387588,0.028725576,0.028725618,0.15493637,1.949417e-11,1.9488843e-11,3.2774613e-11,0.0,0.0,5.0000352e-08,0.0,0.0,0.0,0.0,0.0,0.0,0.0,0.0,0.0005704324,0.00058900064,0.0015107235,131607,0.2396898,0.39361957,0.011470917,0.024881614,0.041350137,0.041350137,0.0,0.0,0.0,0.0,0,0,0,895,24,0,0,0,0,0,0,0
138504898,0.949538,0.0075912685,-0.010256883,0.3133923,0.049266975,0.0152356755,0.0052021295,-0.42188653,0.22003141,-0.4755419,2.7365884e-05,-9.255314e-06,-1.8835246e-05,0.0,0.0,-0.00046689922,0.23951438,0.0040492886,0.36314076,0.0,0.0,0.0,0.0,0.0,6.287839e-09,0.0001429327,0.0042010485,3.5768878e-06,3.4809532e-06,3.47987e-06,3.1222342e-05,0.008621331,0.008621413,0.011371272,0.028725045,0.028725097,0.15436086,1.9493998e-11,1.9488645e-11,3.2774502e-11,0.0,0.0,5.0000178e-08,0.0,0.0,0.0,0.0,0.0,0.0,0.0,0.0,0.0007417075,0.00036039887,0.0019250097,131607,0.23968759,0.39288786,0.0428083,0.021452725,0.039405312,0.039405312,0.0,0.0,0.0,0.0,0,0,0,895,24,0,0,0,0,0,0,0
138704851,0.9496163,0.007635148,-0.010219396,0.31315538,0.048306223,0.01243411,0.007137128,-0.40712407,0.22578728,-0.47484288,2.7352156e-05,-9.2694845e-06,-1.868202e-05,0.0,0.0,-0.00046658053,0.23951438,0.0040492886,0.36314076,0.0,0.0,0.0,0.0,0.0,5.0367457e-09,0.00012334097,0.003652537,3.5756814e-06,3.4807385e-06,3.4796851e-06,3.12234e-05,0.008619315,0.008619395,0.011354903,0.028724594,0.028724642,0.15378955,1.9493802e-11,1.9488423e-11,3.2774387e-11,0.0,0.0,5.000009e-08,0.0,0.0,0.0,0.0,0.0,0.0,0.0,0.0,0.00080984377,0.0007256479,0.0032712508,131607,0.2396857,0.39216012,0.054596633,0.027208103,0.03734609,0.03734609,0.0,0.0,0.0,0.0,0,0,0,895,24,0,0,0,0,0,0,0
138904853,0.9494654,0.007234722,-0.010273744,0.31362018,0.04058197,0.016063401,0.0020176808,-0.39864084,0.2333277,-0.47402212,2.7279733e-05,-9.321342e-06,-1.8956007e-05,0.0,0.0,-0.00046378633,0.23951438,0.0040492886,0.36314076,0.0,0.0,0.0,0.0,0.0,5.0186015e-09,0.00012304529,0.003462044,3.5752535e-06,3.4806687e-06,3.479302e-06,3.1223808e-05,0.008619735,0.008619817,0.011338954,0.028724356,0.028724417,0.15322858,1.9493646e-11,1.9488236e-11,3.2774256e-11,0.0,0.0,5e-08,0.0,0.0,0.0,0.0,0.0,0.0,0.0,0.0,0.00060944963,0.003105054,0.0063784206,131607,0.23968475,0.39144424,0.034771018,0.05483439,0.035970032,0.035970032,0.0,0.0,0.0,0.0,0,0,0,895,24,0,0,0,0,0,0,0
139104848,0.94958,0.007540402,-0.010150558,0.31326982,0.03968813,0.012725859,0.0025228718,-0.38865152,0.23556224,-0.47359473,2.7284585e-05,-9.378781e-06,-1.875326e-05,0.0,0.0,-0.0004621008,0.23951438,0.0040492886,0.36314076,0.0,0.0,0.0,0.0,0.0,5.5327862e-09,0.0001342594,0.0035403294,3.5732917e-06,3.4804789e-06,3.4793213e-06,3.1225532e-05,0.008618147,0.008618222,0.011381878,0.02872427,0.028724335,0.15461113,1.9493534e-11,1.9488085e-11,3.2774113e-11,0.0,0.0,5.0000356e-08,0.0,0.0,0.0,0.0,0.0,0.0,0.0,0.0,0.00016267337,0.0027736195,0.0067560286,131607,0.23968439,0.3932062,0.08004184,0.0370643,0.032802608,0.032802608,0.0,0.0,0.0,0.0,0,0,0,895,24,0,0,0,0,0,0,0
139304848,0.94962955,0.0075850287,-0.010142299,0.31311873,0.0386339,0.013895311,0.0011081902,-0.37495077,0.23861602,-0.474035,2.7301105e-05,-9.39491e-06,-1.8630608e-05,0.0,0.0,-0.00046078712,0.23951438,0.0040492886,0.36314076,0.0,0.0,0.0,0.0,0.0,6.0337335e-09,0.00014388481,0.003720279,3.5729447e-06,3.4803465e-06,3.4792113e-06,3.122569e-05,0.008617265,0.00861734,0.011365742,0.028724149,0.028724218,0.15404896,1.9493417e-11,1.9487929e-11,3.2773968e-11,0.0,0.0,5.0000175e-08,0.0,0.0,0.0,0.0,0.0,0.0,0.0,0.0,0.00062929647,0.0015041045,0.0051520346,131607,0.23968388,0.3924907,0.06462479,0.017052505,0.033255037,0.033255037,0.0,0.0,0.0,0.0,0,0,0,895,24,0,0,0,0,0,0,0
139504878,0.94972223,0.007321201,-0.010232887,0.3128411,0.03931357,0.016597131,-0.00038441864,-0.36318278,0.24677026,-0.47515664,2.7267688e-05,-9.395633e-06,-1.8480605e-05,0.0,0.0,-0.0004589323,0.23951438,0.0040492886,0.36314076,0.0,0.0,0.0,0.0,0.0,6.062859e-09,0.0001419276,0.0037489752,3.5706719e-06,3.4802997e-06,3.4789332e-06,3.1227915e-05,0.008616492,0.008616561,0.01134998,0.028724018,0.02872409,0.15349646,1.9493305e-11,1.9487774e-11,3.2773822e-11,0.0,0.0,5.000009e-08,0.0,0.0,0.0,0.0,0.0,0.0,0.0,0.0,0.0008490327,0.0013505537,0.004197345,131607,0.23968334,0.39178625,0.053744186,0.025445348,0.03226261,0.03226261,0.0,0.0,0.0,0.0,0,0,0,895,24,0,0,0,0,0,0,0
139704907,0.9497768,0.0074587087,-0.010080822,0.3126769,0.036501415,0.017325664,-0.0012248734,-0.3523195,0.2541716,-0.46790144,2.7245469e-05,-9.403439e-06,-1.8399902e-05,0.0,0.0,-0.00046075278,0.23951438,0.0040492886,0.36314076,0.0,0.0,0.0,0.0,0.0,5.486519e-09,0.00013564926,0.0037605537,3.568497e-06,3.4800871e-06,3.4788663e-06,3.122996e-05,0.008616944,0.008617017,0.011392321,0.028723896,0.02872396,0.15488021,1.9493192e-11,1.9487622e-11,3.2773676e-11,0.0,0.0,5.0000356e-08,0.0,0.0,0.0,0.0,0.0,0.0,0.0,0.0,0.0006388691,0.0013258659,0.004515811,131607,0.23968282,0.39354822,0.03471726,0.022492317,0.027803333,0.027803333,0.0,0.0,0.0,0.0,0,0,0,895,24,0,0,0,0,0,0,0
139904848,0.94989055,0.0076178946,-0.009885191,0.3123334,0.03702548,0.014731027,0.0014268141,-0.33790997,0.25478962,-0.4594896,2.730134e-05,-9.418219e-06,-1.8289822e-05,0.0,0.0,-0.00046325196,0.23951438,0.0040492886,0.36314076,0.0,0.0,0.0,0.0,0.0,4.4499955e-09,0.00012199053,0.0033608144,3.5634e-06,3.4798488e-06,3.4788586e-06,3.123492e-05,0.008616192,0.008616265,0.011376358,0.028723804,0.028723873,0.15432565,1.9493095e-11,1.9487483e-11,3.2773517e-11,0.0,0.0,5.0000267e-08,0.0,0.0,0.0,0.0,0.0,0.0,0.0,0.0,0.0005827253,0.0020330003,0.005047516,131607,0.23968245,0.39284304,0.06823946,0.030308196,0.027927592,0.027927592,0.0,0.0,0.0,0.0,0,0,0,895,24,0,0,0,0,0,0,0
140104858,0.9499262,0.0073522166,-0.009938471,0.31222996,0.032998122,0.012524136,0.0054745926,-0.33001968,0.25586787,-0.4488645,2.7307453e-05,-9.476409e-06,-1.8163553e-05,0.0,0.0,-0.00046531338,0.23951438,0.0040492886,0.36314076,0.0,0.0,0.0,0.0,0.0,3.846113e-09,0.00011979983,0.0031979464,3.5640785e-06,3.4798632e-06,3.478664e-06,3.1234107e-05,0.00861436,0.008614433,0.011360244,0.028723773,0.028723832,0.15377343,1.9493046e-11,1.9487393e-11,3.2773357e-11,0.0,0.0,5.0000093e-08,0.0,0.0,0.0,0.0,0.0,0.0,0.0,0.0,0.00066196005,0.0023921619,0.0077621522,131607,0.2396823,0.39213955,0.01884107,0.03380854,0.026671976,0.026671976,0.0,0.0,0.0,0.0,0,0,0,895,24,0,0,0,0,0,0,0
140504848,0.9500548,0.0074617174,-0.009821077,0.31183952,0.028503703,0.009287723,0.0025849235,-0.31194618,0.259809,-0.44334665,2.7323227e-05,-9.540423e-06,-1.7900471e-05,0.0,0.0,-0.00046504807,0.23951438,0.0040492886,0.36314076,0.0,0.0,0.0,0.0,0.0,4.9312643e-09,0.00013745434,0.0034954702,3.5616679e-06,3.479726e-06,3.4786121e-06,3.1236064e-05,0.008615012,0.008615078,0.01138677,0.0287237,0.028723758,0.15461633,1.9492984e-11,1.9487238e-11,3.277302e-11,0.0,0.0,5.0000345e-08,0.0,0.0,0.0,0.0,0.0,0.0,0.0,0.0,0.00072086626,0.0020681797,0.0060844473,131607,0.23968199,0.39321283,0.035576586,0.036579832,0.023149507,0.023149507,0.0,0.0,0.0,0.0,0,0,0,895,24,0,0,0,0,0,0,0
140704851,0.95005995,0.007067905,-0.00999945,0.31182712,0.02605186,0.010457946,0.0061158654,-0.30047634,0.26263624,-0.4451941,2.733688e-05,-9.525318e-06,-1.781434e-05,0.0,0.0,-0.00046383007,0.23951438,0.0040492886,0.36314076,0.0,0.0,0.0,0.0,0.0,4.395285e-09,0.00012788462,0.0035646285,3.5629032e-06,3.4797781e-06,3.4783393e-06,3.12347e-05,0.00861216,0.008612239,0.011368939,0.028723545,0.028723607,0.1540437,1.9492923e-11,1.948713e-11,3.2772854e-11,0.0,0.0,5.0000093e-08,0.0,0.0,0.0,0.0,0.0,0.0,0.0,0.0,0.0005504629,0.0007533511,0.0041997195,131607,0.23968135,0.392484,0.02912005,0.007639231,0.021099674,0.021099674,0.0,0.0,0.0,0.0,0,0,0,895,24,0,0,0,0,0,0,0
140904852,0.95012915,0.007137593,-0.009922476,0.31161702,0.024659595,0.008060647,0.0030201918,-0.29373354,0.26574978,-0.4459673,2.7325807e-05,-9.5383375e-06,-1.7683658e-05,0.0,0.0,-0.00046285428,0.23951438,0.0040492886,0.36314076,0.0,0.0,0.0,0.0,0.0,3.4920942e-09,0.00010502314,0.0032550688,3.5612675e-06,3.479737e-06,3.4783473e-06,3.123614e-05,0.008612989,0.008613061,0.011350754,0.028723506,0.028723568,0.1534681,1.9492937e-11,1.9487092e-11,3.277268e-11,0.0,0.0,5e-08,0.0,0.0,0.0,0.0,0.0,0.0,0.0,0.0,0.00060775946,0.0006311462,0.0045738034,131607,0.2396812,0.39175004,0.03561973,0.016795237,0.016764369,0.016764369,0.0,0.0,0.0,0.0,0,0,0,895,24,0,0,0,0,0,0,0
141104886,0.9502326,0.007326365,-0.0098539805,0.31129915,0.021909751,0.0069429674,-4.7457233e-05,-0.29053554,0.26531205,-0.4457034,2.7328275e-05,-9.592231e-06,-1.7546226e-05,0.0,0.0,-0.00046145823,0.23951438,0.0040492886,0.36314076,0.0,0.0,0.0,0.0,0.0,2.785051e-09,9.264499e-05,0.002984811,3.557458e-06,3.4796678e-06,3.4783739e-06,3.1239655e-05,0.008613655,0.008613719,0.011391994,0.02872334,0.028723394,0.1548422,1.9492895e-11,1.9486999e-11,3.2772497e-11,0.0,0.0,5.0000345e-08,0.0,0.0,0.0,0.0,0.0,0.0,0.0,0.0,0.00070768513,0.0015418715,0.0061781807,131607,0.23968048,0.39349994,0.07456528,0.027785996,0.014227317,0.014227317,0.0,0.0,0.0,0.0,0,0,0,895,24,0,0,0,0,0,0,0
141304868,0.9502975,0.0069593666,-0.0099502895,0.31110653,0.018558359,0.0077146953,0.0019660406,-0.28640744,0.2657325,-0.446763,2.7335756e-05,-9.616471e-06,-1.73884e-05,0.0,0.0,-0.0004621344,0.23951438,0.0040492886,0.36314076,0.0,0.0,0.0,0.0,0.0,2.9698588e-09,9.9102625e-05,0.0030958003,3.557059e-06,3.479708e-06,3.4781353e-06,3.1239873e-05,0.008612445,0.008612509,0.011374091,0.028723143,0.028723208,0.15426591,1.9492845e-11,1.9486903e-11,3.277232e-11,0.0,0.0,5.0000175e-08,0.0,0.0,0.0,0.0,0.0,0.0,0.0,0.0,0.00079041056,0.0011197425,0.0066876644,131607,0.2396797,0.39276698,0.06683044,0.012572278,0.008814494,0.008814494,0.0,0.0,0.0,0.0,0,0,0,895,24,0,0,0,0,0,0,0
141504865,0.9503988,0.006855853,-0.010033541,0.31079647,0.015412661,0.006231509,0.002708116,-0.28408962,0.2656617,-0.44093886,2.73358e-05,-9.64787e-06,-1.7204811e-05,0.0,0.0,-0.0004617367,0.23951438,0.0040492886,0.36314076,0.0,0.0,0.0,0.0,0.0,3.860057e-09,0.000119471464,0.0035331233,3.554932e-06,3.4797738e-06,3.478056e-06,3.124169e-05,0.008611933,0.008611997,0.0113567775,0.028722957,0.028723026,0.1536998,1.949284e-11,1.9486855e-11,3.2772146e-11,0.0,0.0,5.000009e-08,0.0,0.0,0.0,0.0,0.0,0.0,0.0,0.0,0.0009264684,0.0011906412,0.0063894526,131607,0.2396789,0.39204565,0.12336541,0.017078616,0.0072677694,0.0072677694,0.0,0.0,0.0,0.0,0,0,0,895,24,0,0,0,0,0,0,0
141704883,0.950577,0.0072791777,-0.009897572,0.31024578,0.014508996,0.0053441185,0.0035111653,-0.28140962,0.26858324,-0.4464796,2.732158e-05,-9.650341e-06,-1.6911612e-05,0.0,0.0,-0.00045919057,0.23951438,0.0040492886,0.36314076,0.0,0.0,0.0,0.0,0.0,5.1801066e-09,0.00014340742,0.0039638286,3.551188e-06,3.4796976e-06,3.478254e-06,3.1245083e-05,0.008610407,0.0086104665,0.011397996,0.02872286,0.028722925,0.1550754,1.9492876e-11,1.9486848e-11,3.2771962e-11,0.0,0.0,5.0000338e-08,0.0,0.0,0.0,0.0,0.0,0.0,0.0,0.0,0.0013982264,0.0013776498,0.006179078,131607,0.2396785,0.39379615,0.031995587,0.016329821,0.006417498,0.006417498,0.0,0.0,0.0,0.0,0,0,0,895,24,0,0,0,0,0,0,0
141904848,0.9506361,0.007103326,-0.00990704,0.31006855,0.015962822,0.0026822211,0.0013942858,-0.27773935,0.26817724,-0.45049402,2.7337694e-05,-9.661851e-06,-1.6805912e-05,0.0,0.0,-0.00045588595,0.23951438,0.0040492886,0.36314076,0.0,0.0,0.0,0.0,0.0,6.442545e-09,0.00016520469,0.0043503414,3.5491973e-06,3.4797556e-06,3.4782042e-06,3.1246862e-05,0.008610241,0.0086103,0.011380872,0.028722776,0.028722836,0.15450805,1.9492926e-11,1.948686e-11,3.2771785e-11,0.0,0.0,5.000026e-08,0.0,0.0,0.0,0.0,0.0,0.0,0.0,0.0,0.00090506027,0.0014051349,0.0056172605,131607,0.23967814,0.39307514,0.038751066,0.024048897,0.0054135295,0.0054135295,0.0,0.0,0.0,0.0,0,0,0,895,24,0,0,0,0,0,0,0
142104848,0.95073235,0.007111691,-0.009903139,0.3097731,0.011926122,0.003780201,-0.00035063433,-0.2788487,0.26966596,-0.44538897,2.7311722e-05,-9.695154e-06,-1.6673614e-05,0.0,0.0,-0.0004568006,0.23951438,0.0040492886,0.36314076,0.0,0.0,0.0,0.0,0.0,9.279907e-09,0.0001877893,0.004857404,3.5454627e-06,3.4821342e-06,3.480535e-06,3.1250318e-05,0.008623947,0.008624006,0.011367153,0.0287508,0.028750867,0.15395646,1.9495508e-11,1.9489403e-11,3.277164e-11,0.0,0.0,5.0000168e-08,0.0,0.0,0.0,0.0,0.0,0.0,0.0,0.0,0.00068081485,0.0011311295,0.0054115197,131607,0.23979504,0.39237285,0.04672192,0.023692904,0.0040729586,0.0040729586,0.0,0.0,0.0,0.0,0,0,0,895,24,0,0,0,0,0,0,0
142304848,0.95078504,0.007508539,-0.009691121,0.3096089,0.008490196,0.006158146,-0.0043012537,-0.2771604,0.27198216,-0.44916463,2.7303435e-05,-9.698417e-06,-1.6599935e-05,0.0,0.0,-0.0004537891,0.23951438,0.0040492886,0.36314076,0.0,0.0,0.0,0.0,0.0,1.0110068e-08,0.00019210442,0.005011516,3.5426197e-06,3.4814102e-06,3.4801428e-06,3.1252857e-05,0.008622303,0.008622365,0.011350291,0.028747743,0.02874781,0.15340114,1.949485e-11,1.9488714e-11,3.277149e-11,0.0,0.0,5e-08,0.0,0.0,0.0,0.0,0.0,0.0,0.0,0.0,0.00046695524,0.0010899017,0.0043203835,131607,0.2397823,0.39166456,0.04187293,0.02194825,0.004463356,0.004463356,0.0,0.0,0.0,0.0,0,0,0,895,24,0,0,0,0,0,0,0
142504875,0.9507958,0.0073007136,-0.009764428,0.30957833,0.005080157,0.0030253618,-0.00092389423,-0.27601638,0.26856193,-0.44685107,2.7337266e-05,-9.734314e-06,-1.6543012e-05,0.0,0.0,-0.00045394566,0.23951438,0.0040492886,0.36314076,0.0,0.0,0.0,0.0,0.0,8.065559e-09,0.00017370372,0.0051791817,3.542129e-06,3.4810193e-06,3.4795792e-06,3.1253072e-05,0.008619042,0.0086191045,0.011392159,0.028744865,0.028744934,0.15478621,1.9494326e-11,1.9488158e-11,3.277134e-11,0.0,0.0,5.000034e-08,0.0,0.0,0.0,0.0,0.0,0.0,0.0,0.0,0.00036335396,0.00096251885,0.004033476,131607,0.23977031,0.3934288,0.04146442,0.0240058,0.0038460623,0.0038460623,0.0,0.0,0.0,0.0,0,0,0,895,24,0,0,0,0,0,0,0
144904849,0.9510223,0.0064646904,-0.0074497517,0.30896494,-0.008291099,0.0030651498,-0.006399078,-0.24985196,0.29213792,-0.43178758,2.752272e-05,-9.591744e-06,-1.6628994e-05,0.0,0.0,-0.00044552787,0.23951438,0.0040492886,0.36314076,0.0,0.0,0.0,0.0,0.0,1.348625e-09,3.5607183e-05,0.0009788274,3.5043224e-06,3.4781208e-06,3.4776142e-06,3.1288608e-05,0.008612458,0.0086125275,0.01135947,0.028725326,0.028725395,0.153854,1.9492612e-11,1.9486088e-11,3.2769454e-11,0.0,0.0,5.0000093e-08,0.0,0.0,0.0,0.0,0.0,0.0,0.0,0.0,0.00053471595,0.0024644244,0.004863995,131607,0.2396888,0.39224228,0.0022181012,0.030386165,0.011731137,0.011731137,0.0,0.0,0.0,0.0,0,0,0,895,24,0,0,0,0,0,0,0
145104915,0.95098287,0.006177543,-0.0075705475,0.30908918,-0.009710579,0.00571571,-0.0048011676,-0.24778134,0.29760638,-0.42964324,2.751448e-05,-9.562308e-06,-1.665556e-05,0.0,0.0,-0.00044725643,0.23951438,0.0040492886,0.36314076,0.0,0.0,0.0,0.0,0.0,9.887308e-10,2.8275042e-05,0.00077536586,3.5045168e-06,3.4781374e-06,3.4774073e-06,3.1288193e-05,0.008612124,0.008612194,0.011342261,0.028724696,0.028724764,0.15329316,1.949255e-11,1.9485998e-11,3.276933e-11,0.0,0.0,5e-08,0.0,0.0,0.0,0.0,0.0,0.0,0.0,0.0,0.0003277731,0.0022774723,0.0035260133,131607,0.23968618,0.3915267,0.027870312,0.0112052625,0.013466762,0.013466762,0.0,0.0,0.0,0.0,0,0,0,895,24,0,0,0,0,0,0,0
145304976,0.9509638,0.006378558,-0.007443645,0.30914676,-0.00992025,0.0047269147,-0.0063397754,-0.2431034,0.29863122,-0.4314176,2.7555925e-05,-9.541342e-06,-1.6745826e-05,0.0,0.0,-0.00044730617,0.23951438,0.0040492886,0.36314076,0.0,0.0,0.0,0.0,0.0,7.58356e-10,2.2536413e-05,0.000773883,3.5011788e-06,3.478014e-06,3.4774428e-06,3.129126e-05,0.008612959,0.008613033,0.011382801,0.028724272,0.028724337,0.15465684,1.9492507e-11,1.9485923e-11,3.2769218e-11,0.0,0.0,5.0000157e-08,0.0,0.0,0.0,0.0,0.0,0.0,0.0,0.0,0.00038864772,0.0013489166,0.001767358,131607,0.2396844,0.39326435,0.011994804,0.015963295,0.01392835,0.01392835,0.0,0.0,0.0,0.0,0,0,0,895,24,0,0,0,0,0,0,0
145504853,0.95094156,0.0066620493,-0.007241998,0.3092139,-0.014168573,0.004931594,-0.0075050797,-0.24690619,0.30290404,-0.43314314,2.7518949e-05,-9.566648e-06,-1.6879516e-05,0.0,0.0,-0.00044585252,0.23951438,0.0040492886,0.36314076,0.0,0.0,0.0,0.0,0.0,5.467295e-10,1.881726e-05,0.0006649409,3.4965624e-06,3.475498e-06,3.475102e-06,3.1295604e-05,0.008600814,0.008600886,0.011360603,0.028695779,0.02869584,0.15405598,1.9489842e-11,1.948323e-11,3.2769114e-11,0.0,0.0,5.000009e-08,0.0,0.0,0.0,0.0,0.0,0.0,0.0,0.0,0.00058729964,0.001688898,0.0029791924,131607,0.23956548,0.39249966,0.036499444,0.024710955,0.012186247,0.012186247,0.0,0.0,0.0,0.0,0,0,0,895,24,0,0,0,0,0,0,0
145704848,0.9508986,0.0062881904,-0.007403485,0.30935052,-0.014904455,0.00774703,-0.0053102137,-0.24542461,0.31051558,-0.42787218,2.7497934e-05,-9.528087e-06,-1.6941498e-05,0.0,0.0,-0.00044866334,0.23951438,0.0040492886,0.36314076,0.0,0.0,0.0,0.0,0.0,4.3663587e-10,1.7431126e-05,0.0005216,3.4959298e-06,3.473696e-06,3.473005e-06,3.1296117e-05,0.008589996,0.00859007,0.011398078,0.028670125,0.0286702,0.15541339,1.9487786e-11,1.9481146e-11,3.2769024e-11,0.0,0.0,5.0000402e-08,0.0,0.0,0.0,0.0,0.0,0.0,0.0,0.0,0.0005057807,0.0024807737,0.0036551943,131607,0.2394584,0.39422506,0.019660002,0.016847068,0.014867519,0.014867519,0.0,0.0,0.0,0.0,0,0,0,895,24,0,0,0,0,0,0,0
145904880,0.9508796,0.00636808,-0.00737312,0.30940792,-0.019267531,0.011418207,-0.008638311,-0.24766715,0.31791645,-0.43547073,2.7470187e-05,-9.516095e-06,-1.6991307e-05,0.0,0.0,-0.0004442715,0.23951438,0.0040492886,0.36314076,0.0,0.0,0.0,0.0,0.0,4.2083967e-10,1.6044074e-05,0.0004188714,3.494044e-06,3.4722416e-06,3.4715574e-06,3.129781e-05,0.00858166,0.008581737,0.011376821,0.028647223,0.028647292,0.15481344,1.9486246e-11,1.947958e-11,3.2768944e-11,0.0,0.0,5.0000242e-08,0.0,0.0,0.0,0.0,0.0,0.0,0.0,0.0,0.00035682932,0.0026421845,0.005523511,131607,0.23936273,0.3934634,0.037452765,0.029404793,0.014708691,0.014708691,0.0,0.0,0.0,0.0,0,0,0,895,24,0,0,0,0,0,0,0
146104905,0.95091736,0.0067444528,-0.0072722724,0.3092861,-0.019999042,0.0097505385,-0.0074022245,-0.24929655,0.3207103,-0.4345931,2.7492013e-05,-9.524924e-06,-1.6966871e-05,0.0,0.0,-0.0004453231,0.23951438,0.0040492886,0.36314076,0.0,0.0,0.0,0.0,0.0,3.325776e-10,1.4766367e-05,0.0003979368,3.4908142e-06,3.4734373e-06,3.472955e-06,3.130076e-05,0.008586881,0.008586955,0.011359356,0.02865482,0.028654888,0.15423085,1.9487674e-11,1.9480983e-11,3.2768878e-11,0.0,0.0,5.000015e-08,0.0,0.0,0.0,0.0,0.0,0.0,0.0,0.0,5.340247e-05,0.0009073139,0.0026169734,131607,0.23939447,0.39272237,0.00049624563,0.017431997,0.01467264,0.01467264,0.0,0.0,0.0,0.0,0,0,0,895,24,0,0,0,0,0,0,0
146304848,0.9508508,0.0064093373,-0.007574009,0.30949074,-0.010997511,0.01456356,-0.007533681,-0.23708595,0.33256072,-0.43439645,2.7518665e-05,-9.3696835e-06,-1.7084021e-05,0.0,0.0,-0.0004444428,0.23951438,0.0040492886,0.36314076,0.0,0.0,0.0,0.0,0.0,2.6782895e-10,1.4005087e-05,0.0003622114,3.489933e-06,3.4745706e-06,3.4738002e-06,3.1301555e-05,0.008591632,0.008591703,0.011341551,0.02866198,0.028662043,0.15364575,1.9488822e-11,1.9482116e-11,3.2768826e-11,0.0,0.0,5e-08,0.0,0.0,0.0,0.0,0.0,0.0,0.0,0.0,0.00044951047,0.0046863346,0.006287494,67240471,0.23942436,0.3919767,0.07933738,0.06554159,0.01638762,0.01638762,0.0,0.0,0.0,0.0,0,0,0,895,24,0,0,0,0,0,0,0
146504848,0.9507872,0.0061499574,-0.0077041485,0.309688,-0.008138011,0.016265621,-0.007909348,-0.23167612,0.33964416,-0.43571606,2.753914e-05,-9.314833e-06,-1.7201515e-05,0.0,0.0,-0.00044378595,0.23951438,0.0040492886,0.36314076,0.0,0.0,0.0,0.0,0.0,2.883309e-10,1.379112e-05,0.00036548392,3.488908e-06,3.475448e-06,3.474488e-06,3.1302527e-05,0.008595387,0.008595457,0.011383255,0.02866866,0.02866873,0.15501516,1.9489719e-11,1.9483e-11,3.276878e-11,0.0,0.0,5.0000306e-08,0.0,0.0,0.0,0.0,0.0,0.0,0.0,0.0,0.0006504368,0.0034383456,0.0048128385,67240471,0.23945227,0.39371964,0.056341328,0.024280984,0.014618622,0.014618622,0.0,0.0,0.0,0.0,0,0,0,895,24,0,0,0,0,0,0,0
146704859,0.9507555,0.006488446,-0.007613387,0.30978057,-0.008767966,0.016310114,-0.009582461,-0.23064528,0.3441137,-0.43849817,2.7558246e-05,-9.314287e-06,-1.7321507e-05,0.0,0.0,-0.00044167263,0.23951438,0.0040492886,0.36314076,0.0,0.0,0.0,0.0,0.0,2.4607888e-10,1.3322908e-05,0.00033782667,3.4855736e-06,3.4760328e-06,3.4752577e-06,3.130571e-05,0.008599033,0.008599103,0.011366719,0.028674882,0.028674943,0.15444346,1.9490414e-11,1.9483687e-11,3.276874e-11,0.0,0.0,5.0000242e-08,0.0,0.0,0.0,0.0,0.0,0.0,0.0,0.0,0.0007121324,0.0009472026,0.0014612307,67240471,0.23947823,0.39299294,0.012613298,0.015656406,0.014680676,0.014680676,0.0,0.0,0.0,0.0,0,0,0,895,24,0,0,0,0,0,0,0
146904849,0.9507373,0.0063797864,-0.0076333303,0.30983824,-0.0074480283,0.01740014,-0.010029382,-0.22940686,0.3500219,-0.43899238,2.7566066e-05,-9.301542e-06,-1.7355887e-05,0.0,0.0,-0.00044210584,0.23951438,0.0040492886,0.36314076,0.0,0.0,0.0,0.0,0.0,2.0388034e-10,1.3321162e-05,0.00032275153,3.4843933e-06,3.4765467e-06,3.4756908e-06,3.130687e-05,0.008601902,0.008601962,0.011349231,0.028680604,0.028680664,0.15386188,1.9490935e-11,1.9484206e-11,3.276869e-11,0.0,0.0,5e-08,0.0,0.0,0.0,0.0,0.0,0.0,0.0,0.0,0.00044761953,0.0004501098,0.0011719058,67240471,0.23950212,0.39225233,0.023666542,0.0053812354,0.01298325,0.01298325,0.0,0.0,0.0,0.0,0,0,0,895,24,0,0,0,0,0,0,0
147104859,0.9506982,0.006028488,-0.007825331,0.3099606,-0.0029994857,0.016088106,-0.013053984,-0.22245707,0.3538523,-0.44711047,2.7625581e-05,-9.257003e-06,-1.7400967e-05,0.0,0.0,-0.00043935186,0.23951438,0.0040492886,0.36314076,0.0,0.0,0.0,0.0,0.0,1.9961191e-10,1.33232115e-05,0.0002986201,3.4843142e-06,3.4770067e-06,3.475911e-06,3.1306987e-05,0.008604448,0.008604505,0.0113899615,0.028685872,0.028685927,0.15522034,1.94913e-11,1.9484577e-11,3.276865e-11,0.0,0.0,5.00003e-08,0.0,0.0,0.0,0.0,0.0,0.0,0.0,0.0,0.00030562686,0.001820837,0.004949552,67240471,0.23952411,0.39398015,0.011687849,0.03211549,0.013496486,0.013496486,0.0,0.0,0.0,0.0,0,0,0,895,24,0,0,0,0,0,0,0
147304855,0.95067394,0.006125989,-0.007791877,0.31003368,-0.0033327239,0.017268447,-0.014174652,-0.22026709,0.35935572,-0.44715944,2.7636843e-05,-9.2507e-06,-1.7468e-05,0.0,0.0,-0.00043980568,0.23951438,0.0040492886,0.36314076,0.0,0.0,0.0,0.0,0.0,2.1871026e-10,1.2954505e-05,0.00026929786,3.4824168e-06,3.4772431e-06,3.476197e-06,3.1308842e-05,0.008606881,0.008606938,0.011371505,0.028690677,0.028690727,0.15462011,1.9491537e-11,1.9484827e-11,3.2768614e-11,0.0,0.0,5.0000146e-08,0.0,0.0,0.0,0.0,0.0,0.0,0.0,0.0,0.00033900174,0.0009633623,0.002423091,67240471,0.23954417,0.39321765,0.041192435,0.009654472,0.01481548,0.01481548,0.0,0.0,0.0,0.0,0,0,0,895,24,0,0,0,0,0,0,0
147504878,0.9506494,0.0063106525,-0.007742609,0.31010658,-0.0002357218,0.019418795,-0.014369165,-0.2150162,0.36709538,-0.4500762,2.7646074e-05,-9.214731e-06,-1.7554417e-05,0.0,0.0,-0.00043945678,0.23951438,0.0040492886,0.36314076,0.0,0.0,0.0,0.0,0.0,1.9322131e-10,1.2694083e-05,0.0002742713,3.4799086e-06,3.4773627e-06,3.4764232e-06,3.13113e-05,0.008608115,0.008608168,0.011353313,0.028695006,0.028695045,0.15402505,1.9491674e-11,1.948498e-11,3.2768583e-11,0.0,0.0,5.000009e-08,0.0,0.0,0.0,0.0,0.0,0.0,0.0,0.0,0.00048075058,0.00030376296,0.0011854791,67240471,0.2395622,0.39246026,0.029593313,0.012390226,0.015482246,0.015482246,0.0,0.0,0.0,0.0,0,0,0,895,24,0,0,0,0,0,0,0
147704849,0.9505893,0.006171115,-0.00785967,0.31029078,0.004373879,0.022025673,-0.017148174,-0.20777345,0.37597156,-0.4579621,2.7659318e-05,-9.1606835e-06,-1.7656555e-05,0.0,0.0,-0.00043639622,0.23951438,0.0040492886,0.36314076,0.0,0.0,0.0,0.0,0.0,1.9317675e-10,1.30703365e-05,0.00026630057,3.479328e-06,3.477524e-06,3.4764644e-06,3.1311924e-05,0.008609482,0.008609534,0.011394446,0.028698884,0.028698921,0.15538791,1.949175e-11,1.948508e-11,3.2768562e-11,0.0,0.0,5.0000388e-08,0.0,0.0,0.0,0.0,0.0,0.0,0.0,0.0,0.0005658322,0.0010010976,0.0029628156,67240471,0.2395784,0.39419273,0.08896152,0.021739027,0.015291596,0.015291596,0.0,0.0,0.0,0.0,0,0,0,895,24,0,0,0,0,0,0,0
147904851,0.95056343,0.0061784657,-0.0077908067,0.31037125,0.0007835187,0.019662403,-0.016472159,-0.20893803,0.37756917,-0.45933804,2.7679425e-05,-9.2278215e-06,-1.7735856e-05,0.0,0.0,-0.00043772397,0.23951438,0.0040492886,0.36314076,0.0,0.0,0.0,0.0,0.0,1.9838076e-10,1.2793429e-05,0.00025956187,3.4772825e-06,3.4775885e-06,3.4765437e-06,3.131401e-05,0.008610128,0.008610179,0.011376668,0.028702362,0.028702393,0.15479435,1.9491778e-11,1.948514e-11,3.2768555e-11,0.0,0.0,5.000024e-08,0.0,0.0,0.0,0.0,0.0,0.0,0.0,0.0,0.0005481188,0.0031517833,0.005246549,67240471,0.2395929,0.39343914,0.05210465,0.034346506,0.014667262,0.014667262,0.0,0.0,0.0,0.0,0,0,0,895,24,0,0,0,0,0,0,0
148104848,0.95051944,0.0062376917,-0.007786345,0.3105048,0.0010916014,0.01905668,-0.015614105,-0.20618397,0.38300222,-0.456587,2.7689119e-05,-9.231603e-06,-1.7830958e-05,0.0,0.0,-0.0004384601,0.23951438,0.0040492886,0.36314076,0.0,0.0,0.0,0.0,0.0,1.7376565e-10,1.2620749e-05,0.0002636647,3.4759048e-06,3.4776247e-06,3.4765997e-06,3.1315445e-05,0.00861063,0.0086106835,0.011359532,0.028705416,0.02870544,0.15421209,1.9491768e-11,1.9485167e-11,3.2768555e-11,0.0,0.0,5.000015e-08,0.0,0.0,0.0,0.0,0.0,0.0,0.0,0.0,0.0005056854,0.002839706,0.0057880334,67240471,0.23960564,0.39269847,0.07942557,0.01184181,0.014078858,0.014078858,0.0,0.0,0.0,0.0,0,0,0,895,24,0,0,0,0,0,0,0
148304848,0.95051545,0.006002358,-0.007892493,0.31051913,0.003261617,0.018128304,-0.012672092,-0.20071366,0.38769108,-0.45144305,2.7718472e-05,-9.223635e-06,-1.7833889e-05,0.0,0.0,-0.0004408011,0.23951438,0.0040492886,0.36314076,0.0,0.0,0.0,0.0,0.0,1.8539026e-10,1.2578705e-05,0.00027390377,3.4750701e-06,3.4777017e-06,3.476523e-06,3.1316413e-05,0.008610522,0.008610579,0.011342483,0.028708022,0.028708043,0.15363395,1.9491738e-11,1.9485179e-11,3.276856e-11,0.0,0.0,5e-08,0.0,0.0,0.0,0.0,0.0,0.0,0.0,0.0,0.00022212506,0.0026774495,0.0078036264,67240471,0.2396165,0.39196166,0.027848398,0.015853241,0.014937443,0.014937443,0.0,0.0,0.0,0.0,0,0,0,895,24,0,0,0,0,0,0,0
148504848,0.9505023,0.0061738575,-0.0078010843,0.31055832,-0.0008390043,0.02043847,-0.012699984,-0.2027074,0.3959493,-0.45447582,2.7675562e-05,-9.255441e-06,-1.7881608e-05,0.0,0.0,-0.00043990035,0.23951438,0.0040492886,0.36314076,0.0,0.0,0.0,0.0,0.0,2.4892877e-10,1.2631634e-05,0.00025181205,3.4732582e-06,3.4776867e-06,3.4765956e-06,3.1318323e-05,0.008610393,0.008610447,0.011382899,0.028710265,0.028710281,0.15498325,1.9491707e-11,1.9485196e-11,3.2768566e-11,0.0,0.0,5.000024e-08,0.0,0.0,0.0,0.0,0.0,0.0,0.0,0.0,0.00021380802,0.0034408506,0.0061049843,67240471,0.23962584,0.3936791,0.024978511,0.030108398,0.015775371,0.015775371,0.0,0.0,0.0,0.0,0,0,0,895,24,0,0,0,0,0,0,0
