timestamp,gps_hvel[0],gps_hvel[1],gps_vvel,gps_hpos[0],gps_hpos[1],gps_vpos,ev_hvel[0],ev_hvel[1],ev_vvel,ev_hpos[0],ev_hpos[1],ev_vpos,fake_hvel[0],fake_hvel[1],fake_vvel,fake_hpos[0],fake_hpos[1],fake_vpos,rng_vpos,baro_vpos,aux_hvel[0],aux_hvel[1],aux_vvel,flow[0],flow[1],heading,mag_field[0],mag_field[1],mag_field[2],drag[0],drag[1],airspeed,beta,hagl
128104855,0.0002305959,3.120399e-05,4.987891e-05,7.117036e-05,0.0113988025,0.0,0.0,0.15546295,0.0,0.0,3.2779487e-11,0.0,nan,nan,nan,nan,nan,nan,0.0,4.4207823e-06,0.0,0.0,nan,0.0,0.15546295,0.0010942413,0.0,0.0,0.0,0.0,0.0,0.0,0.0,0.0
128304852,0.00033961277,3.121123e-05,0.00025184132,5.13592e-05,0.011381446,0.0,0.0,0.15482567,0.0,0.0,3.2779446e-11,0.0,nan,nan,nan,nan,nan,nan,0.0,8.4888425e-06,0.0,0.0,nan,0.0,0.15482567,0.00041168186,0.0,0.0,0.0,0.0,0.0,0.0,0.0,0.0
128504848,0.00020531069,3.1210235e-05,5.076317e-06,7.898688e-05,0.011361032,0.0,0.0,0.15418422,0.0,0.0,3.2779404e-11,0.0,nan,nan,nan,nan,nan,nan,0.0,2.6683761e-05,0.0,0.0,nan,0.0,0.15418422,0.001945237,0.0,0.0,0.0,0.0,0.0,0.0,0.0,0.0
128704871,1.2801136e-05,3.1205345e-05,5.445934e-06,9.9918514e-05,0.011400619,0.0,0.0,0.15551408,0.0,0.0,3.2779363e-11,0.0,nan,nan,nan,nan,nan,nan,0.0,1.5674072e-05,0.0,0.0,nan,0.0,0.15551408,0.00060380844,0.0,0.0,0.0,0.0,0.0,0.0,0.0,0.0
128904884,0.0002863532,3.1215757e-05,4.5396726e-05,8.34514e-05,0.011381136,0.0,0.0,0.15487982,0.0,0.0,3.2779307e-11,0.0,nan,nan,nan,nan,nan,nan,0.0,0.00022839232,0.0,0.0,nan,0.0,0.15487982,0.00015932643,0.0,0.0,0.0,0.0,0.0,0.0,0.0,0.0
129104886,0.00018786192,3.1212603e-05,3.433991e-05,7.617741e-05,0.011362492,0.0,0.0,0.15426011,0.0,0.0,3.2779262e-11,0.0,nan,nan,nan,nan,nan,nan,0.0,7.918532e-06,0.0,0.0,nan,0.0,0.15426011,0.00070281257,0.0,0.0,0.0,0.0,0.0,0.0,0.0,0.0
129304848,0.0010849115,3.120772e-05,1.8202676e-05,7.8165496e-05,0.011402733,0.0,0.0,0.15559918,0.0,0.0,3.277922e-11,0.0,nan,nan,nan,nan,nan,nan,0.0,2.8721259e-05,0.0,0.0,nan,0.0,0.15559918,0.00015558973,0.0,0.0,0.0,0.0,0.0,0.0,0.0,0.0
129504848,0.00024209963,3.1208554e-05,0.00013260888,0.00010831344,0.011384665,0.0,0.0,0.15498497,0.0,0.0,3.2779175e-11,0.0,nan,nan,nan,nan,nan,nan,0.0,2.9643505e-07,0.0,0.0,nan,0.0,0.15498497,0.0051796087,0.0,0.0,0.0,0.0,0.0,0.0,0.0,0.0
129704848,0.0007737457,3.1207932e-05,1.081497e-05,6.9414455e-05,0.011365826,0.0,0.0,0.15436393,0.0,0.0,3.2779123e-11,0.0,nan,nan,nan,nan,nan,nan,0.0,2.5556488e-05,0.0,0.0,nan,0.0,0.15436393,0.0064988965,0.0,0.0,0.0,0.0,0.0,0.0,0.0,0.0
129904861,0.0012093717,3.1208758e-05,0.0005181491,9.27969e-05,0.011405555,0.0,0.0,0.15569791,0.0,0.0,3.2779064e-11,0.0,nan,nan,nan,nan,nan,nan,0.0,2.3977998e-05,0.0,0.0,nan,0.0,0.15569791,5.0596656e-05,0.0,0.0,0.0,0.0,0.0,0.0,0.0,0.0
130104849,0.0017825309,3.1207226e-05,0.001953372,0.000104278304,0.011386512,0.0,0.0,0.15506992,0.0,0.0,3.2779005e-11,0.0,nan,nan,nan,nan,nan,nan,0.0,1.611524e-05,0.0,0.0,nan,0.0,0.15506992,0.0015971024,0.0,0.0,0.0,0.0,0.0,0.0,0.0,0.0
130304849,0.00013368686,3.1207008e-05,0.00023778637,6.4289015e-05,0.011367331,0.0,0.0,0.1544427,0.0,0.0,3.2778946e-11,0.0,nan,nan,nan,nan,nan,nan,0.0,0.00010322211,0.0,0.0,nan,0.0,0.1544427,0.0023411792,0.0,0.0,0.0,0.0,0.0,0.0,0.0,0.0
130504848,4.4729863e-05,3.1207277e-05,5.2856252e-05,0.00012333885,0.011348945,0.0,0.0,0.15382954,0.0,0.0,3.2778884e-11,0.0,nan,nan,nan,nan,nan,nan,0.0,8.481066e-05,0.0,0.0,nan,0.0,0.15382954,2.6431231e-05,0.0,0.0,0.0,0.0,0.0,0.0,0.0,0.0
130704861,0.00044787824,3.1204996e-05,3.4189416e-05,9.449144e-05,0.011389603,0.0,0.0,0.15517083,0.0,0.0,3.277882e-11,0.0,nan,nan,nan,nan,nan,nan,0.0,6.135105e-07,0.0,0.0,nan,0.0,0.15517083,4.7688278e-05,0.0,0.0,0.0,0.0,0.0,0.0,0.0,0.0
130904848,6.3573876e-05,3.1203606e-05,0.00023147863,0.00016025246,0.011374635,0.0,0.0,0.15456875,0.0,0.0,3.2778755e-11,0.0,nan,nan,nan,nan,nan,nan,0.0,6.743123e-06,0.0,0.0,nan,0.0,0.15456875,0.0023642827,0.0,0.0,0.0,0.0,0.0,0.0,0.0,0.0
131104848,0.000454357,3.120477e-05,0.00010622541,0.00034454986,0.011360106,0.0,0.0,0.15397951,0.0,0.0,3.2778683e-11,0.0,nan,nan,nan,nan,nan,nan,0.0,8.893989e-05,0.0,0.0,nan,0.0,0.15397951,0.00031563462,0.0,0.0,0.0,0.0,0.0,0.0,0.0,0.0
131304853,0.00023985539,3.1203377e-05,0.00074276375,0.00040188848,0.011401063,0.0,0.0,0.15533479,0.0,0.0,3.2778613e-11,0.0,nan,nan,nan,nan,nan,nan,0.0,1.8171235e-05,0.0,0.0,nan,0.0,0.15533479,1.9864588e-05,0.0,0.0,0.0,0.0,0.0,0.0,0.0,0.0
131504853,9.904109e-05,3.12021e-05,0.00030555498,0.00070145976,0.011379012,0.0,0.0,0.1546762,0.0,0.0,3.2778537e-11,0.0,nan,nan,nan,nan,nan,nan,0.0,3.0054517e-07,0.0,0.0,nan,0.0,0.1546762,0.00055630924,0.0,0.0,0.0,0.0,0.0,0.0,0.0,0.0
131704867,8.0149824e-05,3.1203595e-05,3.4723547e-05,0.00069309777,0.011417093,0.0,0.0,0.15599534,0.0,0.0,3.277846e-11,0.0,nan,nan,nan,nan,nan,nan,0.0,5.6313304e-05,0.0,0.0,nan,0.0,0.15599534,0.006393561,0.0,0.0,0.0,0.0,0.0,0.0,0.0,0.0
131904948,0.0004865293,3.1201824e-05,0.00029119916,0.0007383117,0.011396321,0.0,0.0,0.15534571,0.0,0.0,3.277839e-11,0.0,nan,nan,nan,nan,nan,nan,0.0,8.852759e-05,0.0,0.0,nan,0.0,0.15534571,0.0009176962,0.0,0.0,0.0,0.0,0.0,0.0,0.0,0.0
132104848,0.00027402316,3.119952e-05,0.00030330103,0.00076485117,0.011376075,0.0,0.0,0.1547048,0.0,0.0,3.277832e-11,0.0,nan,nan,nan,nan,nan,nan,0.0,6.624677e-05,0.0,0.0,nan,0.0,0.1547048,0.0008682554,0.0,0.0,0.0,0.0,0.0,0.0,0.0,0.0
132304850,0.00089634524,3.120123e-05,9.77988e-06,0.0008119966,0.011356299,0.0,0.0,0.15407224,0.0,0.0,3.2778252e-11,0.0,nan,nan,nan,nan,nan,nan,0.0,0.00012917227,0.0,0.0,nan,0.0,0.15407224,0.00028712663,0.0,0.0,0.0,0.0,0.0,0.0,0.0,0.0
132504907,0.00011234328,3.1199477e-05,5.990278e-05,0.00083357666,0.01139639,0.0,0.0,0.15540779,0.0,0.0,3.277818e-11,0.0,nan,nan,nan,nan,nan,nan,0.0,3.1170534e-06,0.0,0.0,nan,0.0,0.15540779,0.0015387331,0.0,0.0,0.0,0.0,0.0,0.0,0.0,0.0
132704866,0.0007430602,3.1198506e-05,3.2048374e-05,0.0008365001,0.011377847,0.0,0.0,0.15478818,0.0,0.0,3.2778107e-11,0.0,nan,nan,nan,nan,nan,nan,0.0,0.00012689171,0.0,0.0,nan,0.0,0.15478818,0.010332864,0.0,0.0,0.0,0.0,0.0,0.0,0.0,0.0
132904872,0.00030820497,3.119975e-05,0.00018645763,0.0006692078,0.011416202,0.0,0.0,0.15610693,0.0,0.0,3.2778034e-11,0.0,nan,nan,nan,nan,nan,nan,0.0,3.494411e-05,0.0,0.0,nan,0.0,0.15610693,0.0040425695,0.0,0.0,0.0,0.0,0.0,0.0,0.0,0.0
133104863,0.00026631824,3.1200852e-05,0.0003581931,0.00050286786,0.011393803,0.0,0.0,0.1554277,0.0,0.0,3.2777957e-11,0.0,nan,nan,nan,nan,nan,nan,0.0,3.6390447e-05,0.0,0.0,nan,0.0,0.1554277,0.0015733045,0.0,0.0,0.0,0.0,0.0,0.0,0.0,0.0
133304880,0.00049193425,3.119928e-05,0.00028397836,0.00037197844,0.0113755725,0.0,0.0,0.15477212,0.0,0.0,3.277786e-11,0.0,nan,nan,nan,nan,nan,nan,0.0,4.046617e-06,0.0,0.0,nan,0.0,0.15477212,0.00021765038,0.0,0.0,0.0,0.0,0.0,0.0,0.0,0.0
133504849,0.00033737713,3.1199095e-05,5.156948e-05,0.000274084,0.011413812,0.0,0.0,0.1560839,0.0,0.0,3.277775e-11,0.0,nan,nan,nan,nan,nan,nan,0.0,1.5857223e-06,0.0,0.0,nan,0.0,0.1560839,0.0020901468,0.0,0.0,0.0,0.0,0.0,0.0,0.0,0.0
133704851,0.00032631552,3.1196763e-05,0.00028593407,0.00033576682,0.011396617,0.0,0.0,0.15543815,0.0,0.0,3.2777628e-11,0.0,nan,nan,nan,nan,nan,nan,0.0,3.837751e-06,0.0,0.0,nan,0.0,0.15543815,0.006638447,0.0,0.0,0.0,0.0,0.0,0.0,0.0,0.0
133904875,0.0009036632,3.119095e-05,2.2423475e-05,0.00023729388,0.011379245,0.0,0.0,0.15479487,0.0,0.0,3.2777513e-11,0.0,nan,nan,nan,nan,nan,nan,0.0,7.4723836e-08,0.0,0.0,nan,0.0,0.15479487,0.002904579,0.0,0.0,0.0,0.0,0.0,0.0,0.0,0.0
134104861,0.0005193544,3.1188738e-05,6.728889e-06,0.00049771805,0.011359734,0.0,0.0,0.15416096,0.0,0.0,3.2777395e-11,0.0,nan,nan,nan,nan,nan,nan,0.0,9.471973e-06,0.0,0.0,nan,0.0,0.15416096,0.0015444114,0.0,0.0,0.0,0.0,0.0,0.0,0.0,0.0
134704851,0.00041935922,3.1186984e-05,1.3644536e-06,0.0011918722,0.0113595575,0.0,0.0,0.15420564,0.0,0.0,3.277703e-11,0.0,nan,nan,nan,nan,nan,nan,0.0,6.7589673e-07,0.0,0.0,nan,0.0,0.15420564,0.00048750898,0.0,0.0,0.0,0.0,0.0,0.0,0.0,0.0
134904848,0.00012440835,3.1187992e-05,2.3350772e-06,0.0015190231,0.01139928,0.0,0.0,0.15553303,0.0,0.0,3.277691e-11,0.0,nan,nan,nan,nan,nan,nan,0.0,5.326607e-05,0.0,0.0,nan,0.0,0.15553303,0.00011728997,0.0,0.0,0.0,0.0,0.0,0.0,0.0,0.0
135104849,0.00019139673,3.1188272e-05,0.00015986043,0.0016640543,0.011379893,0.0,0.0,0.1548961,0.0,0.0,3.2776788e-11,0.0,nan,nan,nan,nan,nan,nan,0.0,2.5330353e-05,0.0,0.0,nan,0.0,0.1548961,0.00043745662,0.0,0.0,0.0,0.0,0.0,0.0,0.0,0.0
135304896,0.00033647832,3.119037e-05,0.00023272303,0.0018988509,0.011361363,0.0,0.0,0.15427394,0.0,0.0,3.2776667e-11,0.0,nan,nan,nan,nan,nan,nan,0.0,0.00018064612,0.0,0.0,nan,0.0,0.15427394,0.001369935,0.0,0.0,0.0,0.0,0.0,0.0,0.0,0.0
135504856,0.0018638498,3.119034e-05,5.11299e-05,0.0017583133,0.0113987755,0.0,0.0,0.15560494,0.0,0.0,3.2776545e-11,0.0,nan,nan,nan,nan,nan,nan,0.0,7.1114046e-06,0.0,0.0,nan,0.0,0.15560494,3.0818812e-06,0.0,0.0,0.0,0.0,0.0,0.0,0.0,0.0
135704854,0.0006558107,3.1190477e-05,6.928919e-05,0.0018054382,0.011380996,0.0,0.0,0.15498874,0.0,0.0,3.277642e-11,0.0,nan,nan,nan,nan,nan,nan,0.0,1.0498995e-05,0.0,0.0,nan,0.0,0.15498874,0.0009495186,0.0,0.0,0.0,0.0,0.0,0.0,0.0,0.0
136104851,2.6230005e-05,3.119259e-05,4.3187483e-05,0.0018330369,0.011399672,0.0,0.0,0.15569225,0.0,0.0,3.2776178e-11,0.0,nan,nan,nan,nan,nan,nan,0.0,0.000400369,0.0,0.0,nan,0.0,0.15569225,0.002783055,0.0,0.0,0.0,0.0,0.0,0.0,0.0,0.0
136304848,0.00199643,3.1188985e-05,1.6134973e-05,0.0015875797,0.011381093,0.0,0.0,0.15506294,0.0,0.0,3.2776053e-11,0.0,nan,nan,nan,nan,nan,nan,0.0,1.9977257e-05,0.0,0.0,nan,0.0,0.15506294,0.0023121417,0.0,0.0,0.0,0.0,0.0,0.0,0.0,0.0
136504848,0.000998396,3.1186075e-05,0.00019592137,0.0016080235,0.011365252,0.0,0.0,0.15444085,0.0,0.0,3.2775938e-11,0.0,nan,nan,nan,nan,nan,nan,0.0,5.4012617e-05,0.0,0.0,nan,0.0,0.15444085,0.004889404,0.0,0.0,0.0,0.0,0.0,0.0,0.0,0.0
136704859,0.00029368713,3.1191423e-05,0.0002829823,0.001862586,0.011347028,0.0,0.0,0.15382686,0.0,0.0,3.2775838e-11,0.0,nan,nan,nan,nan,nan,nan,0.0,1.2823505e-05,0.0,0.0,nan,0.0,0.15382686,0.0026205755,0.0,0.0,0.0,0.0,0.0,0.0,0.0,0.0
136904855,0.00024256055,3.120175e-05,8.305957e-06,0.0016012606,0.011387743,0.0,0.0,0.1551674,0.0,0.0,3.2775706e-11,0.0,nan,nan,nan,nan,nan,nan,0.0,2.0059567e-06,0.0,0.0,nan,0.0,0.1551674,0.0064609237,0.0,0.0,0.0,0.0,0.0,0.0,0.0,0.0
137104883,0.0009983032,3.1214215e-05,0.00032078338,0.0018058722,0.011370043,0.0,0.0,0.15455854,0.0,0.0,3.2775515e-11,0.0,nan,nan,nan,nan,nan,nan,0.0,6.7453784e-06,0.0,0.0,nan,0.0,0.15455854,0.0075667887,0.0,0.0,0.0,0.0,0.0,0.0,0.0,0.0
137304894,0.0033601676,3.121709e-05,8.663853e-05,0.0014738392,0.0113531845,0.0,0.0,0.15396269,0.0,0.0,3.2775314e-11,0.0,nan,nan,nan,nan,nan,nan,0.0,2.0204247e-06,0.0,0.0,nan,0.0,0.15396269,0.012444414,0.0,0.0,0.0,0.0,0.0,0.0,0.0,0.0
137504948,0.00085987366,3.1213847e-05,2.0356209e-05,0.0015993179,0.01139514,0.0,0.0,0.1553239,0.0,0.0,3.2775165e-11,0.0,nan,nan,nan,nan,nan,nan,0.0,5.1957326e-05,0.0,0.0,nan,0.0,0.1553239,0.002380208,0.0,0.0,0.0,0.0,0.0,0.0,0.0,0.0
137704851,9.909937e-05,3.1217314e-05,1.5775326e-05,0.0019016565,0.011378302,0.0,0.0,0.15473086,0.0,0.0,3.277501e-11,0.0,nan,nan,nan,nan,nan,nan,0.0,3.129645e-05,0.0,0.0,nan,0.0,0.15473086,0.00016724679,0.0,0.0,0.0,0.0,0.0,0.0,0.0,0.0
137904848,0.0015216382,3.1222953e-05,0.00036524117,0.0016016625,0.011362067,0.0,0.0,0.15414964,0.0,0.0,3.277485e-11,0.0,nan,nan,nan,nan,nan,nan,0.0,4.5316956e-05,0.0,0.0,nan,0.0,0.15414964,0.0008401331,0.0,0.0,0.0,0.0,0.0,0.0,0.0,0.0
138104848,0.00030474144,3.1217667e-05,0.00060788554,0.0019419288,0.01134521,0.0,0.0,0.15356652,0.0,0.0,3.277473e-11,0.0,nan,nan,nan,nan,nan,nan,0.0,3.1034142e-05,0.0,0.0,nan,0.0,0.15356652,0.0034871122,0.0,0.0,0.0,0.0,0.0,0.0,0.0,0.0
138304848,0.00061909476,3.1220046e-05,0.00020902937,0.0017098339,0.011387588,0.0,0.0,0.15493637,0.0,0.0,3.2774613e-11,0.0,nan,nan,nan,nan,nan,nan,0.0,4.5582055e-06,0.0,0.0,nan,0.0,0.15493637,0.00013158192,0.0,0.0,0.0,0.0,0.0,0.0,0.0,0.0
138504898,0.0004602194,3.1222342e-05,1.625029e-05,0.0015527785,0.011371272,0.0,0.0,0.15436086,0.0,0.0,3.2774502e-11,0.0,nan,nan,nan,nan,nan,nan,0.0,3.1986522e-06,0.0,0.0,nan,0.0,0.15436086,0.0018325506,0.0,0.0,0.0,0.0,0.0,0.0,0.0,0.0
138704851,0.0007402809,3.12234e-05,6.747959e-06,0.0013947304,0.011354903,0.0,0.0,0.15378955,0.0,0.0,3.2774387e-11,0.0,nan,nan,nan,nan,nan,nan,0.0,2.9121318e-05,0.0,0.0,nan,0.0,0.15378955,0.0029807924,0.0,0.0,0.0,0.0,0.0,0.0,0.0,0.0
138904853,0.0030068103,3.1223808e-05,0.00052755873,0.0012938431,0.011338954,0.0,0.0,0.15322858,0.0,0.0,3.2774256e-11,0.0,nan,nan,nan,nan,nan,nan,0.0,8.467512e-06,0.0,0.0,nan,0.0,0.15322858,0.0012090238,0.0,0.0,0.0,0.0,0.0,0.0,0.0,0.0
139104848,0.0013737621,3.1225532e-05,0.0002330718,0.0010760111,0.011381878,0.0,0.0,0.15461113,0.0,0.0,3.2774113e-11,0.0,nan,nan,nan,nan,nan,nan,0.0,2.1099909e-07,0.0,0.0,nan,0.0,0.15461113,0.0064066965,0.0,0.0,0.0,0.0,0.0,0.0,0.0,0.0
139304848,0.00029078795,3.122569e-05,0.00011911961,0.0011058974,0.011365742,0.0,0.0,0.15404896,0.0,0.0,3.2773968e-11,0.0,nan,nan,nan,nan,nan,nan,0.0,8.480924e-06,0.0,0.0,nan,0.0,0.15404896,0.004176363,0.0,0.0,0.0,0.0,0.0,0.0,0.0,0.0
139504878,0.00064746576,3.1227915e-05,0.0002314941,0.0010408759,0.01134998,0.0,0.0,0.15349646,0.0,0.0,3.2773822e-11,0.0,nan,nan,nan,nan,nan,nan,0.0,0.00026222446,0.0,0.0,nan,0.0,0.15349646,0.0028884374,0.0,0.0,0.0,0.0,0.0,0.0,0.0,0.0
139704907,0.0005059044,3.122996e-05,4.1636893e-05,0.0007730254,0.011392321,0.0,0.0,0.15488021,0.0,0.0,3.2773676e-11,0.0,nan,nan,nan,nan,nan,nan,0.0,6.531476e-06,0.0,0.0,nan,0.0,0.15488021,0.0012052883,0.0,0.0,0.0,0.0,0.0,0.0,0.0,0.0
139904848,0.0009185868,3.123492e-05,0.000119113094,0.0007799504,0.011376358,0.0,0.0,0.15432565,0.0,0.0,3.2773517e-11,0.0,nan,nan,nan,nan,nan,nan,0.0,1.0839188e-05,0.0,0.0,nan,0.0,0.15432565,0.0046566236,0.0,0.0,0.0,0.0,0.0,0.0,0.0,0.0
140104858,0.0011430173,3.1234107e-05,2.535298e-05,0.0007113943,0.011360244,0.0,0.0,0.15377343,0.0,0.0,3.2773357e-11,0.0,nan,nan,nan,nan,nan,nan,0.0,4.7538742e-06,0.0,0.0,nan,0.0,0.15377343,0.00035498588,0.0,0.0,0.0,0.0,0.0,0.0,0.0,0.0
140504848,0.0013380841,3.1236064e-05,0.00010711903,0.0005358997,0.01138677,0.0,0.0,0.15461633,0.0,0.0,3.277302e-11,0.0,nan,nan,nan,nan,nan,nan,0.0,9.04528e-05,0.0,0.0,nan,0.0,0.15461633,0.0012656936,0.0,0.0,0.0,0.0,0.0,0.0,0.0,0.0
140704851,9.048156e-06,3.12347e-05,5.835785e-05,0.00044519623,0.011368939,0.0,0.0,0.1540437,0.0,0.0,3.2772854e-11,0.0,nan,nan,nan,nan,nan,nan,0.0,1.3011465e-05,0.0,0.0,nan,0.0,0.1540437,0.0008479773,0.0,0.0,0.0,0.0,0.0,0.0,0.0,0.0
140904852,0.00028208,3.123614e-05,5.7093974e-05,0.00028104405,0.011350754,0.0,0.0,0.1534681,0.0,0.0,3.277268e-11,0.0,nan,nan,nan,nan,nan,nan,0.0,0.000118139615,0.0,0.0,nan,0.0,0.1534681,0.0012687651,0.0,0.0,0.0,0.0,0.0,0.0,0.0,0.0
141104886,0.0007720615,3.1239655e-05,0.00016519323,0.00020241653,0.011391994,0.0,0.0,0.1548422,0.0,0.0,3.2772497e-11,0.0,nan,nan,nan,nan,nan,nan,0.0,0.00014576195,0.0,0.0,nan,0.0,0.1548422,0.00555998,0.0,0.0,0.0,0.0,0.0,0.0,0.0,0.0
141304868,0.00015806218,3.1239873e-05,4.0416027e-05,7.76953e-05,0.011374091,0.0,0.0,0.15426591,0.0,0.0,3.277232e-11,0.0,nan,nan,nan,nan,nan,nan,0.0,1.6863854e-08,0.0,0.0,nan,0.0,0.15426591,0.004466308,0.0,0.0,0.0,0.0,0.0,0.0,0.0,0.0
141504865,0.00029167914,3.124169e-05,0.00012179689,5.2820473e-05,0.0113567775,0.0,0.0,0.1536998,0.0,0.0,3.2772146e-11,0.0,nan,nan,nan,nan,nan,nan,0.0,0.00020243501,0.0,0.0,nan,0.0,0.1536998,0.015219023,0.0,0.0,0.0,0.0,0.0,0.0,0.0,0.0
141704883,0.00010852284,3.1245083e-05,0.00026666303,4.1184278e-05,0.011397996,0.0,0.0,0.1550754,0.0,0.0,3.2771962e-11,0.0,nan,nan,nan,nan,nan,nan,0.0,6.473925e-06,0.0,0.0,nan,0.0,0.1550754,0.0010237176,0.0,0.0,0.0,0.0,0.0,0.0,0.0,0.0
141904848,7.8544545e-05,3.1246862e-05,0.00057834946,2.93063e-05,0.011380872,0.0,0.0,0.15450805,0.0,0.0,3.2771785e-11,0.0,nan,nan,nan,nan,nan,nan,0.0,0.0001523817,0.0,0.0,nan,0.0,0.15450805,0.001501645,0.0,0.0,0.0,0.0,0.0,0.0,0.0,0.0
142104848,0.0005613537,3.1250318e-05,2.3850694e-07,1.658899e-05,0.011367153,0.0,0.0,0.15395646,0.0,0.0,3.277164e-11,0.0,nan,nan,nan,nan,nan,nan,0.0,2.4111037e-05,0.0,0.0,nan,0.0,0.15395646,0.0021829377,0.0,0.0,0.0,0.0,0.0,0.0,0.0,0.0
142304848,3.8600716e-05,3.1252857e-05,0.00048172567,1.9921548e-05,0.011350291,0.0,0.0,0.15340114,0.0,0.0,3.277149e-11,0.0,nan,nan,nan,nan,nan,nan,0.0,2.192039e-06,0.0,0.0,nan,0.0,0.15340114,0.0017533422,0.0,0.0,0.0,0.0,0.0,0.0,0.0,0.0
142504875,0.0005762784,3.1253072e-05,6.468422e-06,1.4792196e-05,0.011392159,0.0,0.0,0.15478621,0.0,0.0,3.277134e-11,0.0,nan,nan,nan,nan,nan,nan,0.0,9.412853e-05,0.0,0.0,nan,0.0,0.15478621,0.001719298,0.0,0.0,0.0,0.0,0.0,0.0,0.0,0.0
144904849,0.00024231231,3.1288608e-05,0.00092331896,0.00013761957,0.01135947,0.0,0.0,0.153854,0.0,0.0,3.2769454e-11,0.0,nan,nan,nan,nan,nan,nan,0.0,0.00010630224,0.0,0.0,nan,0.0,0.153854,4.919973e-06,0.0,0.0,0.0,0.0,0.0,0.0,0.0,0.0
145104915,3.1054024e-05,3.1288193e-05,0.00012555791,0.0001813537,0.011342261,0.0,0.0,0.15329316,0.0,0.0,3.276933e-11,0.0,nan,nan,nan,nan,nan,nan,0.0,1.6036443e-05,0.0,0.0,nan,0.0,0.15329316,0.00077675434,0.0,0.0,0.0,0.0,0.0,0.0,0.0,0.0
145304976,0.00025482682,3.129126e-05,5.125048e-06,0.00019399893,0.011382801,0.0,0.0,0.15465684,0.0,0.0,3.2769218e-11,0.0,nan,nan,nan,nan,nan,nan,0.0,0.00019549554,0.0,0.0,nan,0.0,0.15465684,0.00014387534,0.0,0.0,0.0,0.0,0.0,0.0,0.0,0.0
145504853,0.0006106313,3.1295604e-05,0.00011413762,0.00014850461,0.011360603,0.0,0.0,0.15405598,0.0,0.0,3.2769114e-11,0.0,nan,nan,nan,nan,nan,nan,0.0,3.1346065e-06,0.0,0.0,nan,0.0,0.15405598,0.0013322096,0.0,0.0,0.0,0.0,0.0,0.0,0.0,0.0
145704848,0.00014872584,3.1296117e-05,0.00028382373,0.00022104311,0.011398078,0.0,0.0,0.15541339,0.0,0.0,3.2769024e-11,0.0,nan,nan,nan,nan,nan,nan,0.0,3.4065815e-05,0.0,0.0,nan,0.0,0.15541339,0.00038651566,0.0,0.0,0.0,0.0,0.0,0.0,0.0,0.0
145904880,5.829181e-05,3.129781e-05,0.00086464186,0.00021634561,0.011376821,0.0,0.0,0.15481344,0.0,0.0,3.2768944e-11,0.0,nan,nan,nan,nan,nan,nan,0.0,3.5875528e-06,0.0,0.0,nan,0.0,0.15481344,0.0014027096,0.0,0.0,0.0,0.0,0.0,0.0,0.0,0.0
146104905,0.00030387452,3.130076e-05,3.092346e-05,0.00021528636,0.011359356,0.0,0.0,0.15423085,0.0,0.0,3.2768878e-11,0.0,nan,nan,nan,nan,nan,nan,0.0,3.380218e-07,0.0,0.0,nan,0.0,0.15423085,2.4625973e-07,0.0,0.0,0.0,0.0,0.0,0.0,0.0,0.0
146304848,0.0042956998,3.1301555e-05,6.631099e-05,0.00026855408,0.011341551,0.0,0.0,0.15364575,0.0,0.0,3.2768826e-11,0.0,nan,nan,nan,nan,nan,nan,0.0,2.8533075e-05,0.0,0.0,nan,0.0,0.15364575,0.0062944195,0.0,0.0,0.0,0.0,0.0,0.0,0.0,0.0
146504848,0.0005895662,3.1302527e-05,2.04161e-05,0.0002137041,0.011383255,0.0,0.0,0.15501516,0.0,0.0,3.276878e-11,0.0,nan,nan,nan,nan,nan,nan,0.0,3.6308606e-06,0.0,0.0,nan,0.0,0.15501516,0.0031743452,0.0,0.0,0.0,0.0,0.0,0.0,0.0,0.0
146704859,0.00021577193,3.130571e-05,0.00024512302,0.00021552226,0.011366719,0.0,0.0,0.15444346,0.0,0.0,3.276874e-11,0.0,nan,nan,nan,nan,nan,nan,0.0,4.8001704e-05,0.0,0.0,nan,0.0,0.15444346,0.00015909529,0.0,0.0,0.0,0.0,0.0,0.0,0.0,0.0
146904849,2.8957696e-05,3.130687e-05,5.3492067e-06,0.00016856479,0.011349231,0.0,0.0,0.15386188,0.0,0.0,3.276869e-11,0.0,nan,nan,nan,nan,nan,nan,0.0,8.020486e-07,0.0,0.0,nan,0.0,0.15386188,0.0005601052,0.0,0.0,0.0,0.0,0.0,0.0,0.0,0.0
147104859,0.0010314047,3.1306987e-05,0.00025603798,0.00018215511,0.0113899615,0.0,0.0,0.15522034,0.0,0.0,3.276865e-11,0.0,nan,nan,nan,nan,nan,nan,0.0,3.372688e-05,0.0,0.0,nan,0.0,0.15522034,0.00013660581,0.0,0.0,0.0,0.0,0.0,0.0,0.0,0.0
147304855,9.320883e-05,3.1308842e-05,2.009102e-06,0.00021949847,0.011371505,0.0,0.0,0.15462011,0.0,0.0,3.2768614e-11,0.0,nan,nan,nan,nan,nan,nan,0.0,1.4292427e-05,0.0,0.0,nan,0.0,0.15462011,0.0016968168,0.0,0.0,0.0,0.0,0.0,0.0,0.0,0.0
147504878,0.00015351771,3.13113e-05,3.9477354e-06,0.00023969993,0.011353313,0.0,0.0,0.15402505,0.0,0.0,3.2768583e-11,0.0,nan,nan,nan,nan,nan,nan,0.0,2.6742387e-05,0.0,0.0,nan,0.0,0.15402505,0.00087576424,0.0,0.0,0.0,0.0,0.0,0.0,0.0,0.0
147704849,0.00047258526,3.1311924e-05,0.00036822175,0.00023383289,0.011394446,0.0,0.0,0.15538791,0.0,0.0,3.2768562e-11,0.0,nan,nan,nan,nan,nan,nan,0.0,5.2268257e-07,0.0,0.0,nan,0.0,0.15538791,0.007914152,0.0,0.0,0.0,0.0,0.0,0.0,0.0,0.0
147904851,0.0011796824,3.131401e-05,9.244071e-05,0.00021512859,0.011376668,0.0,0.0,0.15479435,0.0,0.0,3.2768555e-11,0.0,nan,nan,nan,nan,nan,nan,0.0,3.2300333e-05,0.0,0.0,nan,0.0,0.15479435,0.0027148942,0.0,0.0,0.0,0.0,0.0,0.0,0.0,0.0
148104848,0.00014022847,3.1315445e-05,4.4734545e-08,0.00019821424,0.011359532,0.0,0.0,0.15421209,0.0,0.0,3.2768555e-11,0.0,nan,nan,nan,nan,nan,nan,0.0,3.5724076e-06,0.0,0.0,nan,0.0,0.15421209,0.0063084215,0.0,0.0,0.0,0.0,0.0,0.0,0.0,0.0
148304848,0.00025132523,3.1316413e-05,0.00010443325,0.00022312721,0.011342483,0.0,0.0,0.15363395,0.0,0.0,3.276856e-11,0.0,nan,nan,nan,nan,nan,nan,0.0,0.000219954,0.0,0.0,nan,0.0,0.15363395,0.00077553326,0.0,0.0,0.0,0.0,0.0,0.0,0.0,0.0
148504848,0.0009065156,3.1318323e-05,4.2896838e-05,0.0002488623,0.011382899,0.0,0.0,0.15498325,0.0,0.0,3.2768566e-11,0.0,nan,nan,nan,nan,nan,nan,0.0,9.598333e-06,0.0,0.0,nan,0.0,0.15498325,0.00062392605,0.0,0.0,0.0,0.0,0.0,0.0,0.0,0.0
148704848,5.9252317e-05,3.132117e-05,4.18662e-05,0.00032941744,0.011361985,0.0,0.0,0.15434708,0.0,0.0,3.2768583e-11,0.0,nan,nan,nan,nan,nan,nan,0.0,0.000101493744,0.0,0.0,nan,0.0,0.15434708,0.0017401115,0.0,0.0,0.0,0.0,0.0,0.0,0.0,0.0
148904857,0.0010163197,3.1322874e-05,4.539822e-05,0.00031339255,0.011400946,0.0,0.0,0.1556789,0.0,0.0,3.2768604e-11,0.0,nan,nan,nan,nan,nan,nan,0.0,5.853061e-05,0.0,0.0,nan,0.0,0.1556789,0.014248455,0.0,0.0,0.0,0.0,0.0,0.0,0.0,0.0
149104853,5.8329355e-05,3.13242e-05,6.683409e-07,0.00037571823,0.011380681,0.0,0.0,0.15504213,0.0,0.0,3.2768625e-11,0.0,nan,nan,nan,nan,nan,nan,0.0,8.2496925e-08,0.0,0.0,nan,0.0,0.15504213,3.1649306e-05,0.0,0.0,0.0,0.0,0.0,0.0,0.0,0.0
149304862,0.0055423477,3.1325777e-05,0.0004940985,0.00017237486,0.011361385,0.0,0.0,0.15441956,0.0,0.0,3.2768645e-11,0.0,nan,nan,nan,nan,nan,nan,0.0,6.1340916e-06,0.0,0.0,nan,0.0,0.15441956,0.00026421272,0.0,0.0,0.0,0.0,0.0,0.0,0.0,0.0
149504854,0.00056930195,3.1325242e-05,0.00018535044,0.00033740804,0.011401307,0.0,0.0,0.15575963,0.0,0.0,3.2768677e-11,0.0,nan,nan,nan,nan,nan,nan,0.0,7.110421e-05,0.0,0.0,nan,0.0,0.15575963,0.003184084,0.0,0.0,0.0,0.0,0.0,0.0,0.0,0.0
149704849,0.00014230423,3.1327032e-05,0.00039232196,0.00033446818,0.011382796,0.0,0.0,0.15514207,0.0,0.0,3.2768708e-11,0.0,nan,nan,nan,nan,nan,nan,0.0,5.8958944e-05,0.0,0.0,nan,0.0,0.15514207,0.004548679,0.0,0.0,0.0,0.0,0.0,0.0,0.0,0.0
149904848,0.0005040887,3.1329208e-05,7.765653e-06,0.00029032532,0.011365054,0.0,0.0,0.15453757,0.0,0.0,3.276874e-11,0.0,nan,nan,nan,nan,nan,nan,0.0,0.0003723435,0.0,0.0,nan,0.0,0.15453757,7.197136e-05,0.0,0.0,0.0,0.0,0.0,0.0,0.0,0.0
150104880,0.0043050735,3.1328404e-05,0.00015109213,0.00013993132,0.011347477,0.0,0.0,0.15393873,0.0,0.0,3.2768774e-11,0.0,nan,nan,nan,nan,nan,nan,0.0,1.7412924e-06,0.0,0.0,nan,0.0,0.15393873,0.0004820318,0.0,0.0,0.0,0.0,0.0,0.0,0.0,0.0
150304883,0.00057431735,3.133281e-05,2.4958526e-05,0.00020538327,0.011389057,0.0,0.0,0.15529624,0.0,0.0,3.276879e-11,0.0,nan,nan,nan,nan,nan,nan,0.0,3.358215e-05,0.0,0.0,nan,0.0,0.15529624,0.00897318,0.0,0.0,0.0,0.0,0.0,0.0,0.0,0.0
150504858,0.0003796361,3.1330586e-05,1.6980646e-05,0.0001886118,0.011372328,0.0,0.0,0.1547067,0.0,0.0,3.2768788e-11,0.0,nan,nan,nan,nan,nan,nan,0.0,6.7708046e-05,0.0,0.0,nan,0.0,0.1547067,0.004809984,0.0,0.0,0.0,0.0,0.0,0.0,0.0,0.0
150704855,0.00020972852,3.133336e-05,9.759579e-05,0.00018341867,0.011355195,0.0,0.0,0.15411551,0.0,0.0,3.276878e-11,0.0,nan,nan,nan,nan,nan,nan,0.0,5.6794725e-06,0.0,0.0,nan,0.0,0.15411551,0.005088135,0.0,0.0,0.0,0.0,0.0,0.0,0.0,0.0
150904848,0.001285099,3.1333948e-05,2.3394077e-05,0.00026281876,0.011338165,0.0,0.0,0.15352926,0.0,0.0,3.2768777e-11,0.0,nan,nan,nan,nan,nan,nan,0.0,2.717647e-06,0.0,0.0,nan,0.0,0.15352926,0.0033828788,0.0,0.0,0.0,0.0,0.0,0.0,0.0,0.0
151104876,0.0026351798,3.133708e-05,4.2481217e-05,0.0001655721,0.011380374,0.0,0.0,0.15489514,0.0,0.0,3.276877e-11,0.0,nan,nan,nan,nan,nan,nan,0.0,2.127214e-06,0.0,0.0,nan,0.0,0.15489514,0.0002210521,0.0,0.0,0.0,0.0,0.0,0.0,0.0,0.0
151304848,0.0023291209,3.1338135e-05,0.0012730882,0.00020048943,0.011363968,0.0,0.0,0.15431678,0.0,0.0,3.2768763e-11,0.0,nan,nan,nan,nan,nan,nan,0.0,0.000116613955,0.0,0.0,nan,0.0,0.15431678,0.0014577289,0.0,0.0,0.0,0.0,0.0,0.0,0.0,0.0
151504875,0.0023774467,3.133736e-05,0.0011414789,0.00012252512,0.011345678,0.0,0.0,0.15371633,0.0,0.0,3.276876e-11,0.0,nan,nan,nan,nan,nan,nan,0.0,5.3097233e-07,0.0,0.0,nan,0.0,0.15371633,0.010054031,0.0,0.0,0.0,0.0,0.0,0.0,0.0,0.0
151704928,0.0015127043,3.133778e-05,0.0004027633,0.00018102887,0.0113835335,0.0,0.0,0.15506025,0.0,0.0,3.2768746e-11,0.0,nan,nan,nan,nan,nan,nan,0.0,0.0004061532,0.0,0.0,nan,0.0,0.15506025,0.009127963,0.0,0.0,0.0,0.0,0.0,0.0,0.0,0.0
151904865,0.00052588206,3.133942e-05,0.0011570657,0.00014082085,0.011365917,0.0,0.0,0.15446268,0.0,0.0,3.2768732e-11,0.0,nan,nan,nan,nan,nan,nan,0.0,5.5845016e-05,0.0,0.0,nan,0.0,0.15446268,0.0012764357,0.0,0.0,0.0,0.0,0.0,0.0,0.0,0.0
152104851,0.0001605972,3.1339703e-05,4.927193e-06,0.00012846812,0.011347994,0.0,0.0,0.15386386,0.0,0.0,3.276872e-11,0.0,nan,nan,nan,nan,nan,nan,0.0,2.4880324e-06,0.0,0.0,nan,0.0,0.15386386,5.4123784e-06,0.0,0.0,0.0,0.0,0.0,0.0,0.0,0.0
152304848,0.00051565294,3.1339692e-05,9.34945e-06,0.00015569165,0.011389654,0.0,0.0,0.15522596,0.0,0.0,3.2768704e-11,0.0,nan,nan,nan,nan,nan,nan,0.0,2.630817e-05,0.0,0.0,nan,0.0,0.15522596,0.001104805,0.0,0.0,0.0,0.0,0.0,0.0,0.0,0.0
152504882,0.00021828833,3.134168e-05,3.5918379e-06,0.00011679961,0.011372564,0.0,0.0,0.15463595,0.0,0.0,3.276869e-11,0.0,nan,nan,nan,nan,nan,nan,0.0,8.528366e-05,0.0,0.0,nan,0.0,0.15463595,0.0014701512,0.0,0.0,0.0,0.0,0.0,0.0,0.0,0.0
152704887,0.00042946482,3.1341508e-05,0.00023831447,0.00012876486,0.011352676,0.0,0.0,0.15404466,0.0,0.0,3.2768673e-11,0.0,nan,nan,nan,nan,nan,nan,0.0,4.4492353e-05,0.0,0.0,nan,0.0,0.15404466,0.00016278004,0.0,0.0,0.0,0.0,0.0,0.0,0.0,0.0
152904853,0.0008443185,3.1342868e-05,0.00010974461,0.00012503742,0.0113363955,0.0,0.0,0.15347047,0.0,0.0,3.276865e-11,0.0,nan,nan,nan,nan,nan,nan,0.0,1.5574633e-05,0.0,0.0,nan,0.0,0.15347047,0.0002477732,0.0,0.0,0.0,0.0,0.0,0.0,0.0,0.0
153104880,0.0007561595,3.1344283e-05,0.00017567372,7.02194e-05,0.011377804,0.0,0.0,0.15482642,0.0,0.0,3.2768625e-11,0.0,nan,nan,nan,nan,nan,nan,0.0,0.0003188992,0.0,0.0,nan,0.0,0.15482642,0.0013840118,0.0,0.0,0.0,0.0,0.0,0.0,0.0,0.0
153304861,9.308874e-05,3.1344913e-05,2.3570821e-05,0.00014142637,0.011359363,0.0,0.0,0.15422049,0.0,0.0,3.2768597e-11,0.0,nan,nan,nan,nan,nan,nan,0.0,0.000112510905,0.0,0.0,nan,0.0,0.15422049,0.0006346063,0.0,0.0,0.0,0.0,0.0,0.0,0.0,0.0
153504852,0.0002910902,3.1345462e-05,1.4417039e-05,0.00013960061,0.011341663,0.0,0.0,0.15362698,0.0,0.0,3.276857e-11,0.0,nan,nan,nan,nan,nan,nan,0.0,1.7341988e-06,0.0,0.0,nan,0.0,0.15362698,0.0037701835,0.0,0.0,0.0,0.0,0.0,0.0,0.0,0.0
153704852,0.0005422603,3.134597e-05,4.17128e-07,0.00017257727,0.011382882,0.0,0.0,0.1549816,0.0,0.0,3.276854e-11,0.0,nan,nan,nan,nan,nan,nan,0.0,0.00023299005,0.0,0.0,nan,0.0,0.1549816,0.003056566,0.0,0.0,0.0,0.0,0.0,0.0,0.0,0.0
153904850,0.0001234055,3.13447e-05,0.0007450335,0.00014478188,0.011365555,0.0,0.0,0.15439032,0.0,0.0,3.276851e-11,0.0,nan,nan,nan,nan,nan,nan,0.0,3.372496e-05,0.0,0.0,nan,0.0,0.15439032,0.003313908,0.0,0.0,0.0,0.0,0.0,0.0,0.0,0.0
154104848,6.544929e-07,3.1345815e-05,0.0002864311,9.0496935e-05,0.011348333,0.0,0.0,0.1538039,0.0,0.0,3.276848e-11,0.0,nan,nan,nan,nan,nan,nan,0.0,8.084669e-07,0.0,0.0,nan,0.0,0.1538039,0.00286122,0.0,0.0,0.0,0.0,0.0,0.0,0.0,0.0
154304883,0.0007107938,3.134747e-05,2.0401763e-05,5.261151e-05,0.011390121,0.0,0.0,0.15516971,0.0,0.0,3.276845e-11,0.0,nan,nan,nan,nan,nan,nan,0.0,2.819533e-05,0.0,0.0,nan,0.0,0.15516971,0.0061375136,0.0,0.0,0.0,0.0,0.0,0.0,0.0,0.0
154504863,0.00011319545,3.134787e-05,7.687117e-05,2.798721e-05,0.01137601,0.0,0.0,0.15459068,0.0,0.0,3.276842e-11,0.0,nan,nan,nan,nan,nan,nan,0.0,2.8959592e-05,0.0,0.0,nan,0.0,0.15459068,0.0011027805,0.0,0.0,0.0,0.0,0.0,0.0,0.0,0.0
154704848,0.0005871315,3.1348467e-05,0.00010398383,4.4927056e-06,0.011359939,0.0,0.0,0.15398993,0.0,0.0,3.276839e-11,0.0,nan,nan,nan,nan,nan,nan,0.0,3.9704298e-07,0.0,0.0,nan,0.0,0.15398993,0.0022517543,0.0,0.0,0.0,0.0,0.0,0.0,0.0,0.0
154904848,0.0008583598,3.1351e-05,0.0006364434,1.7083365e-05,0.011400131,0.0,0.0,0.15534076,0.0,0.0,3.2768354e-11,0.0,nan,nan,nan,nan,nan,nan,0.0,1.3875755e-06,0.0,0.0,nan,0.0,0.15534076,3.6548154e-05,0.0,0.0,0.0,0.0,0.0,0.0,0.0,0.0
155104848,0.00018277834,3.135062e-05,6.13534e-07,2.7201077e-05,0.011381543,0.0,0.0,0.15473686,0.0,0.0,3.276832e-11,0.0,nan,nan,nan,nan,nan,nan,0.0,2.3669231e-06,0.0,0.0,nan,0.0,0.15473686,0.00057771616,0.0,0.0,0.0,0.0,0.0,0.0,0.0,0.0
155304892,0.00034132146,3.1350595e-05,0.00035670886,0.00012439597,0.011363206,0.0,0.0,0.15413873,0.0,0.0,3.2768285e-11,0.0,nan,nan,nan,nan,nan,nan,0.0,0.0001424929,0.0,0.0,nan,0.0,0.15413873,0.0005996318,0.0,0.0,0.0,0.0,0.0,0.0,0.0,0.0
155504855,0.00024231651,3.1351803e-05,0.00037117008,0.00021667965,0.0114042265,0.0,0.0,0.15550163,0.0,0.0,3.276825e-11,0.0,nan,nan,nan,nan,nan,nan,0.0,7.1863935e-05,0.0,0.0,nan,0.0,0.15550163,0.001147534,0.0,0.0,0.0,0.0,0.0,0.0,0.0,0.0
155704848,0.00084473315,3.1352745e-05,0.0002438913,0.000139613,0.011383392,0.0,0.0,0.15489936,0.0,0.0,3.2768215e-11,0.0,nan,nan,nan,nan,nan,nan,0.0,0.00023591035,0.0,0.0,nan,0.0,0.15489936,0.0041031414,0.0,0.0,0.0,0.0,0.0,0.0,0.0,0.0
155904849,0.0033836355,3.1351792e-05,5.208539e-06,0.00012514106,0.011366259,0.0,0.0,0.15431486,0.0,0.0,3.276818e-11,0.0,nan,nan,nan,nan,nan,nan,0.0,7.526491e-05,0.0,0.0,nan,0.0,0.15431486,0.0034443543,0.0,0.0,0.0,0.0,0.0,0.0,0.0,0.0
156104875,0.00037072413,3.1353065e-05,8.255184e-06,0.00012345055,0.011346771,0.0,0.0,0.15373525,0.0,0.0,3.2768142e-11,0.0,nan,nan,nan,nan,nan,nan,0.0,7.4921685e-05,0.0,0.0,nan,0.0,0.15373525,0.012367702,0.0,0.0,0.0,0.0,0.0,0.0,0.0,0.0
156304848,0.00037247073,3.135325e-05,0.0009930368,0.00020321461,0.011388748,0.0,0.0,0.15510494,0.0,0.0,3.27681e-11,0.0,nan,nan,nan,nan,nan,nan,0.0,2.1937203e-06,0.0,0.0,nan,0.0,0.15510494,0.0014040709,0.0,0.0,0.0,0.0,0.0,0.0,0.0,0.0
156504848,0.0015906395,3.135272e-05,9.998868e-05,9.8689896e-05,0.011372444,0.0,0.0,0.1545316,0.0,0.0,3.276806e-11,0.0,nan,nan,nan,nan,nan,nan,0.0,1.6426141e-07,0.0,0.0,nan,0.0,0.1545316,0.00028030513,0.0,0.0,0.0,0.0,0.0,0.0,0.0,0.0
156704878,0.000537265,3.135367e-05,0.00020640419,0.00014417197,0.011356104,0.0,0.0,0.15396178,0.0,0.0,3.2768017e-11,0.0,nan,nan,nan,nan,nan,nan,0.0,1.7380056e-05,0.0,0.0,nan,0.0,0.15396178,2.8607967e-06,0.0,0.0,0.0,0.0,0.0,0.0,0.0,0.0
156904848,0.0002777134,3.1354208e-05,0.00016240217,0.00018116647,0.011342607,0.0,0.0,0.15340172,0.0,0.0,3.2767972e-11,0.0,nan,nan,nan,nan,nan,nan,0.0,5.88499e-05,0.0,0.0,nan,0.0,0.15340172,0.0005808551,0.0,0.0,0.0,0.0,0.0,0.0,0.0,0.0
157104861,0.000100280566,3.135446e-05,0.0005598624,0.00016639472,0.011384709,0.0,0.0,0.15477683,0.0,0.0,3.2767927e-11,0.0,nan,nan,nan,nan,nan,nan,0.0,5.7290613e-06,0.0,0.0,nan,0.0,0.15477683,8.0072135e-07,0.0,0.0,0.0,0.0,0.0,0.0,0.0,0.0
157304848,0.00069717696,3.1355634e-05,0.00010527397,0.00022788395,0.011371068,0.0,0.0,0.15421613,0.0,0.0,3.276788e-11,0.0,nan,nan,nan,nan,nan,nan,0.0,0.0004360163,0.0,0.0,nan,0.0,0.15421613,0.002793999,0.0,0.0,0.0,0.0,0.0,0.0,0.0,0.0
157504881,0.00086043525,3.1357427e-05,3.163405e-07,0.0001917731,0.011357156,0.0,0.0,0.15365836,0.0,0.0,3.2767834e-11,0.0,nan,nan,nan,nan,nan,nan,0.0,7.384283e-05,0.0,0.0,nan,0.0,0.15365836,0.0032466222,0.0,0.0,0.0,0.0,0.0,0.0,0.0,0.0
157704856,0.00048227527,3.1355674e-05,0.00056929566,0.00013629172,0.011397196,0.0,0.0,0.1550155,0.0,0.0,3.2767785e-11,0.0,nan,nan,nan,nan,nan,nan,0.0,2.8693526e-05,0.0,0.0,nan,0.0,0.1550155,1.8229009e-06,0.0,0.0,0.0,0.0,0.0,0.0,0.0,0.0
157904885,0.0027619496,3.1355798e-05,0.00094372494,0.00011749576,0.011378626,0.0,0.0,0.15442547,0.0,0.0,3.2767736e-11,0.0,nan,nan,nan,nan,nan,nan,0.0,1.1127926e-09,0.0,0.0,nan,0.0,0.15442547,0.00013957579,0.0,0.0,0.0,0.0,0.0,0.0,0.0,0.0
158104938,0.00050628453,3.1357533e-05,1.2454467e-05,0.00011791037,0.011360192,0.0,0.0,0.1538399,0.0,0.0,3.276769e-11,0.0,nan,nan,nan,nan,nan,nan,0.0,0.00014336024,0.0,0.0,nan,0.0,0.1538399,5.8839556e-05,0.0,0.0,0.0,0.0,0.0,0.0,0.0,0.0
158304848,0.00016350001,3.135703e-05,7.922715e-05,6.918224e-05,0.011400968,0.0,0.0,0.1552072,0.0,0.0,3.2767643e-11,0.0,nan,nan,nan,nan,nan,nan,0.0,6.854499e-05,0.0,0.0,nan,0.0,0.1552072,0.00041314273,0.0,0.0,0.0,0.0,0.0,0.0,0.0,0.0
158504884,0.0016153121,3.1356463e-05,4.6447085e-06,9.260445e-05,0.01138337,0.0,0.0,0.15462889,0.0,0.0,3.2767594e-11,0.0,nan,nan,nan,nan,nan,nan,0.0,2.2506732e-05,0.0,0.0,nan,0.0,0.15462889,0.0068237013,0.0,0.0,0.0,0.0,0.0,0.0,0.0,0.0
158704848,0.00019907474,3.1358322e-05,2.5762852e-06,9.9839235e-05,0.011365387,0.0,0.0,0.15404782,0.0,0.0,3.2767542e-11,0.0,nan,nan,nan,nan,nan,nan,0.0,5.169016e-05,0.0,0.0,nan,0.0,0.15404782,0.000260961,0.0,0.0,0.0,0.0,0.0,0.0,0.0,0.0
158904883,0.00035919,3.135744e-05,0.00012256778,0.00014932525,0.011347983,0.0,0.0,0.15347727,0.0,0.0,3.276749e-11,0.0,nan,nan,nan,nan,nan,nan,0.0,0.0002537557,0.0,0.0,nan,0.0,0.15347727,0.00015021382,0.0,0.0,0.0,0.0,0.0,0.0,0.0,0.0
159104901,0.00029538127,3.1356638e-05,0.0004943996,0.00019286425,0.011388474,0.0,0.0,0.15483652,0.0,0.0,3.276744e-11,0.0,nan,nan,nan,nan,nan,nan,0.0,2.2398577e-05,0.0,0.0,nan,0.0,0.15483652,0.0034121291,0.0,0.0,0.0,0.0,0.0,0.0,0.0,0.0
159304848,0.00055594364,3.1357195e-05,2.1161835e-05,7.3462026e-05,0.011369502,0.0,0.0,0.15423982,0.0,0.0,3.2767396e-11,0.0,nan,nan,nan,nan,nan,nan,0.0,1.0097655e-07,0.0,0.0,nan,0.0,0.15423982,0.0010894479,0.0,0.0,0.0,0.0,0.0,0.0,0.0,0.0
159504851,0.0007788782,3.1357602e-05,3.959655e-05,0.0001324994,0.01135079,0.0,0.0,0.15364808,0.0,0.0,3.2767348e-11,0.0,nan,nan,nan,nan,nan,nan,0.0,9.857547e-06,0.0,0.0,nan,0.0,0.15364808,0.000595954,0.0,0.0,0.0,0.0,0.0,0.0,0.0,0.0
159704855,0.0006514892,3.1356776e-05,0.00045608616,0.0001271266,0.011391168,0.0,0.0,0.15500462,0.0,0.0,3.27673e-11,0.0,nan,nan,nan,nan,nan,nan,0.0,2.337438e-05,0.0,0.0,nan,0.0,0.15500462,0.0055661313,0.0,0.0,0.0,0.0,0.0,0.0,0.0,0.0
159904848,0.00010984256,3.1357366e-05,0.0004767009,8.348257e-05,0.011372969,0.0,0.0,0.15441445,0.0,0.0,3.276725e-11,0.0,nan,nan,nan,nan,nan,nan,0.0,0.00016592174,0.0,0.0,nan,0.0,0.15441445,0.0016504857,0.0,0.0,0.0,0.0,0.0,0.0,0.0,0.0
160104848,0.0009029614,3.135816e-05,3.0453815e-05,6.909637e-05,0.011357815,0.0,0.0,0.15383488,0.0,0.0,3.2767213e-11,0.0,nan,nan,nan,nan,nan,nan,0.0,3.0425872e-07,0.0,0.0,nan,0.0,0.15383488,0.00056852156,0.0,0.0,0.0,0.0,0.0,0.0,0.0,0.0
160304879,0.0006600686,3.1356685e-05,1.0667533e-06,8.059607e-05,0.011398779,0.0,0.0,0.15520208,0.0,0.0,3.2767167e-11,0.0,nan,nan,nan,nan,nan,nan,0.0,0.00015007552,0.0,0.0,nan,0.0,0.15520208,0.0053774863,0.0,0.0,0.0,0.0,0.0,0.0,0.0,0.0
160504848,0.00011632718,3.1355194e-05,9.944357e-06,7.469446e-05,0.011381386,0.0,0.0,0.15462369,0.0,0.0,3.2767126e-11,0.0,nan,nan,nan,nan,nan,nan,0.0,1.1475587e-05,0.0,0.0,nan,0.0,0.15462369,0.000874269,0.0,0.0,0.0,0.0,0.0,0.0,0.0,0.0
160704848,0.000583784,3.135613e-05,0.00027523687,7.777551e-05,0.0114198355,0.0,0.0,0.15596367,0.0,0.0,3.2767084e-11,0.0,nan,nan,nan,nan,nan,nan,0.0,1.378335e-06,0.0,0.0,nan,0.0,0.15596367,0.0017467557,0.0,0.0,0.0,0.0,0.0,0.0,0.0,0.0
160904852,0.00043012513,3.1355557e-05,9.7930846e-05,0.00011027689,0.0113988165,0.0,0.0,0.15532774,0.0,0.0,3.2767043e-11,0.0,nan,nan,nan,nan,nan,nan,0.0,2.3887605e-05,0.0,0.0,nan,0.0,0.15532774,0.0018155021,0.0,0.0,0.0,0.0,0.0,0.0,0.0,0.0
161104877,0.001968398,3.1354437e-05,0.0012957763,9.236696e-05,0.01137791,0.0,0.0,0.1546926,0.0,0.0,3.2767e-11,0.0,nan,nan,nan,nan,nan,nan,0.0,7.2165153e-06,0.0,0.0,nan,0.0,0.1546926,9.883458e-05,0.0,0.0,0.0,0.0,0.0,0.0,0.0,0.0
161304851,0.0005378282,3.1354928e-05,7.612891e-05,4.220429e-05,0.01135753,0.0,0.0,0.15406495,0.0,0.0,3.276696e-11,0.0,nan,nan,nan,nan,nan,nan,0.0,3.413674e-05,0.0,0.0,nan,0.0,0.15406495,0.00021530464,0.0,0.0,0.0,0.0,0.0,0.0,0.0,0.0
161504848,0.0009272497,3.13547e-05,6.8244462e-06,7.2494484e-05,0.011400088,0.0,0.0,0.15541083,0.0,0.0,3.2766918e-11,0.0,nan,nan,nan,nan,nan,nan,0.0,2.5408975e-05,0.0,0.0,nan,0.0,0.15541083,0.0037071463,0.0,0.0,0.0,0.0,0.0,0.0,0.0,0.0
162704880,5.576173e-05,3.1351796e-05,0.0006405069,4.7295223e-05,0.011349266,0.0,0.0,0.1537503,0.0,0.0,3.276669e-11,0.0,nan,nan,nan,nan,nan,nan,0.0,1.6497099e-05,0.0,0.0,nan,0.0,0.1537503,0.00061225885,0.0,0.0,0.0,0.0,0.0,0.0,0.0,0.0
162904848,0.001051458,3.1350955e-05,5.884212e-05,3.8477523e-05,0.011390724,0.0,0.0,0.15511237,0.0,0.0,3.2766654e-11,0.0,nan,nan,nan,nan,nan,nan,0.0,2.7506141e-05,0.0,0.0,nan,0.0,0.15511237,1.7301942e-05,0.0,0.0,0.0,0.0,0.0,0.0,0.0,0.0
163104848,0.0009784629,3.1393643e-05,0.00020978224,6.4624815e-05,0.011373477,0.0,0.0,0.15452495,0.0,0.0,3.276662e-11,0.0,nan,nan,nan,nan,nan,nan,0.0,1.450955e-05,0.0,0.0,nan,0.0,0.15452495,0.003945605,0.0,0.0,0.0,0.0,0.0,0.0,0.0,0.0
163304848,0.0009640711,3.173645e-05,7.125242e-06,0.0001917764,0.011356309,0.0,0.0,0.15394226,0.0,0.0,3.2766612e-11,0.0,nan,nan,nan,nan,nan,nan,0.0,8.7834356e-05,0.0,0.0,nan,0.0,0.15394226,0.00010536881,0.0,0.0,0.0,0.0,0.0,0.0,0.0,0.0
163504848,0.0005768738,3.239834e-05,6.505374e-05,0.00017898875,0.01133836,0.0,0.0,0.1533703,0.0,0.0,3.2766612e-11,0.0,nan,nan,nan,nan,nan,nan,0.0,1.0507436e-05,0.0,0.0,nan,0.0,0.1533703,0.002675159,0.0,0.0,0.0,0.0,0.0,0.0,0.0,0.0
163704855,0.0015835986,3.288036e-05,0.00042147274,0.00019080118,0.011378279,0.0,0.0,0.15472549,0.0,0.0,3.276635e-11,0.0,nan,nan,nan,nan,nan,nan,0.0,0.00012904871,0.0,0.0,nan,0.0,0.15472549,0.00089000765,0.0,0.0,0.0,0.0,0.0,0.0,0.0,0.0
163904899,0.00018403525,3.2953656e-05,0.0014049151,0.00015893375,0.011360361,0.0,0.0,0.15412804,0.0,0.0,3.2765898e-11,0.0,nan,nan,nan,nan,nan,nan,0.0,8.8337185e-07,0.0,0.0,nan,0.0,0.15412804,0.0026141694,0.0,0.0,0.0,0.0,0.0,0.0,0.0,0.0
164104859,0.0031415445,3.2970533e-05,0.00082345994,0.00033594016,0.011400708,0.0,0.0,0.15548478,0.0,0.0,3.2765887e-11,0.0,nan,nan,nan,nan,nan,nan,0.0,1.5203272e-09,0.0,0.0,nan,0.0,0.15548478,0.011960836,0.0,0.0,0.0,0.0,0.0,0.0,0.0,0.0
164304934,0.0022332314,3.2962824e-05,0.00084959174,0.00015690587,0.011382404,0.0,0.0,0.1548831,0.0,0.0,3.2765835e-11,0.0,nan,nan,nan,nan,nan,nan,0.0,0.00012440266,0.0,0.0,nan,0.0,0.1548831,0.0032346249,0.0,0.0,0.0,0.0,0.0,0.0,0.0,0.0
164504865,0.0008814982,3.2959288e-05,7.65223e-06,0.00025500244,0.01136484,0.0,0.0,0.15429342,0.0,0.0,3.2765776e-11,0.0,nan,nan,nan,nan,nan,nan,0.0,2.9248942e-05,0.0,0.0,nan,0.0,0.15429342,2.5188383e-08,0.0,0.0,0.0,0.0,0.0,0.0,0.0,0.0
164704861,0.00034023082,3.2959637e-05,3.1572697e-05,0.00042775972,0.0113469185,0.0,0.0,0.15370183,0.0,0.0,3.276572e-11,0.0,nan,nan,nan,nan,nan,nan,0.0,9.513043e-06,0.0,0.0,nan,0.0,0.15370183,0.008772481,0.0,0.0,0.0,0.0,0.0,0.0,0.0,0.0
164904848,0.0015637664,3.2959226e-05,0.00046908474,0.0005133417,0.011388461,0.0,0.0,0.15506676,0.0,0.0,3.2765658e-11,0.0,nan,nan,nan,nan,nan,nan,0.0,1.0236438e-05,0.0,0.0,nan,0.0,0.15506676,0.003632024,0.0,0.0,0.0,0.0,0.0,0.0,0.0,0.0
165104861,0.00075726066,3.295835e-05,4.7833375e-05,0.0007554041,0.01137179,0.0,0.0,0.15448985,0.0,0.0,3.276558e-11,0.0,nan,nan,nan,nan,nan,nan,0.0,8.958864e-07,0.0,0.0,nan,0.0,0.15448985,0.005148476,0.0,0.0,0.0,0.0,0.0,0.0,0.0,0.0
165304901,0.0008141837,3.295727e-05,1.04218625e-05,0.00087458006,0.011354183,0.0,0.0,0.1539036,0.0,0.0,3.2765485e-11,0.0,nan,nan,nan,nan,nan,nan,0.0,5.176639e-05,0.0,0.0,nan,0.0,0.1539036,0.008445884,0.0,0.0,0.0,0.0,0.0,0.0,0.0,0.0
165504849,0.00042190772,3.2955944e-05,0.0003978239,0.00078654767,0.011394781,0.0,0.0,0.15525874,0.0,0.0,3.276538e-11,0.0,nan,nan,nan,nan,nan,nan,0.0,0.00014959752,0.0,0.0,nan,0.0,0.15525874,0.00021880207,0.0,0.0,0.0,0.0,0.0,0.0,0.0,0.0
165704866,0.0006990874,3.2954078e-05,0.00025538763,0.00076908094,0.011376209,0.0,0.0,0.1546545,0.0,0.0,3.2765297e-11,0.0,nan,nan,nan,nan,nan,nan,0.0,3.4534103e-05,0.0,0.0,nan,0.0,0.1546545,0.005989371,0.0,0.0,0.0,0.0,0.0,0.0,0.0,0.0
165904848,0.0009998421,3.2952878e-05,0.00015672947,0.00093956257,0.01135548,0.0,0.0,0.15405631,0.0,0.0,3.2765204e-11,0.0,nan,nan,nan,nan,nan,nan,0.0,3.4150926e-05,0.0,0.0,nan,0.0,0.15405631,0.0048416667,0.0,0.0,0.0,0.0,0.0,0.0,0.0,0.0
166104883,0.0009810983,3.2951157e-05,8.7485445e-05,0.00086370774,0.011393728,0.0,0.0,0.15541008,0.0,0.0,3.27651e-11,0.0,nan,nan,nan,nan,nan,nan,0.0,1.9613162e-05,0.0,0.0,nan,0.0,0.15541008,0.007833603,0.0,0.0,0.0,0.0,0.0,0.0,0.0,0.0
166304848,0.0007231028,3.2949883e-05,7.417744e-05,0.00096407876,0.011376216,0.0,0.0,0.15481317,0.0,0.0,3.2764985e-11,0.0,nan,nan,nan,nan,nan,nan,0.0,4.3009536e-06,0.0,0.0,nan,0.0,0.15481317,0.0008565505,0.0,0.0,0.0,0.0,0.0,0.0,0.0,0.0
166504849,0.0007727213,3.2949043e-05,0.00058312353,0.0008954414,0.011356461,0.0,0.0,0.15422189,0.0,0.0,3.2764867e-11,0.0,nan,nan,nan,nan,nan,nan,0.0,6.0958923e-06,0.0,0.0,nan,0.0,0.15422189,0.00018654247,0.0,0.0,0.0,0.0,0.0,0.0,0.0,0.0
166704848,0.0013419047,3.294773e-05,0.0005247167,0.0009933218,0.011336969,0.0,0.0,0.1536351,0.0,0.0,3.2764732e-11,0.0,nan,nan,nan,nan,nan,nan,0.0,7.597264e-05,0.0,0.0,nan,0.0,0.1536351,0.0010080033,0.0,0.0,0.0,0.0,0.0,0.0,0.0,0.0
166904882,0.0006204857,3.2945783e-05,0.00027725668,0.0008781774,0.011377973,0.0,0.0,0.15498222,0.0,0.0,3.2764586e-11,0.0,nan,nan,nan,nan,nan,nan,0.0,0.000231854,0.0,0.0,nan,0.0,0.15498222,0.001529516,0.0,0.0,0.0,0.0,0.0,0.0,0.0,0.0
167104848,0.0013605896,3.2944117e-05,0.00016494114,0.00086349086,0.011357714,0.0,0.0,0.15434416,0.0,0.0,3.276443e-11,0.0,nan,nan,nan,nan,nan,nan,0.0,4.476277e-05,0.0,0.0,nan,0.0,0.15434416,0.00010722117,0.0,0.0,0.0,0.0,0.0,0.0,0.0,0.0
167304848,0.0013031471,3.2942255e-05,7.20443e-05,0.0007104209,0.011397256,0.0,0.0,0.15567432,0.0,0.0,3.2764264e-11,0.0,nan,nan,nan,nan,nan,nan,0.0,5.160911e-07,0.0,0.0,nan,0.0,0.15567432,0.0034608564,0.0,0.0,0.0,0.0,0.0,0.0,0.0,0.0
167504878,0.0006878331,3.2939395e-05,5.2093652e-05,0.0007330573,0.011378059,0.0,0.0,0.15504278,0.0,0.0,3.2764087e-11,0.0,nan,nan,nan,nan,nan,nan,0.0,5.4468564e-05,0.0,0.0,nan,0.0,0.15504278,0.0010381383,0.0,0.0,0.0,0.0,0.0,0.0,0.0,0.0
167704848,0.002494794,3.2937234e-05,0.0012297913,0.0005762948,0.01135933,0.0,0.0,0.15441875,0.0,0.0,3.276393e-11,0.0,nan,nan,nan,nan,nan,nan,0.0,4.509833e-06,0.0,0.0,nan,0.0,0.15441875,0.0011202568,0.0,0.0,0.0,0.0,0.0,0.0,0.0,0.0
167904848,0.00014038738,3.2935077e-05,0.00047994073,0.0005348584,0.011399771,0.0,0.0,0.15575758,0.0,0.0,3.2763767e-11,0.0,nan,nan,nan,nan,nan,nan,0.0,6.0622675e-05,0.0,0.0,nan,0.0,0.15575758,0.004357293,0.0,0.0,0.0,0.0,0.0,0.0,0.0,0.0
168104863,4.1620395e-05,3.2932596e-05,0.00024043764,0.0004631298,0.011381798,0.0,0.0,0.15513901,0.0,0.0,3.2763594e-11,0.0,nan,nan,nan,nan,nan,nan,0.0,0.00012745547,0.0,0.0,nan,0.0,0.15513901,0.0015208682,0.0,0.0,0.0,0.0,0.0,0.0,0.0,0.0
168304848,0.0023415368,3.2888856e-05,0.0010916968,0.0004014352,0.011364439,0.0,0.0,0.15453367,0.0,0.0,3.276341e-11,0.0,nan,nan,nan,nan,nan,nan,0.0,1.1571303e-06,0.0,0.0,nan,0.0,0.15453367,0.00027004955,0.0,0.0,0.0,0.0,0.0,0.0,0.0,0.0
168504864,0.00068488927,3.269635e-05,0.00017700183,0.00039851273,0.011404752,0.0,0.0,0.1558731,0.0,0.0,3.276318e-11,0.0,nan,nan,nan,nan,nan,nan,0.0,8.610463e-05,0.0,0.0,nan,0.0,0.1558731,0.005198258,0.0,0.0,0.0,0.0,0.0,0.0,0.0,0.0
168704891,0.0014112933,3.237322e-05,0.0031838398,0.0004609727,0.01138488,0.0,0.0,0.15523902,0.0,0.0,3.2762935e-11,0.0,nan,nan,nan,nan,nan,nan,0.0,3.159274e-05,0.0,0.0,nan,0.0,0.15523902,0.008329425,0.0,0.0,0.0,0.0,0.0,0.0,0.0,0.0
169704852,0.0006448622,3.2415337e-05,5.8252874e-07,0.0002284743,0.011352102,0.0,0.0,0.1541186,0.0,0.0,3.2761873e-11,0.0,nan,nan,nan,nan,nan,nan,0.0,2.1151756e-05,0.0,0.0,nan,0.0,0.1541186,0.00084166555,0.0,0.0,0.0,0.0,0.0,0.0,0.0,0.0
169904854,8.890073e-05,3.2419175e-05,0.00059217063,0.00019516495,0.011393914,0.0,0.0,0.1554718,0.0,0.0,3.2761672e-11,0.0,nan,nan,nan,nan,nan,nan,0.0,5.010539e-05,0.0,0.0,nan,0.0,0.1554718,2.3960374e-06,0.0,0.0,0.0,0.0,0.0,0.0,0.0,0.0
170104851,0.0012762256,3.24126e-05,5.614123e-05,0.00021698544,0.011375466,0.0,0.0,0.15484786,0.0,0.0,3.2761457e-11,0.0,nan,nan,nan,nan,nan,nan,0.0,3.6711526e-06,0.0,0.0,nan,0.0,0.15484786,0.00011144539,0.0,0.0,0.0,0.0,0.0,0.0,0.0,0.0
170304879,0.0012175632,3.240436e-05,0.0003410547,0.00022923158,0.011357396,0.0,0.0,0.15423115,0.0,0.0,3.2761256e-11,0.0,nan,nan,nan,nan,nan,nan,0.0,2.9325175e-13,0.0,0.0,nan,0.0,0.15423115,0.00019243163,0.0,0.0,0.0,0.0,0.0,0.0,0.0,0.0
170504848,0.0015072285,3.2406057e-05,2.398864e-05,0.0004616961,0.011398171,0.0,0.0,0.15557228,0.0,0.0,3.2761065e-11,0.0,nan,nan,nan,nan,nan,nan,0.0,0.00019989586,0.0,0.0,nan,0.0,0.15557228,0.001974716,0.0,0.0,0.0,0.0,0.0,0.0,0.0,0.0
170704855,0.0001294981,3.240398e-05,0.0001708057,0.00039320887,0.011380526,0.0,0.0,0.15496056,0.0,0.0,3.2760877e-11,0.0,nan,nan,nan,nan,nan,nan,0.0,0.00012339883,0.0,0.0,nan,0.0,0.15496056,5.5530156e-05,0.0,0.0,0.0,0.0,0.0,0.0,0.0,0.0
170904852,0.0004094756,3.239588e-05,0.00024328392,0.00043166953,0.0113630975,0.0,0.0,0.15435512,0.0,0.0,3.2760676e-11,0.0,nan,nan,nan,nan,nan,nan,0.0,1.2534281e-05,0.0,0.0,nan,0.0,0.15435512,0.00013785454,0.0,0.0,0.0,0.0,0.0,0.0,0.0,0.0
171104915,0.00070685206,3.2394426e-05,0.0001420098,0.0005009152,0.011345856,0.0,0.0,0.15375592,0.0,0.0,3.276048e-11,0.0,nan,nan,nan,nan,nan,nan,0.0,1.2614093e-08,0.0,0.0,nan,0.0,0.15375592,0.00095937523,0.0,0.0,0.0,0.0,0.0,0.0,0.0,0.0
171304865,0.0017774011,3.2394077e-05,2.3504235e-05,0.00043944028,0.01138791,0.0,0.0,0.15511517,0.0,0.0,3.2760298e-11,0.0,nan,nan,nan,nan,nan,nan,0.0,7.507687e-09,0.0,0.0,nan,0.0,0.15511517,0.0004496301,0.0,0.0,0.0,0.0,0.0,0.0,0.0,0.0
171504905,0.00033721532,3.2387525e-05,4.0200233e-05,0.00038050968,0.011368422,0.0,0.0,0.15448552,0.0,0.0,3.276011e-11,0.0,nan,nan,nan,nan,nan,nan,0.0,1.973723e-06,0.0,0.0,nan,0.0,0.15448552,0.002648781,0.0,0.0,0.0,0.0,0.0,0.0,0.0,0.0
171704850,0.00066624,3.238372e-05,7.025709e-06,0.0003649278,0.011407295,0.0,0.0,0.15580752,0.0,0.0,3.2759948e-11,0.0,nan,nan,nan,nan,nan,nan,0.0,1.6112275e-06,0.0,0.0,nan,0.0,0.15580752,0.00010767632,0.0,0.0,0.0,0.0,0.0,0.0,0.0,0.0
171904852,0.00037471563,3.2383068e-05,0.0004413671,0.00027422427,0.011386896,0.0,0.0,0.15515862,0.0,0.0,3.27598e-11,0.0,nan,nan,nan,nan,nan,nan,0.0,0.00024293642,0.0,0.0,nan,0.0,0.15515862,0.00072172406,0.0,0.0,0.0,0.0,0.0,0.0,0.0,0.0
172104857,0.0009897972,3.237867e-05,7.181178e-05,0.000208509,0.011366983,0.0,0.0,0.15451846,0.0,0.0,3.2759663e-11,0.0,nan,nan,nan,nan,nan,nan,0.0,3.7249836e-05,0.0,0.0,nan,0.0,0.15451846,0.0010204324,0.0,0.0,0.0,0.0,0.0,0.0,0.0,0.0
172304848,0.00015419784,3.237357e-05,6.608889e-05,0.0002497076,0.0114068445,0.0,0.0,0.15585119,0.0,0.0,3.2759535e-11,0.0,nan,nan,nan,nan,nan,nan,0.0,5.3131144e-09,0.0,0.0,nan,0.0,0.15585119,0.006381227,0.0,0.0,0.0,0.0,0.0,0.0,0.0,0.0
172504854,0.00016813244,3.2373355e-05,0.00015952277,0.0002730681,0.011387797,0.0,0.0,0.15521795,0.0,0.0,3.2759413e-11,0.0,nan,nan,nan,nan,nan,nan,0.0,9.494665e-05,0.0,0.0,nan,0.0,0.15521795,0.0017176846,0.0,0.0,0.0,0.0,0.0,0.0,0.0,0.0
172704851,0.0011950743,3.2370477e-05,0.0011833933,0.00029048062,0.011369536,0.0,0.0,0.15459916,0.0,0.0,3.27593e-11,0.0,nan,nan,nan,nan,nan,nan,0.0,2.7737127e-05,0.0,0.0,nan,0.0,0.15459916,0.00076826144,0.0,0.0,0.0,0.0,0.0,0.0,0.0,0.0
172904850,0.00044393635,3.2364776e-05,0.0002857539,0.00023364111,0.011351515,0.0,0.0,0.15398732,0.0,0.0,3.275919e-11,0.0,nan,nan,nan,nan,nan,nan,0.0,2.4617771e-05,0.0,0.0,nan,0.0,0.15398732,0.0024949498,0.0,0.0,0.0,0.0,0.0,0.0,0.0,0.0
173104848,0.0011183314,3.2362554e-05,2.0275904e-05,0.00019740454,0.011391194,0.0,0.0,0.15531375,0.0,0.0,3.275909e-11,0.0,nan,nan,nan,nan,nan,nan,0.0,8.1996586e-05,0.0,0.0,nan,0.0,0.15531375,0.00035758907,0.0,0.0,0.0,0.0,0.0,0.0,0.0,0.0
173304848,2.0398098e-05,3.2360564e-05,3.0635607e-07,0.0001756222,0.0113695,0.0,0.0,0.15464804,0.0,0.0,3.2758997e-11,0.0,nan,nan,nan,nan,nan,nan,0.0,0.00011949509,0.0,0.0,nan,0.0,0.15464804,0.0042389715,0.0,0.0,0.0,0.0,0.0,0.0,0.0,0.0
173504848,0.003237403,3.2355845e-05,0.0009053335,0.00013095664,0.011407838,0.0,0.0,0.15595976,0.0,0.0,3.2758907e-11,0.0,nan,nan,nan,nan,nan,nan,0.0,0.00015841295,0.0,0.0,nan,0.0,0.15595976,0.0103286365,0.0,0.0,0.0,0.0,0.0,0.0,0.0,0.0
173704848,6.1612254e-06,3.2352924e-05,0.00070433447,0.00015472987,0.011387413,0.0,0.0,0.15530393,0.0,0.0,3.2758823e-11,0.0,nan,nan,nan,nan,nan,nan,0.0,7.2477604e-05,0.0,0.0,nan,0.0,0.15530393,0.0011537097,0.0,0.0,0.0,0.0,0.0,0.0,0.0,0.0
173904890,1.5711152e-05,3.2351716e-05,0.00042957556,0.00018596357,0.011364629,0.0,0.0,0.15465131,0.0,0.0,3.2758747e-11,0.0,nan,nan,nan,nan,nan,nan,0.0,2.7872286e-06,0.0,0.0,nan,0.0,0.15465131,0.00023745754,0.0,0.0,0.0,0.0,0.0,0.0,0.0,0.0
174104868,0.00026717214,3.234708e-05,0.00019039166,0.00014699329,0.011404229,0.0,0.0,0.15597488,0.0,0.0,3.2758685e-11,0.0,nan,nan,nan,nan,nan,nan,0.0,2.5644207e-05,0.0,0.0,nan,0.0,0.15597488,0.00436199,0.0,0.0,0.0,0.0,0.0,0.0,0.0,0.0
174304861,4.571017e-05,3.234384e-05,8.757927e-05,0.00018266439,0.011385449,0.0,0.0,0.15533677,0.0,0.0,3.275863e-11,0.0,nan,nan,nan,nan,nan,nan,0.0,8.679366e-05,0.0,0.0,nan,0.0,0.15533677,0.00044033007,0.0,0.0,0.0,0.0,0.0,0.0,0.0,0.0
174504852,0.0005742127,3.234269e-05,0.00021946982,0.00013822374,0.011367447,0.0,0.0,0.1547135,0.0,0.0,3.275859e-11,0.0,nan,nan,nan,nan,nan,nan,0.0,0.00016134857,0.0,0.0,nan,0.0,0.1547135,0.0052706073,0.0,0.0,0.0,0.0,0.0,0.0,0.0,0.0
174704895,6.901342e-05,3.233933e-05,2.5872962e-06,0.00018957678,0.011407149,0.0,0.0,0.15604058,0.0,0.0,3.2758553e-11,0.0,nan,nan,nan,nan,nan,nan,0.0,0.00013075277,0.0,0.0,nan,0.0,0.15604058,0.00041565797,0.0,0.0,0.0,0.0,0.0,0.0,0.0,0.0
174904849,0.00018833319,3.2335378e-05,4.0301937e-05,0.0002190122,0.0113874525,0.0,0.0,0.15539098,0.0,0.0,3.2758535e-11,0.0,nan,nan,nan,nan,nan,nan,0.0,0.00010317693,0.0,0.0,nan,0.0,0.15539098,0.0058464045,0.0,0.0,0.0,0.0,0.0,0.0,0.0,0.0
175104857,6.526936e-05,3.233351e-05,0.00016063933,0.00014140063,0.011368177,0.0,0.0,0.15475033,0.0,0.0,3.2758525e-11,0.0,nan,nan,nan,nan,nan,nan,0.0,3.77412e-05,0.0,0.0,nan,0.0,0.15475033,0.0031738915,0.0,0.0,0.0,0.0,0.0,0.0,0.0,0.0
175304892,0.00095556787,3.23307e-05,3.1875355e-05,0.00017405552,0.011349296,0.0,0.0,0.15411827,0.0,0.0,3.275851e-11,0.0,nan,nan,nan,nan,nan,nan,0.0,4.625943e-06,0.0,0.0,nan,0.0,0.15411827,8.500955e-05,0.0,0.0,0.0,0.0,0.0,0.0,0.0,0.0
175504854,0.0003000809,3.2327247e-05,9.255885e-06,0.00011276201,0.011390151,0.0,0.0,0.15545556,0.0,0.0,3.2758508e-11,0.0,nan,nan,nan,nan,nan,nan,0.0,2.225512e-05,0.0,0.0,nan,0.0,0.15545556,0.00064082356,0.0,0.0,0.0,0.0,0.0,0.0,0.0,0.0
175704848,0.0002989169,3.232472e-05,1.8836388e-05,0.0001399571,0.011371884,0.0,0.0,0.15483014,0.0,0.0,3.2758515e-11,0.0,nan,nan,nan,nan,nan,nan,0.0,4.640999e-06,0.0,0.0,nan,0.0,0.15483014,1.9312721e-10,0.0,0.0,0.0,0.0,0.0,0.0,0.0,0.0
176304855,5.039632e-05,3.2316144e-05,2.0681084e-05,0.00014889314,0.011373459,0.0,0.0,0.15492587,0.0,0.0,3.2758535e-11,0.0,nan,nan,nan,nan,nan,nan,0.0,3.7742317e-05,0.0,0.0,nan,0.0,0.15492587,9.9415365e-06,0.0,0.0,0.0,0.0,0.0,0.0,0.0,0.0
176504936,0.0009251097,3.2313623e-05,4.8653517e-05,0.00014980773,0.011354907,0.0,0.0,0.15430096,0.0,0.0,3.2758553e-11,0.0,nan,nan,nan,nan,nan,nan,0.0,3.6158686e-05,0.0,0.0,nan,0.0,0.15430096,0.0048272884,0.0,0.0,0.0,0.0,0.0,0.0,0.0,0.0
176704865,0.00023044548,3.231126e-05,0.00074748974,0.00014451254,0.011395224,0.0,0.0,0.15563619,0.0,0.0,3.2758577e-11,0.0,nan,nan,nan,nan,nan,nan,0.0,0.00021401524,0.0,0.0,nan,0.0,0.15563619,0.003990629,0.0,0.0,0.0,0.0,0.0,0.0,0.0,0.0
176904848,0.000111597765,3.23078e-05,0.0005380012,0.00019532058,0.011377271,0.0,0.0,0.15501751,0.0,0.0,3.2758605e-11,0.0,nan,nan,nan,nan,nan,nan,0.0,2.9597448e-05,0.0,0.0,nan,0.0,0.15501751,0.011852183,0.0,0.0,0.0,0.0,0.0,0.0,0.0,0.0
177104848,0.0003296811,3.2306052e-05,0.00029570432,0.00013760936,0.011359507,0.0,0.0,0.15440574,0.0,0.0,3.2758646e-11,0.0,nan,nan,nan,nan,nan,nan,0.0,7.413591e-07,0.0,0.0,nan,0.0,0.15440574,0.0016893276,0.0,0.0,0.0,0.0,0.0,0.0,0.0,0.0
177304848,0.0014286755,3.2302964e-05,0.00025983597,0.00017859763,0.011341919,0.0,0.0,0.15380077,0.0,0.0,3.2758688e-11,0.0,nan,nan,nan,nan,nan,nan,0.0,6.895681e-06,0.0,0.0,nan,0.0,0.15380077,0.001950854,0.0,0.0,0.0,0.0,0.0,0.0,0.0,0.0
177504885,0.00033128247,3.2299147e-05,0.00025358752,0.00018319557,0.01138369,0.0,0.0,0.15515576,0.0,0.0,3.275874e-11,0.0,nan,nan,nan,nan,nan,nan,0.0,4.8334743e-07,0.0,0.0,nan,0.0,0.15515576,0.0001210241,0.0,0.0,0.0,0.0,0.0,0.0,0.0,0.0
177704848,9.471097e-05,3.229598e-05,0.00035442517,0.0002684809,0.011363967,0.0,0.0,0.15452118,0.0,0.0,3.27588e-11,0.0,nan,nan,nan,nan,nan,nan,0.0,8.575995e-05,0.0,0.0,nan,0.0,0.15452118,6.784253e-05,0.0,0.0,0.0,0.0,0.0,0.0,0.0,0.0
177904848,0.0006285598,3.2293003e-05,0.0001300764,0.00027435698,0.011402548,0.0,0.0,0.1558395,0.0,0.0,3.275886e-11,0.0,nan,nan,nan,nan,nan,nan,0.0,0.00021668819,0.0,0.0,nan,0.0,0.1558395,0.00028735213,0.0,0.0,0.0,0.0,0.0,0.0,0.0,0.0
178104862,0.00037349018,3.2290216e-05,3.249112e-05,0.00026751516,0.011381948,0.0,0.0,0.15518641,0.0,0.0,3.2758924e-11,0.0,nan,nan,nan,nan,nan,nan,0.0,3.6744827e-05,0.0,0.0,nan,0.0,0.15518641,0.004010923,0.0,0.0,0.0,0.0,0.0,0.0,0.0,0.0
178304857,7.660161e-05,3.2286553e-05,5.99654e-06,0.00031201958,0.011362333,0.0,0.0,0.15454896,0.0,0.0,3.275899e-11,0.0,nan,nan,nan,nan,nan,nan,0.0,1.6879599e-06,0.0,0.0,nan,0.0,0.15454896,0.00017798194,0.0,0.0,0.0,0.0,0.0,0.0,0.0,0.0
178704852,0.0003253543,3.2281743e-05,5.2510703e-05,0.00023551502,0.011382655,0.0,0.0,0.1552418,0.0,0.0,3.275913e-11,0.0,nan,nan,nan,nan,nan,nan,0.0,8.284796e-06,0.0,0.0,nan,0.0,0.1552418,0.0013684842,0.0,0.0,0.0,0.0,0.0,0.0,0.0,0.0
178904881,0.0006873383,3.2278476e-05,3.573661e-05,0.00017378591,0.011364226,0.0,0.0,0.15461974,0.0,0.0,3.27592e-11,0.0,nan,nan,nan,nan,nan,nan,0.0,6.200779e-05,0.0,0.0,nan,0.0,0.15461974,0.0019168057,0.0,0.0,0.0,0.0,0.0,0.0,0.0,0.0
179104849,0.0007470947,3.2275315e-05,0.00049393927,0.0001432983,0.011346061,0.0,0.0,0.15400496,0.0,0.0,3.275928e-11,0.0,nan,nan,nan,nan,nan,nan,0.0,0.00014344128,0.0,0.0,nan,0.0,0.15400496,0.013217692,0.0,0.0,0.0,0.0,0.0,0.0,0.0,0.0
179304848,0.0003137003,3.2272364e-05,6.885868e-05,0.0001461689,0.011385567,0.0,0.0,0.15532908,0.0,0.0,3.2759365e-11,0.0,nan,nan,nan,nan,nan,nan,0.0,0.00016501377,0.0,0.0,nan,0.0,0.15532908,0.006652072,0.0,0.0,0.0,0.0,0.0,0.0,0.0,0.0
179504882,0.00043219226,3.2269305e-05,0.0005914166,8.503999e-05,0.011363806,0.0,0.0,0.15466085,0.0,0.0,3.275943e-11,0.0,nan,nan,nan,nan,nan,nan,0.0,1.8630046e-06,0.0,0.0,nan,0.0,0.15466085,0.00040806804,0.0,0.0,0.0,0.0,0.0,0.0,0.0,0.0
179704878,6.0691284e-05,3.2266555e-05,0.00042733617,0.00011320049,0.011402046,0.0,0.0,0.1559706,0.0,0.0,3.275948e-11,0.0,nan,nan,nan,nan,nan,nan,0.0,0.00015930281,0.0,0.0,nan,0.0,0.1559706,2.2052125e-06,0.0,0.0,0.0,0.0,0.0,0.0,0.0,0.0
179904848,0.0007545616,3.226408e-05,3.3576778e-06,6.256884e-05,0.011381565,0.0,0.0,0.15531269,0.0,0.0,3.275953e-11,0.0,nan,nan,nan,nan,nan,nan,0.0,0.00012717677,0.0,0.0,nan,0.0,0.15531269,0.0009549247,0.0,0.0,0.0,0.0,0.0,0.0,0.0,0.0
180104848,5.53153e-05,3.2261527e-05,0.0001212443,5.6732923e-05,0.011361647,0.0,0.0,0.15466443,0.0,0.0,3.2759583e-11,0.0,nan,nan,nan,nan,nan,nan,0.0,3.1024247e-05,0.0,0.0,nan,0.0,0.15466443,0.0071644387,0.0,0.0,0.0,0.0,0.0,0.0,0.0,0.0
180304855,0.00036509044,3.2259195e-05,1.1697889e-05,5.584129e-05,0.011401036,0.0,0.0,0.15598673,0.0,0.0,3.275964e-11,0.0,nan,nan,nan,nan,nan,nan,0.0,9.9757504e-05,0.0,0.0,nan,0.0,0.15598673,0.004023671,0.0,0.0,0.0,0.0,0.0,0.0,0.0,0.0
180504861,0.00019414404,3.225659e-05,2.8085515e-05,2.8927234e-05,0.01138205,0.0,0.0,0.15534705,0.0,0.0,3.27597e-11,0.0,nan,nan,nan,nan,nan,nan,0.0,1.2361644e-05,0.0,0.0,nan,0.0,0.15534705,0.0026874496,0.0,0.0,0.0,0.0,0.0,0.0,0.0,0.0
180904848,0.00016226554,3.2250824e-05,0.0003896434,4.376472e-05,0.011345933,0.0,0.0,0.15410493,0.0,0.0,3.2759826e-11,0.0,nan,nan,nan,nan,nan,nan,0.0,3.753026e-05,0.0,0.0,nan,0.0,0.15410493,0.00095376413,0.0,0.0,0.0,0.0,0.0,0.0,0.0,0.0
181904848,0.00015287158,3.2238673e-05,1.707942e-05,9.3735536e-05,0.011374889,0.0,0.0,0.15499566,0.0,0.0,3.276015e-11,0.0,nan,nan,nan,nan,nan,nan,0.0,6.735515e-05,0.0,0.0,nan,0.0,0.15499566,0.01924272,0.0,0.0,0.0,0.0,0.0,0.0,0.0,0.0
182104857,0.00053870433,3.2235777e-05,3.5802543e-07,0.00016563873,0.011358366,0.0,0.0,0.1544058,0.0,0.0,3.2760194e-11,0.0,nan,nan,nan,nan,nan,nan,0.0,5.946664e-09,0.0,0.0,nan,0.0,0.1544058,0.00018988739,0.0,0.0,0.0,0.0,0.0,0.0,0.0,0.0
182304870,0.0006717564,3.223239e-05,5.722428e-05,6.5467924e-05,0.011341805,0.0,0.0,0.15382095,0.0,0.0,3.2760242e-11,0.0,nan,nan,nan,nan,nan,nan,0.0,1.7231716e-05,0.0,0.0,nan,0.0,0.15382095,0.0015284359,0.0,0.0,0.0,0.0,0.0,0.0,0.0,0.0
182504906,0.00045316917,3.2230095e-05,0.0001168202,6.894477e-05,0.011382182,0.0,0.0,0.15516251,0.0,0.0,3.2760288e-11,0.0,nan,nan,nan,nan,nan,nan,0.0,7.212216e-06,0.0,0.0,nan,0.0,0.15516251,0.0023479916,0.0,0.0,0.0,0.0,0.0,0.0,0.0,0.0
182704848,6.873191e-05,3.2227523e-05,0.00025708697,9.9612815e-05,0.01136405,0.0,0.0,0.15455471,0.0,0.0,3.276034e-11,0.0,nan,nan,nan,nan,nan,nan,0.0,8.585556e-05,0.0,0.0,nan,0.0,0.15455471,0.0029197861,0.0,0.0,0.0,0.0,0.0,0.0,0.0,0.0
182904852,0.00028062199,3.222419e-05,1.2684103e-05,5.502445e-05,0.011346098,0.0,0.0,0.15395299,0.0,0.0,3.2760388e-11,0.0,nan,nan,nan,nan,nan,nan,0.0,0.0001977372,0.0,0.0,nan,0.0,0.15395299,7.0539863e-06,0.0,0.0,0.0,0.0,0.0,0.0,0.0,0.0
183104848,8.449715e-05,3.2222146e-05,0.00031331307,4.2015457e-05,0.011387232,0.0,0.0,0.15530822,0.0,0.0,3.2760437e-11,0.0,nan,nan,nan,nan,nan,nan,0.0,1.526285e-05,0.0,0.0,nan,0.0,0.15530822,4.654782e-05,0.0,0.0,0.0,0.0,0.0,0.0,0.0,0.0
183304845,6.445631e-05,3.2220338e-05,3.6457317e-05,2.8753257e-05,0.011367214,0.0,0.0,0.15471008,0.0,0.0,3.276049e-11,0.0,nan,nan,nan,nan,nan,nan,0.0,0.00030639346,0.0,0.0,nan,0.0,0.15471008,1.3062553e-06,0.0,0.0,0.0,0.0,0.0,0.0,0.0,0.0
183504873,0.0006301179,3.2218e-05,3.6319812e-05,2.0196037e-05,0.011346985,0.0,0.0,0.15411067,0.0,0.0,3.276054e-11,0.0,nan,nan,nan,nan,nan,nan,0.0,1.9000801e-05,0.0,0.0,nan,0.0,0.15411067,0.0020142316,0.0,0.0,0.0,0.0,0.0,0.0,0.0,0.0
183704881,0.0017761822,3.2215015e-05,0.00013563581,9.78318e-06,0.0113275135,0.0,0.0,0.15352295,0.0,0.0,3.276059e-11,0.0,nan,nan,nan,nan,nan,nan,0.0,2.7017464e-05,0.0,0.0,nan,0.0,0.15352295,0.0009238372,0.0,0.0,0.0,0.0,0.0,0.0,0.0,0.0
183904894,0.0015872219,3.221313e-05,0.0008475474,5.35847e-05,0.011365394,0.0,0.0,0.15486035,0.0,0.0,3.2760638e-11,0.0,nan,nan,nan,nan,nan,nan,0.0,1.1764295e-05,0.0,0.0,nan,0.0,0.15486035,0.0019140651,0.0,0.0,0.0,0.0,0.0,0.0,0.0,0.0
184104886,0.00021598597,3.2211472e-05,3.5525954e-05,2.0267635e-05,0.011344786,0.0,0.0,0.15421566,0.0,0.0,3.276067e-11,0.0,nan,nan,nan,nan,nan,nan,0.0,6.550628e-06,0.0,0.0,nan,0.0,0.15421566,0.0031266361,0.0,0.0,0.0,0.0,0.0,0.0,0.0,0.0
184304848,2.879425e-06,3.2208147e-05,0.00034428097,6.0835813e-05,0.011384262,0.0,0.0,0.15554303,0.0,0.0,3.276069e-11,0.0,nan,nan,nan,nan,nan,nan,0.0,6.10165e-06,0.0,0.0,nan,0.0,0.15554303,0.0028746505,0.0,0.0,0.0,0.0,0.0,0.0,0.0,0.0
184504852,0.00104022,3.2214117e-05,0.0001763775,5.9117414e-05,0.011364773,0.0,0.0,0.15490563,0.0,0.0,3.276071e-11,0.0,nan,nan,nan,nan,nan,nan,0.0,4.9151142e-05,0.0,0.0,nan,0.0,0.15490563,9.384212e-05,0.0,0.0,0.0,0.0,0.0,0.0,0.0,0.0
184704876,0.00032998994,3.2214673e-05,0.00012463501,8.551622e-05,0.0113432575,0.0,0.0,0.15427671,0.0,0.0,3.2760752e-11,0.0,nan,nan,nan,nan,nan,nan,0.0,7.1395766e-06,0.0,0.0,nan,0.0,0.15427671,0.00043889866,0.0,0.0,0.0,0.0,0.0,0.0,0.0,0.0
184904848,3.5980276e-05,3.222446e-05,0.00018713209,9.045904e-05,0.011383727,0.0,0.0,0.15561317,0.0,0.0,3.2760752e-11,0.0,nan,nan,nan,nan,nan,nan,0.0,2.7055856e-05,0.0,0.0,nan,0.0,0.15561317,0.006174576,0.0,0.0,0.0,0.0,0.0,0.0,0.0,0.0
185104858,9.750026e-05,3.224051e-05,0.00034789258,9.0499656e-05,0.011363047,0.0,0.0,0.15498988,0.0,0.0,3.2760777e-11,0.0,nan,nan,nan,nan,nan,nan,0.0,5.773905e-06,0.0,0.0,nan,0.0,0.15498988,6.561332e-05,0.0,0.0,0.0,0.0,0.0,0.0,0.0,0.0
