timestamp,timestamp_sample,device_id,error_count,pressure,temperature
129096551,129096540,3997730,0,1010.50995,43.51
130103484,130103473,3997730,0,1010.5,43.52
131109812,131109801,3997730,0,1010.50995,43.53
132106465,132106455,3997730,0,1010.49,43.53
133103083,133103072,3997730,0,1010.48,43.53
134109411,134109400,3997730,0,1010.5,43.54
135095949,135095938,3997730,0,1010.50995,43.55
136102255,136102244,3997730,0,1010.50995,43.55
137109057,137109046,3997730,0,1010.48,43.55
138105676,138105665,3997730,0,1010.50995,43.559998
139101847,139101836,3997730,0,1010.48,43.57
140108536,140108525,3997730,0,1010.56,43.579998
141094724,141094713,3997730,0,1010.47,43.579998
142101461,142101451,3997730,0,1010.47,43.59
145110910,145110899,3997730,0,1010.50995,43.61
146106836,146106825,3997730,0,1010.52997,43.61
147093436,147093425,3997730,0,1010.50995,43.62
148099586,148099575,3997730,0,1010.56,43.62
149106566,149106552,3997730,0,1010.50995,43.62
150103253,150103242,3997730,0,1010.51996,43.629997
151109487,151109477,3997730,0,1010.50995,43.64
152106055,152106044,3997730,0,1010.54,43.649998
153092071,153092060,3997730,0,1010.50995,43.649998
154098878,154098865,3997730,0,1010.50995,43.649998
155105948,155105937,3997730,0,1010.56,43.67
156102933,156102922,3997730,0,1010.55,43.67
157109154,157109139,3997730,0,1010.47,43.68
158105854,158105839,3997730,0,1010.54,43.69
159091906,159091895,3997730,0,1010.45996,43.69
160098883,160098866,3997730,0,1010.5,43.7
161105484,161105473,3997730,0,1010.45996,43.7
163108271,163108260,3997730,0,1010.50995,43.719997
164104535,164104524,3997730,0,1010.48,43.719997
165111148,165111137,3997730,0,1010.54,43.73
166097349,166097338,3997730,0,1010.51996,43.73
167104170,167104160,3997730,0,1010.5,43.739998
168111103,168111090,3997730,0,1010.50995,43.75
170103954,170103944,3997730,0,1010.5,43.76
171110693,171110679,3997730,0,1010.51996,43.77
172096693,172096682,3997730,0,1010.51996,43.78
173103193,173103182,3997730,0,1010.51996,43.78
174109451,174109440,3997730,0,1010.49,43.79
175106067,175106056,3997730,0,1010.54,43.8
177108975,177108964,3997730,0,1010.5,43.809998
178095726,178095715,3997730,0,1010.54,43.82
179101878,179101867,3997730,0,1010.50995,43.82
180108717,180108706,3997730,0,1010.52997,43.829998
182101899,182101889,3997730,0,1010.56,43.85
183108763,183108752,3997730,0,1010.49,43.86
184094714,184094703,3997730,0,1010.50995,43.86
185101559,185101548,3997730,0,1010.54,43.87
186108238,186108227,3997730,0,1010.48,43.879997
187104563,187104548,3997730,0,1010.54,43.89
188111339,188111328,3997730,0,1010.50995,43.89
189107871,189107860,3997730,0,1010.5,43.899998
190094032,190094021,3997730,0,1010.52997,43.91
191100784,191100770,3997730,0,1010.50995,43.92
192106977,192106966,3997730,0,1010.49,43.92
194109839,194109828,3997730,0,1010.51996,43.93
195106395,195106384,3997730,0,1010.57996,43.94
196092977,196092966,3997730,0,1010.5,43.95
197099510,197099499,3997730,0,1010.43,43.96
198106263,198106252,3997730,0,1010.47,43.969997
199103074,199103063,3997730,0,1010.51996,43.969997
200109343,200109332,3997730,0,1010.52997,43.98
201105834,201105821,3997730,0,1010.48,43.989998
202273311,202273225,3997730,0,1010.42,44.0
204104799,204104788,3997730,0,1009.79,44.01
205111463,205111452,3997730,0,1009.63,44.02
206108148,206108137,3997730,0,1009.25995,44.03
207104162,207104151,3997730,0,1008.58997,44.04
209097257,209097246,3997730,0,1007.38995,44.05
210103966,210103955,3997730,0,1006.75,44.059998
211110715,211110704,3997730,0,1006.45996,44.07
212106948,212106937,3997730,0,1006.13995,44.079998
213103724,213103713,3997730,0,1005.82996,44.079998
214109856,214109845,3997730,0,1005.26996,44.09
216102997,216102986,3997730,0,1003.68,44.1
217109145,217109134,3997730,0,1003.13995,44.11
218105668,218105657,3997730,0,1002.66,44.12
219101772,219101761,3997730,0,1002.16,44.12
221095713,221095702,3997730,0,1000.61,44.14
222101950,222101939,3997730,0,999.88,44.149998
223108859,223108848,3997730,0,999.52997,44.149998
224104787,224104763,3997730,0,999.37,44.16
226108233,226108222,3997730,0,998.1,44.18
227094616,227094605,3997730,0,997.32,44.18
228101436,228101423,3997730,0,996.74,44.19
229108122,229108111,3997730,0,996.14996,44.2
230104274,230104263,3997730,0,995.62,44.2
231110944,231110933,3997730,0,995.14996,44.21
234100721,234100710,3997730,0,993.69995,44.23
235106765,235106754,3997730,0,993.31,44.239998
237109760,237109746,3997730,0,992.94995,44.239998
238106289,238106278,3997730,0,993.00995,44.25
239093140,239093129,3997730,0,992.87,44.26
240099388,240099377,3997730,0,992.82996,44.27
241106119,241106108,3997730,0,992.75,44.28
242103054,242103043,3997730,0,992.66,44.29
243109418,243109407,3997730,0,993.1,44.29
244106157,244106143,3997730,0,993.19995,44.3
245093176,245093165,3997730,0,993.39996,44.3
246099394,246099383,3997730,0,993.64996,44.309998
249108752,249108741,3997730,0,995.05,44.329998
250105606,250105595,3997730,0,995.26996,44.329998
251111632,251111621,3997730,0,995.54,44.34
252098351,252098340,3997730,0,995.61,44.35
253104531,253104520,3997730,0,995.56,44.35
254111660,254111649,3997730,0,995.43,44.36
255108354,255108343,3997730,0,995.52997,44.36
256104673,256104663,3997730,0,995.56,44.37
257111469,257111458,3997730,0,995.92,44.37
258098296,258098285,3997730,0,996.24,44.379997
259104554,259104543,3997730,0,996.31,44.39
260111317,260111307,3997730,0,996.01996,44.39
261108016,261108005,3997730,0,995.75995,44.399998
264096950,264096939,3997730,0,994.37,44.41
265103664,265103653,3997730,0,994.25995,44.42
266110765,266110752,3997730,0,994.3,44.42
267107002,267106991,3997730,0,994.56,44.43
268103739,268103728,3997730,0,995.07996,44.44
269109808,269109797,3997730,0,995.66,44.44
270096584,270096573,3997730,0,996.00995,44.44
271103420,271103409,3997730,0,996.27997,44.45
272109692,272109681,3997730,0,996.66,44.45
274102241,274102230,3997730,0,997.41,44.46
275109247,275109236,3997730,0,997.69995,44.469997
276096076,276096065,3997730,0,997.72,44.48
277102392,277102375,3997730,0,997.70996,44.469997
278109038,278109028,3997730,0,997.43,44.489998
279105806,279105795,3997730,0,997.1,44.489998
280102221,280102210,3997730,0,996.88995,44.489998
281109398,281109387,3997730,0,996.69,44.5
283103239,283103228,3997730,0,997.05,44.51
284109284,284109273,3997730,0,996.99,44.51
285106110,285106097,3997730,0,997.0,44.51
286102154,286102143,3997730,0,997.19,44.51
287109001,287108991,3997730,0,997.57,44.52
288095633,288095622,3997730,0,997.8,44.53
289101547,289101536,3997730,0,997.88995,44.53
290108350,290108339,3997730,0,997.86,44.53
291104635,291104621,3997730,0,997.91,44.539997
294094246,294094235,3997730,0,998.11,44.55
295100819,295100808,3997730,0,998.41,44.559998
296106956,296106945,3997730,0,998.76996,44.55
297103867,297103856,3997730,0,999.25,44.559998
298110999,298110987,3997730,0,999.68,44.57
299107146,299107135,3997730,0,1000.06,44.57
300093676,300093665,3997730,0,1000.48,44.57
301099874,301099864,3997730,0,1000.79,44.57
304110504,304110493,3997730,0,1001.50995,44.579998
305106654,305106643,3997730,0,1001.6,44.59
306093330,306093316,3997730,0,1001.3,44.59
307099436,307099425,3997730,0,1001.55,44.6
310109072,310109062,3997730,0,1000.39996,44.61
311105765,311105754,3997730,0,999.94995,44.61
312092215,312092204,3997730,0,999.6,44.61
313099273,313099262,3997730,0,999.0,44.61
314106047,314106036,3997730,0,998.72,44.62
315102254,315102244,3997730,0,998.25,44.62
316109006,316108995,3997730,0,997.88,44.62
317105780,317105769,3997730,0,997.64996,44.62
318092986,318092975,3997730,0,997.38,44.629997
319099359,319099348,3997730,0,997.27997,44.629997
320106227,320106216,3997730,0,997.39996,44.629997
321102190,321102180,3997730,0,997.64996,44.629997
322108955,322108944,3997730,0,998.1,44.629997
323105591,323105580,3997730,0,998.66,44.64
324112044,324112033,3997730,0,999.22,44.64
327111505,327111494,3997730,0,1000.49,44.64
328108385,328108372,3997730,0,1000.93,44.649998
329104901,329104887,3997730,0,1001.39996,44.649998
330111789,330111778,3997730,0,1001.79,44.649998
331098663,331098652,3997730,0,1002.11,44.649998
332104599,332104588,3997730,0,1002.64996,44.66
333111402,333111391,3997730,0,1003.32996,44.66
334108009,334107996,3997730,0,1003.87,44.67
335104502,335104491,3997730,0,1004.23,44.67
336111272,336111261,3997730,0,1004.67,44.66
337097888,337097877,3997730,0,1005.00995,44.67
338104025,338104014,3997730,0,1005.38995,44.67
339110709,339110698,3997730,0,1005.69995,44.67
340107201,340107188,3997730,0,1006.06,44.68
341104105,341104090,3997730,0,1006.26996,44.68
342111066,342111056,3997730,0,1006.68,44.68
343097142,343097131,3997730,0,1007.07996,44.68
344103890,344103879,3997730,0,1007.36,44.69
345110528,345110517,3997730,0,1007.61,44.69
347103475,347103464,3997730,0,1008.22,44.69
348109699,348109688,3997730,0,1008.52997,44.69
349096590,349096579,3997730,0,1008.75995,44.7
350103511,350103500,3997730,0,1009.23,44.7
351110446,351110435,3997730,0,1009.5,44.7
352106959,352106946,3997730,0,1009.64996,44.7
354110430,354110420,3997730,0,1009.77997,44.7
355096999,355096988,3997730,0,1010.07996,44.7
357110647,357110636,3997730,0,1010.1,44.71
358106795,358106777,3997730,0,1010.1,44.71
359103524,359103513,3997730,0,1010.32,44.71
360110375,360110365,3997730,0,1010.35,44.719997
361096745,361096734,3997730,0,1010.39996,44.71
362103539,362103525,3997730,0,1010.44,44.719997
364106342,364106331,3997730,0,1010.41,44.73
365103073,365103060,3997730,0,1010.50995,44.719997
