timestamp,noutputs,output[0],output[1],output[2],output[3],output[4],output[5],output[6],output[7],output[8],output[9],output[10],output[11],output[12],output[13],output[14],output[15]
128173294,8,1527.0,1527.0,1533.0,1532.0,1000.0,1532.0,1525.0,1520.0,0.0,0.0,0.0,0.0,0.0,0.0,0.0,0.0
128193635,8,1527.0,1527.0,1533.0,1532.0,1000.0,1533.0,1525.0,1520.0,0.0,0.0,0.0,0.0,0.0,0.0,0.0,0.0
128213627,8,1527.0,1527.0,1532.0,1533.0,1000.0,1533.0,1525.0,1520.0,0.0,0.0,0.0,0.0,0.0,0.0,0.0,0.0
128239753,8,1527.0,1527.0,1532.0,1533.0,1000.0,1532.0,1525.0,1520.0,0.0,0.0,0.0,0.0,0.0,0.0,0.0,0.0
128263422,8,1527.0,1527.0,1533.0,1532.0,1000.0,1532.0,1525.0,1520.0,0.0,0.0,0.0,0.0,0.0,0.0,0.0,0.0
128283668,8,1527.0,1527.0,1532.0,1532.0,1000.0,1532.0,1525.0,1520.0,0.0,0.0,0.0,0.0,0.0,0.0,0.0,0.0
128309185,8,1527.0,1527.0,1533.0,1532.0,1000.0,1532.0,1525.0,1520.0,0.0,0.0,0.0,0.0,0.0,0.0,0.0,0.0
128331109,8,1527.0,1527.0,1532.0,1532.0,1000.0,1532.0,1525.0,1520.0,0.0,0.0,0.0,0.0,0.0,0.0,0.0,0.0
128353711,8,1527.0,1527.0,1532.0,1532.0,1000.0,1532.0,1525.0,1520.0,0.0,0.0,0.0,0.0,0.0,0.0,0.0,0.0
128373437,8,1527.0,1527.0,1532.0,1532.0,1000.0,1532.0,1525.0,1520.0,0.0,0.0,0.0,0.0,0.0,0.0,0.0,0.0
128399399,8,1527.0,1527.0,1532.0,1532.0,1000.0,1532.0,1525.0,1520.0,0.0,0.0,0.0,0.0,0.0,0.0,0.0,0.0
128423472,8,1527.0,1527.0,1532.0,1533.0,1000.0,1533.0,1525.0,1520.0,0.0,0.0,0.0,0.0,0.0,0.0,0.0,0.0
128449255,8,1528.0,1528.0,1533.0,1533.0,1000.0,1533.0,1525.0,1520.0,0.0,0.0,0.0,0.0,0.0,0.0,0.0,0.0
128469194,8,1528.0,1528.0,1533.0,1533.0,1000.0,1533.0,1525.0,1520.0,0.0,0.0,0.0,0.0,0.0,0.0,0.0,0.0
128493474,8,1528.0,1528.0,1533.0,1532.0,1000.0,1533.0,1525.0,1520.0,0.0,0.0,0.0,0.0,0.0,0.0,0.0,0.0
128519579,8,1528.0,1528.0,1533.0,1531.0,1000.0,1532.0,1525.0,1520.0,0.0,0.0,0.0,0.0,0.0,0.0,0.0,0.0
128543057,8,1528.0,1528.0,1534.0,1531.0,1000.0,1532.0,1525.0,1520.0,0.0,0.0,0.0,0.0,0.0,0.0,0.0,0.0
128563287,8,1528.0,1528.0,1534.0,1531.0,1000.0,1532.0,1525.0,1520.0,0.0,0.0,0.0,0.0,0.0,0.0,0.0,0.0
128583752,8,1528.0,1528.0,1534.0,1531.0,1000.0,1532.0,1525.0,1520.0,0.0,0.0,0.0,0.0,0.0,0.0,0.0,0.0
128608858,8,1528.0,1528.0,1533.0,1531.0,1000.0,1532.0,1525.0,1520.0,0.0,0.0,0.0,0.0,0.0,0.0,0.0,0.0
128633766,8,1528.0,1528.0,1532.0,1532.0,1000.0,1532.0,1525.0,1520.0,0.0,0.0,0.0,0.0,0.0,0.0,0.0,0.0
128659683,8,1528.0,1528.0,1532.0,1532.0,1000.0,1532.0,1525.0,1520.0,0.0,0.0,0.0,0.0,0.0,0.0,0.0,0.0
128679737,8,1527.0,1527.0,1531.0,1532.0,1000.0,1532.0,1525.0,1520.0,0.0,0.0,0.0,0.0,0.0,0.0,0.0,0.0
128703596,8,1528.0,1528.0,1532.0,1532.0,1000.0,1532.0,1525.0,1520.0,0.0,0.0,0.0,0.0,0.0,0.0,0.0,0.0
128730904,8,1527.0,1527.0,1533.0,1532.0,1000.0,1532.0,1525.0,1520.0,0.0,0.0,0.0,0.0,0.0,0.0,0.0,0.0
128753187,8,1527.0,1527.0,1533.0,1532.0,1000.0,1533.0,1525.0,1520.0,0.0,0.0,0.0,0.0,0.0,0.0,0.0,0.0
128779486,8,1527.0,1527.0,1534.0,1532.0,1000.0,1533.0,1525.0,1520.0,0.0,0.0,0.0,0.0,0.0,0.0,0.0,0.0
128803419,8,1527.0,1527.0,1533.0,1533.0,1000.0,1533.0,1525.0,1520.0,0.0,0.0,0.0,0.0,0.0,0.0,0.0,0.0
128823487,8,1527.0,1527.0,1533.0,1533.0,1000.0,1533.0,1525.0,1520.0,0.0,0.0,0.0,0.0,0.0,0.0,0.0,0.0
128848947,8,1527.0,1527.0,1533.0,1532.0,1000.0,1532.0,1525.0,1520.0,0.0,0.0,0.0,0.0,0.0,0.0,0.0,0.0
128878075,8,1527.0,1527.0,1533.0,1532.0,1000.0,1532.0,1525.0,1520.0,0.0,0.0,0.0,0.0,0.0,0.0,0.0,0.0
128889155,8,1527.0,1527.0,1533.0,1531.0,1000.0,1532.0,1525.0,1520.0,0.0,0.0,0.0,0.0,0.0,0.0,0.0,0.0
128913564,8,1527.0,1527.0,1533.0,1532.0,1000.0,1532.0,1525.0,1520.0,0.0,0.0,0.0,0.0,0.0,0.0,0.0,0.0
128939653,8,1527.0,1527.0,1532.0,1533.0,1000.0,1532.0,1525.0,1520.0,0.0,0.0,0.0,0.0,0.0,0.0,0.0,0.0
128963396,8,1527.0,1527.0,1532.0,1533.0,1000.0,1532.0,1525.0,1520.0,0.0,0.0,0.0,0.0,0.0,0.0,0.0,0.0
128983509,8,1527.0,1527.0,1532.0,1533.0,1000.0,1532.0,1525.0,1520.0,0.0,0.0,0.0,0.0,0.0,0.0,0.0,0.0
129009341,8,1527.0,1527.0,1532.0,1533.0,1000.0,1533.0,1525.0,1520.0,0.0,0.0,0.0,0.0,0.0,0.0,0.0,0.0
129033561,8,1528.0,1528.0,1533.0,1532.0,1000.0,1532.0,1525.0,1520.0,0.0,0.0,0.0,0.0,0.0,0.0,0.0,0.0
129059450,8,1528.0,1528.0,1533.0,1532.0,1000.0,1532.0,1525.0,1520.0,0.0,0.0,0.0,0.0,0.0,0.0,0.0,0.0
129083490,8,1528.0,1528.0,1532.0,1533.0,1000.0,1533.0,1525.0,1520.0,0.0,0.0,0.0,0.0,0.0,0.0,0.0,0.0
129103455,8,1528.0,1528.0,1532.0,1533.0,1000.0,1533.0,1525.0,1520.0,0.0,0.0,0.0,0.0,0.0,0.0,0.0,0.0
129149065,8,1528.0,1528.0,1533.0,1533.0,1000.0,1533.0,1525.0,1520.0,0.0,0.0,0.0,0.0,0.0,0.0,0.0,0.0
129169040,8,1528.0,1528.0,1532.0,1533.0,1000.0,1532.0,1525.0,1520.0,0.0,0.0,0.0,0.0,0.0,0.0,0.0,0.0
129193168,8,1528.0,1528.0,1533.0,1532.0,1000.0,1532.0,1525.0,1520.0,0.0,0.0,0.0,0.0,0.0,0.0,0.0,0.0
129219476,8,1528.0,1528.0,1532.0,1532.0,1000.0,1532.0,1525.0,1520.0,0.0,0.0,0.0,0.0,0.0,0.0,0.0,0.0
129239482,8,1528.0,1528.0,1532.0,1532.0,1000.0,1532.0,1525.0,1520.0,0.0,0.0,0.0,0.0,0.0,0.0,0.0,0.0
129263089,8,1528.0,1528.0,1532.0,1532.0,1000.0,1532.0,1525.0,1520.0,0.0,0.0,0.0,0.0,0.0,0.0,0.0,0.0
129283107,8,1528.0,1528.0,1532.0,1532.0,1000.0,1532.0,1525.0,1520.0,0.0,0.0,0.0,0.0,0.0,0.0,0.0,0.0
129303355,8,1528.0,1528.0,1532.0,1532.0,1000.0,1532.0,1525.0,1520.0,0.0,0.0,0.0,0.0,0.0,0.0,0.0,0.0
129330117,8,1527.0,1527.0,1533.0,1532.0,1000.0,1532.0,1525.0,1520.0,0.0,0.0,0.0,0.0,0.0,0.0,0.0,0.0
129353538,8,1527.0,1527.0,1533.0,1532.0,1000.0,1533.0,1525.0,1520.0,0.0,0.0,0.0,0.0,0.0,0.0,0.0,0.0
129373175,8,1527.0,1527.0,1533.0,1532.0,1000.0,1533.0,1525.0,1520.0,0.0,0.0,0.0,0.0,0.0,0.0,0.0,0.0
129393437,8,1527.0,1527.0,1533.0,1532.0,1000.0,1532.0,1525.0,1520.0,0.0,0.0,0.0,0.0,0.0,0.0,0.0,0.0
129419566,8,1527.0,1527.0,1532.0,1532.0,1000.0,1532.0,1525.0,1520.0,0.0,0.0,0.0,0.0,0.0,0.0,0.0,0.0
129439582,8,1527.0,1527.0,1532.0,1532.0,1000.0,1532.0,1525.0,1520.0,0.0,0.0,0.0,0.0,0.0,0.0,0.0,0.0
129459610,8,1527.0,1527.0,1532.0,1532.0,1000.0,1532.0,1525.0,1520.0,0.0,0.0,0.0,0.0,0.0,0.0,0.0,0.0
129479757,8,1527.0,1527.0,1532.0,1532.0,1000.0,1532.0,1525.0,1520.0,0.0,0.0,0.0,0.0,0.0,0.0,0.0,0.0
129503453,8,1527.0,1527.0,1533.0,1532.0,1000.0,1532.0,1525.0,1520.0,0.0,0.0,0.0,0.0,0.0,0.0,0.0,0.0
129531252,8,1527.0,1527.0,1532.0,1532.0,1000.0,1532.0,1525.0,1520.0,0.0,0.0,0.0,0.0,0.0,0.0,0.0,0.0
129553315,8,1527.0,1527.0,1532.0,1532.0,1000.0,1532.0,1525.0,1520.0,0.0,0.0,0.0,0.0,0.0,0.0,0.0,0.0
129579206,8,1527.0,1527.0,1532.0,1532.0,1000.0,1532.0,1525.0,1520.0,0.0,0.0,0.0,0.0,0.0,0.0,0.0,0.0
129599587,8,1527.0,1527.0,1532.0,1532.0,1000.0,1532.0,1525.0,1520.0,0.0,0.0,0.0,0.0,0.0,0.0,0.0,0.0
129623435,8,1527.0,1527.0,1532.0,1532.0,1000.0,1532.0,1525.0,1520.0,0.0,0.0,0.0,0.0,0.0,0.0,0.0,0.0
129643089,8,1527.0,1527.0,1532.0,1532.0,1000.0,1532.0,1525.0,1520.0,0.0,0.0,0.0,0.0,0.0,0.0,0.0,0.0
129663530,8,1528.0,1528.0,1532.0,1532.0,1000.0,1532.0,1525.0,1520.0,0.0,0.0,0.0,0.0,0.0,0.0,0.0,0.0
129689229,8,1527.0,1527.0,1533.0,1532.0,1000.0,1532.0,1525.0,1520.0,0.0,0.0,0.0,0.0,0.0,0.0,0.0,0.0
129709294,8,1528.0,1528.0,1532.0,1532.0,1000.0,1532.0,1525.0,1520.0,0.0,0.0,0.0,0.0,0.0,0.0,0.0,0.0
129730868,8,1528.0,1528.0,1532.0,1533.0,1000.0,1533.0,1525.0,1520.0,0.0,0.0,0.0,0.0,0.0,0.0,0.0,0.0
129753408,8,1528.0,1528.0,1532.0,1533.0,1000.0,1533.0,1525.0,1520.0,0.0,0.0,0.0,0.0,0.0,0.0,0.0,0.0
129773440,8,1528.0,1528.0,1532.0,1532.0,1000.0,1532.0,1525.0,1520.0,0.0,0.0,0.0,0.0,0.0,0.0,0.0,0.0
129799195,8,1528.0,1528.0,1533.0,1532.0,1000.0,1532.0,1525.0,1520.0,0.0,0.0,0.0,0.0,0.0,0.0,0.0,0.0
129823454,8,1528.0,1528.0,1532.0,1532.0,1000.0,1532.0,1525.0,1520.0,0.0,0.0,0.0,0.0,0.0,0.0,0.0,0.0
129843463,8,1528.0,1528.0,1532.0,1533.0,1000.0,1532.0,1525.0,1520.0,0.0,0.0,0.0,0.0,0.0,0.0,0.0,0.0
129869404,8,1528.0,1528.0,1532.0,1533.0,1000.0,1532.0,1525.0,1520.0,0.0,0.0,0.0,0.0,0.0,0.0,0.0,0.0
129902534,8,1528.0,1528.0,1532.0,1532.0,1000.0,1532.0,1525.0,1520.0,0.0,0.0,0.0,0.0,0.0,0.0,0.0,0.0
129913437,8,1528.0,1528.0,1532.0,1532.0,1000.0,1532.0,1525.0,1520.0,0.0,0.0,0.0,0.0,0.0,0.0,0.0,0.0
129939366,8,1528.0,1528.0,1532.0,1532.0,1000.0,1532.0,1525.0,1520.0,0.0,0.0,0.0,0.0,0.0,0.0,0.0,0.0
129959291,8,1528.0,1528.0,1532.0,1532.0,1000.0,1532.0,1525.0,1520.0,0.0,0.0,0.0,0.0,0.0,0.0,0.0,0.0
129979419,8,1528.0,1528.0,1532.0,1533.0,1000.0,1532.0,1525.0,1520.0,0.0,0.0,0.0,0.0,0.0,0.0,0.0,0.0
130003110,8,1527.0,1527.0,1532.0,1533.0,1000.0,1532.0,1525.0,1520.0,0.0,0.0,0.0,0.0,0.0,0.0,0.0,0.0
130023171,8,1527.0,1527.0,1532.0,1533.0,1000.0,1532.0,1525.0,1520.0,0.0,0.0,0.0,0.0,0.0,0.0,0.0,0.0
130043421,8,1527.0,1527.0,1532.0,1532.0,1000.0,1532.0,1525.0,1520.0,0.0,0.0,0.0,0.0,0.0,0.0,0.0,0.0
130068891,8,1527.0,1527.0,1532.0,1532.0,1000.0,1532.0,1525.0,1520.0,0.0,0.0,0.0,0.0,0.0,0.0,0.0,0.0
130093033,8,1527.0,1527.0,1532.0,1532.0,1000.0,1532.0,1525.0,1520.0,0.0,0.0,0.0,0.0,0.0,0.0,0.0,0.0
130113055,8,1527.0,1527.0,1532.0,1532.0,1000.0,1532.0,1525.0,1520.0,0.0,0.0,0.0,0.0,0.0,0.0,0.0,0.0
130133413,8,1527.0,1527.0,1532.0,1532.0,1000.0,1532.0,1525.0,1520.0,0.0,0.0,0.0,0.0,0.0,0.0,0.0,0.0
130159321,8,1527.0,1527.0,1532.0,1532.0,1000.0,1532.0,1525.0,1520.0,0.0,0.0,0.0,0.0,0.0,0.0,0.0,0.0
130179440,8,1527.0,1527.0,1532.0,1532.0,1000.0,1532.0,1525.0,1520.0,0.0,0.0,0.0,0.0,0.0,0.0,0.0,0.0
130203529,8,1527.0,1527.0,1532.0,1532.0,1000.0,1532.0,1525.0,1520.0,0.0,0.0,0.0,0.0,0.0,0.0,0.0,0.0
130228882,8,1527.0,1527.0,1533.0,1532.0,1000.0,1532.0,1525.0,1520.0,0.0,0.0,0.0,0.0,0.0,0.0,0.0,0.0
130249066,8,1527.0,1527.0,1533.0,1532.0,1000.0,1532.0,1525.0,1520.0,0.0,0.0,0.0,0.0,0.0,0.0,0.0,0.0
130273421,8,1527.0,1527.0,1532.0,1532.0,1000.0,1532.0,1525.0,1520.0,0.0,0.0,0.0,0.0,0.0,0.0,0.0,0.0
130299586,8,1527.0,1527.0,1532.0,1532.0,1000.0,1532.0,1525.0,1520.0,0.0,0.0,0.0,0.0,0.0,0.0,0.0,0.0
130323054,8,1527.0,1527.0,1532.0,1532.0,1000.0,1532.0,1525.0,1520.0,0.0,0.0,0.0,0.0,0.0,0.0,0.0,0.0
130343367,8,1528.0,1528.0,1532.0,1532.0,1000.0,1532.0,1525.0,1520.0,0.0,0.0,0.0,0.0,0.0,0.0,0.0,0.0
130369079,8,1528.0,1528.0,1532.0,1532.0,1000.0,1532.0,1525.0,1520.0,0.0,0.0,0.0,0.0,0.0,0.0,0.0,0.0
130393325,8,1528.0,1528.0,1532.0,1532.0,1000.0,1532.0,1525.0,1520.0,0.0,0.0,0.0,0.0,0.0,0.0,0.0,0.0
130419225,8,1528.0,1528.0,1532.0,1532.0,1000.0,1532.0,1525.0,1520.0,0.0,0.0,0.0,0.0,0.0,0.0,0.0,0.0
130439510,8,1528.0,1528.0,1533.0,1532.0,1000.0,1532.0,1525.0,1520.0,0.0,0.0,0.0,0.0,0.0,0.0,0.0,0.0
130463386,8,1528.0,1528.0,1532.0,1533.0,1000.0,1532.0,1525.0,1520.0,0.0,0.0,0.0,0.0,0.0,0.0,0.0,0.0
130483417,8,1528.0,1528.0,1532.0,1533.0,1000.0,1533.0,1525.0,1520.0,0.0,0.0,0.0,0.0,0.0,0.0,0.0,0.0
130503491,8,1528.0,1528.0,1532.0,1533.0,1000.0,1533.0,1525.0,1520.0,0.0,0.0,0.0,0.0,0.0,0.0,0.0,0.0
130530861,8,1528.0,1528.0,1532.0,1533.0,1000.0,1532.0,1525.0,1520.0,0.0,0.0,0.0,0.0,0.0,0.0,0.0,0.0
130553440,8,1528.0,1528.0,1532.0,1533.0,1000.0,1532.0,1525.0,1520.0,0.0,0.0,0.0,0.0,0.0,0.0,0.0,0.0
130573386,8,1528.0,1528.0,1532.0,1532.0,1000.0,1532.0,1525.0,1520.0,0.0,0.0,0.0,0.0,0.0,0.0,0.0,0.0
130593511,8,1528.0,1528.0,1532.0,1532.0,1000.0,1532.0,1525.0,1520.0,0.0,0.0,0.0,0.0,0.0,0.0,0.0,0.0
130619604,8,1527.0,1527.0,1532.0,1532.0,1000.0,1532.0,1525.0,1520.0,0.0,0.0,0.0,0.0,0.0,0.0,0.0,0.0
130643391,8,1527.0,1527.0,1532.0,1532.0,1000.0,1532.0,1525.0,1520.0,0.0,0.0,0.0,0.0,0.0,0.0,0.0,0.0
130669030,8,1527.0,1527.0,1532.0,1532.0,1000.0,1532.0,1525.0,1520.0,0.0,0.0,0.0,0.0,0.0,0.0,0.0,0.0
130693122,8,1527.0,1527.0,1533.0,1533.0,1000.0,1533.0,1525.0,1520.0,0.0,0.0,0.0,0.0,0.0,0.0,0.0,0.0
130720825,8,1527.0,1527.0,1532.0,1532.0,1000.0,1532.0,1525.0,1520.0,0.0,0.0,0.0,0.0,0.0,0.0,0.0,0.0
130743050,8,1527.0,1527.0,1532.0,1532.0,1000.0,1532.0,1525.0,1520.0,0.0,0.0,0.0,0.0,0.0,0.0,0.0,0.0
130763064,8,1527.0,1527.0,1532.0,1532.0,1000.0,1532.0,1525.0,1520.0,0.0,0.0,0.0,0.0,0.0,0.0,0.0,0.0
130788891,8,1527.0,1527.0,1532.0,1532.0,1000.0,1532.0,1525.0,1520.0,0.0,0.0,0.0,0.0,0.0,0.0,0.0,0.0
130808912,8,1527.0,1527.0,1532.0,1532.0,1000.0,1532.0,1525.0,1520.0,0.0,0.0,0.0,0.0,0.0,0.0,0.0,0.0
130829085,8,1527.0,1527.0,1532.0,1532.0,1000.0,1532.0,1525.0,1520.0,0.0,0.0,0.0,0.0,0.0,0.0,0.0,0.0
130849009,8,1527.0,1527.0,1532.0,1532.0,1000.0,1532.0,1525.0,1520.0,0.0,0.0,0.0,0.0,0.0,0.0,0.0,0.0
130869025,8,1527.0,1527.0,1532.0,1532.0,1000.0,1532.0,1525.0,1520.0,0.0,0.0,0.0,0.0,0.0,0.0,0.0,0.0
130889596,8,1527.0,1527.0,1532.0,1532.0,1000.0,1532.0,1525.0,1520.0,0.0,0.0,0.0,0.0,0.0,0.0,0.0,0.0
130923405,8,1527.0,1527.0,1532.0,1532.0,1000.0,1532.0,1525.0,1520.0,0.0,0.0,0.0,0.0,0.0,0.0,0.0,0.0
130933080,8,1527.0,1527.0,1532.0,1533.0,1000.0,1532.0,1525.0,1520.0,0.0,0.0,0.0,0.0,0.0,0.0,0.0,0.0
130953291,8,1527.0,1527.0,1532.0,1533.0,1000.0,1533.0,1525.0,1520.0,0.0,0.0,0.0,0.0,0.0,0.0,0.0,0.0
130979230,8,1527.0,1527.0,1532.0,1533.0,1000.0,1532.0,1525.0,1520.0,0.0,0.0,0.0,0.0,0.0,0.0,0.0,0.0
130999694,8,1528.0,1528.0,1533.0,1532.0,1000.0,1532.0,1525.0,1520.0,0.0,0.0,0.0,0.0,0.0,0.0,0.0,0.0
131023097,8,1528.0,1528.0,1532.0,1532.0,1000.0,1532.0,1525.0,1520.0,0.0,0.0,0.0,0.0,0.0,0.0,0.0,0.0
131043274,8,1528.0,1528.0,1532.0,1532.0,1000.0,1532.0,1525.0,1520.0,0.0,0.0,0.0,0.0,0.0,0.0,0.0,0.0
131069009,8,1528.0,1528.0,1532.0,1532.0,1000.0,1532.0,1525.0,1520.0,0.0,0.0,0.0,0.0,0.0,0.0,0.0,0.0
131093337,8,1528.0,1528.0,1532.0,1532.0,1000.0,1532.0,1525.0,1520.0,0.0,0.0,0.0,0.0,0.0,0.0,0.0,0.0
131119230,8,1528.0,1528.0,1532.0,1533.0,1000.0,1532.0,1525.0,1520.0,0.0,0.0,0.0,0.0,0.0,0.0,0.0,0.0
131139267,8,1528.0,1528.0,1532.0,1532.0,1000.0,1532.0,1525.0,1520.0,0.0,0.0,0.0,0.0,0.0,0.0,0.0,0.0
131159780,8,1528.0,1528.0,1532.0,1532.0,1000.0,1532.0,1525.0,1520.0,0.0,0.0,0.0,0.0,0.0,0.0,0.0,0.0
131183426,8,1528.0,1528.0,1532.0,1533.0,1000.0,1532.0,1525.0,1520.0,0.0,0.0,0.0,0.0,0.0,0.0,0.0,0.0
131209349,8,1528.0,1528.0,1533.0,1532.0,1000.0,1532.0,1525.0,1520.0,0.0,0.0,0.0,0.0,0.0,0.0,0.0,0.0
131233313,8,1528.0,1528.0,1532.0,1532.0,1000.0,1532.0,1525.0,1520.0,0.0,0.0,0.0,0.0,0.0,0.0,0.0,0.0
131253453,8,1528.0,1528.0,1532.0,1532.0,1000.0,1532.0,1525.0,1520.0,0.0,0.0,0.0,0.0,0.0,0.0,0.0,0.0
131273571,8,1527.0,1527.0,1532.0,1532.0,1000.0,1532.0,1525.0,1520.0,0.0,0.0,0.0,0.0,0.0,0.0,0.0,0.0
131299436,8,1527.0,1527.0,1532.0,1532.0,1000.0,1532.0,1525.0,1520.0,0.0,0.0,0.0,0.0,0.0,0.0,0.0,0.0
131319333,8,1527.0,1527.0,1532.0,1532.0,1000.0,1532.0,1525.0,1520.0,0.0,0.0,0.0,0.0,0.0,0.0,0.0,0.0
131339483,8,1527.0,1527.0,1532.0,1532.0,1000.0,1532.0,1525.0,1520.0,0.0,0.0,0.0,0.0,0.0,0.0,0.0,0.0
131363438,8,1527.0,1527.0,1532.0,1532.0,1000.0,1532.0,1525.0,1520.0,0.0,0.0,0.0,0.0,0.0,0.0,0.0,0.0
131383417,8,1527.0,1527.0,1532.0,1532.0,1000.0,1532.0,1525.0,1520.0,0.0,0.0,0.0,0.0,0.0,0.0,0.0,0.0
131408813,8,1527.0,1527.0,1532.0,1532.0,1000.0,1532.0,1525.0,1520.0,0.0,0.0,0.0,0.0,0.0,0.0,0.0,0.0
131428907,8,1527.0,1527.0,1532.0,1532.0,1000.0,1532.0,1525.0,1520.0,0.0,0.0,0.0,0.0,0.0,0.0,0.0,0.0
131449017,8,1527.0,1527.0,1532.0,1532.0,1000.0,1532.0,1525.0,1520.0,0.0,0.0,0.0,0.0,0.0,0.0,0.0,0.0
131473427,8,1527.0,1527.0,1532.0,1532.0,1000.0,1532.0,1525.0,1520.0,0.0,0.0,0.0,0.0,0.0,0.0,0.0,0.0
131499176,8,1527.0,1527.0,1532.0,1532.0,1000.0,1532.0,1525.0,1520.0,0.0,0.0,0.0,0.0,0.0,0.0,0.0,0.0
131519460,8,1527.0,1527.0,1532.0,1532.0,1000.0,1532.0,1525.0,1520.0,0.0,0.0,0.0,0.0,0.0,0.0,0.0,0.0
131539404,8,1527.0,1527.0,1532.0,1532.0,1000.0,1532.0,1525.0,1520.0,0.0,0.0,0.0,0.0,0.0,0.0,0.0,0.0
131559427,8,1527.0,1527.0,1532.0,1532.0,1000.0,1532.0,1525.0,1520.0,0.0,0.0,0.0,0.0,0.0,0.0,0.0,0.0
131583046,8,1527.0,1527.0,1532.0,1532.0,1000.0,1532.0,1525.0,1520.0,0.0,0.0,0.0,0.0,0.0,0.0,0.0,0.0
131608997,8,1527.0,1527.0,1532.0,1532.0,1000.0,1532.0,1525.0,1520.0,0.0,0.0,0.0,0.0,0.0,0.0,0.0,0.0
131633512,8,1527.0,1527.0,1533.0,1532.0,1000.0,1532.0,1525.0,1520.0,0.0,0.0,0.0,0.0,0.0,0.0,0.0,0.0
131653397,8,1528.0,1528.0,1533.0,1532.0,1000.0,1533.0,1525.0,1520.0,0.0,0.0,0.0,0.0,0.0,0.0,0.0,0.0
131673397,8,1528.0,1528.0,1532.0,1532.0,1000.0,1532.0,1525.0,1520.0,0.0,0.0,0.0,0.0,0.0,0.0,0.0,0.0
131699083,8,1528.0,1528.0,1532.0,1532.0,1000.0,1532.0,1525.0,1520.0,0.0,0.0,0.0,0.0,0.0,0.0,0.0,0.0
131719515,8,1528.0,1528.0,1532.0,1532.0,1000.0,1532.0,1525.0,1520.0,0.0,0.0,0.0,0.0,0.0,0.0,0.0,0.0
131743085,8,1528.0,1528.0,1532.0,1532.0,1000.0,1532.0,1525.0,1520.0,0.0,0.0,0.0,0.0,0.0,0.0,0.0,0.0
131763488,8,1528.0,1528.0,1532.0,1532.0,1000.0,1532.0,1525.0,1520.0,0.0,0.0,0.0,0.0,0.0,0.0,0.0,0.0
131789033,8,1528.0,1528.0,1533.0,1532.0,1000.0,1532.0,1525.0,1520.0,0.0,0.0,0.0,0.0,0.0,0.0,0.0,0.0
131813476,8,1528.0,1528.0,1532.0,1532.0,1000.0,1532.0,1525.0,1520.0,0.0,0.0,0.0,0.0,0.0,0.0,0.0,0.0
131833494,8,1528.0,1528.0,1532.0,1533.0,1000.0,1532.0,1525.0,1520.0,0.0,0.0,0.0,0.0,0.0,0.0,0.0,0.0
131859241,8,1528.0,1528.0,1532.0,1532.0,1000.0,1532.0,1525.0,1520.0,0.0,0.0,0.0,0.0,0.0,0.0,0.0,0.0
131879628,8,1528.0,1528.0,1533.0,1532.0,1000.0,1532.0,1525.0,1520.0,0.0,0.0,0.0,0.0,0.0,0.0,0.0,0.0
131903581,8,1528.0,1528.0,1533.0,1532.0,1000.0,1533.0,1525.0,1520.0,0.0,0.0,0.0,0.0,0.0,0.0,0.0,0.0
131933118,8,1527.0,1527.0,1533.0,1532.0,1000.0,1533.0,1525.0,1520.0,0.0,0.0,0.0,0.0,0.0,0.0,0.0,0.0
131949087,8,1528.0,1527.0,1532.0,1532.0,1000.0,1532.0,1525.0,1520.0,0.0,0.0,0.0,0.0,0.0,0.0,0.0,0.0
131969105,8,1527.0,1527.0,1532.0,1532.0,1000.0,1532.0,1525.0,1520.0,0.0,0.0,0.0,0.0,0.0,0.0,0.0,0.0
131989182,8,1527.0,1527.0,1532.0,1532.0,1000.0,1532.0,1525.0,1520.0,0.0,0.0,0.0,0.0,0.0,0.0,0.0,0.0
132013191,8,1527.0,1527.0,1532.0,1532.0,1000.0,1532.0,1525.0,1520.0,0.0,0.0,0.0,0.0,0.0,0.0,0.0,0.0
132033484,8,1527.0,1527.0,1532.0,1532.0,1000.0,1532.0,1525.0,1520.0,0.0,0.0,0.0,0.0,0.0,0.0,0.0,0.0
132053727,8,1527.0,1527.0,1532.0,1532.0,1000.0,1532.0,1525.0,1520.0,0.0,0.0,0.0,0.0,0.0,0.0,0.0,0.0
132073738,8,1527.0,1527.0,1532.0,1532.0,1000.0,1532.0,1525.0,1520.0,0.0,0.0,0.0,0.0,0.0,0.0,0.0,0.0
132099625,8,1527.0,1527.0,1532.0,1532.0,1000.0,1532.0,1525.0,1520.0,0.0,0.0,0.0,0.0,0.0,0.0,0.0,0.0
132123075,8,1527.0,1527.0,1532.0,1532.0,1000.0,1532.0,1525.0,1520.0,0.0,0.0,0.0,0.0,0.0,0.0,0.0,0.0
132149296,8,1527.0,1527.0,1532.0,1532.0,1000.0,1532.0,1525.0,1520.0,0.0,0.0,0.0,0.0,0.0,0.0,0.0,0.0
132173014,8,1527.0,1527.0,1532.0,1532.0,1000.0,1532.0,1525.0,1520.0,0.0,0.0,0.0,0.0,0.0,0.0,0.0,0.0
132193194,8,1527.0,1527.0,1532.0,1532.0,1000.0,1532.0,1525.0,1520.0,0.0,0.0,0.0,0.0,0.0,0.0,0.0,0.0
132213071,8,1527.0,1527.0,1532.0,1532.0,1000.0,1532.0,1525.0,1520.0,0.0,0.0,0.0,0.0,0.0,0.0,0.0,0.0
132233066,8,1527.0,1527.0,1532.0,1532.0,1000.0,1532.0,1525.0,1520.0,0.0,0.0,0.0,0.0,0.0,0.0,0.0,0.0
132259345,8,1527.0,1527.0,1532.0,1532.0,1002.0,1532.0,1525.0,1520.0,0.0,0.0,0.0,0.0,0.0,0.0,0.0,0.0
132279551,8,1527.0,1527.0,1533.0,1532.0,1004.0,1533.0,1525.0,1520.0,0.0,0.0,0.0,0.0,0.0,0.0,0.0,0.0
132303075,8,1528.0,1528.0,1532.0,1532.0,1022.0,1532.0,1525.0,1520.0,0.0,0.0,0.0,0.0,0.0,0.0,0.0,0.0
132323145,8,1527.0,1527.0,1532.0,1533.0,1028.0,1532.0,1525.0,1520.0,0.0,0.0,0.0,0.0,0.0,0.0,0.0,0.0
132343090,8,1528.0,1528.0,1532.0,1532.0,1032.0,1532.0,1525.0,1520.0,0.0,0.0,0.0,0.0,0.0,0.0,0.0,0.0
132363386,8,1528.0,1528.0,1532.0,1532.0,1039.0,1532.0,1525.0,1520.0,0.0,0.0,0.0,0.0,0.0,0.0,0.0,0.0
132389055,8,1528.0,1528.0,1532.0,1532.0,1048.0,1532.0,1525.0,1520.0,0.0,0.0,0.0,0.0,0.0,0.0,0.0,0.0
132413060,8,1528.0,1528.0,1532.0,1532.0,1065.0,1532.0,1525.0,1520.0,0.0,0.0,0.0,0.0,0.0,0.0,0.0,0.0
132433112,8,1528.0,1528.0,1532.0,1533.0,1067.0,1532.0,1525.0,1520.0,0.0,0.0,0.0,0.0,0.0,0.0,0.0,0.0
132453085,8,1528.0,1528.0,1532.0,1532.0,1072.0,1532.0,1525.0,1520.0,0.0,0.0,0.0,0.0,0.0,0.0,0.0,0.0
132473296,8,1528.0,1528.0,1532.0,1532.0,1074.0,1532.0,1525.0,1520.0,0.0,0.0,0.0,0.0,0.0,0.0,0.0,0.0
132499557,8,1528.0,1528.0,1532.0,1532.0,1085.0,1532.0,1525.0,1520.0,0.0,0.0,0.0,0.0,0.0,0.0,0.0,0.0
132523339,8,1528.0,1528.0,1532.0,1532.0,1095.0,1532.0,1525.0,1520.0,0.0,0.0,0.0,0.0,0.0,0.0,0.0,0.0
132548963,8,1528.0,1528.0,1532.0,1532.0,1103.0,1532.0,1525.0,1520.0,0.0,0.0,0.0,0.0,0.0,0.0,0.0,0.0
132569255,8,1528.0,1528.0,1532.0,1532.0,1106.0,1532.0,1525.0,1520.0,0.0,0.0,0.0,0.0,0.0,0.0,0.0,0.0
132589189,8,1527.0,1527.0,1532.0,1532.0,1107.0,1532.0,1525.0,1520.0,0.0,0.0,0.0,0.0,0.0,0.0,0.0,0.0
132613336,8,1527.0,1527.0,1532.0,1532.0,1109.0,1532.0,1525.0,1520.0,0.0,0.0,0.0,0.0,0.0,0.0,0.0,0.0
132639757,8,1527.0,1527.0,1532.0,1532.0,1113.0,1532.0,1525.0,1520.0,0.0,0.0,0.0,0.0,0.0,0.0,0.0,0.0
132663406,8,1527.0,1527.0,1532.0,1532.0,1115.0,1532.0,1525.0,1520.0,0.0,0.0,0.0,0.0,0.0,0.0,0.0,0.0
132683400,8,1527.0,1527.0,1532.0,1532.0,1116.0,1532.0,1525.0,1520.0,0.0,0.0,0.0,0.0,0.0,0.0,0.0,0.0
132709076,8,1527.0,1527.0,1532.0,1532.0,1133.0,1532.0,1525.0,1520.0,0.0,0.0,0.0,0.0,0.0,0.0,0.0,0.0
132730952,8,1527.0,1527.0,1532.0,1532.0,1142.0,1532.0,1525.0,1520.0,0.0,0.0,0.0,0.0,0.0,0.0,0.0,0.0
132753432,8,1527.0,1527.0,1532.0,1532.0,1147.0,1532.0,1525.0,1520.0,0.0,0.0,0.0,0.0,0.0,0.0,0.0,0.0
132773473,8,1527.0,1527.0,1532.0,1532.0,1154.0,1532.0,1525.0,1520.0,0.0,0.0,0.0,0.0,0.0,0.0,0.0,0.0
132793532,8,1527.0,1527.0,1533.0,1532.0,1161.0,1532.0,1525.0,1520.0,0.0,0.0,0.0,0.0,0.0,0.0,0.0,0.0
132819505,8,1527.0,1527.0,1532.0,1532.0,1167.0,1532.0,1525.0,1520.0,0.0,0.0,0.0,0.0,0.0,0.0,0.0,0.0
132843504,8,1527.0,1527.0,1532.0,1532.0,1177.0,1532.0,1525.0,1520.0,0.0,0.0,0.0,0.0,0.0,0.0,0.0,0.0
132869221,8,1527.0,1527.0,1533.0,1532.0,1179.0,1532.0,1525.0,1520.0,0.0,0.0,0.0,0.0,0.0,0.0,0.0,0.0
132893559,8,1527.0,1527.0,1532.0,1532.0,1183.0,1532.0,1525.0,1520.0,0.0,0.0,0.0,0.0,0.0,0.0,0.0,0.0
132919078,8,1527.0,1527.0,1533.0,1532.0,1186.0,1532.0,1525.0,1520.0,0.0,0.0,0.0,0.0,0.0,0.0,0.0,0.0
132948080,8,1527.0,1527.0,1533.0,1532.0,1190.0,1532.0,1525.0,1520.0,0.0,0.0,0.0,0.0,0.0,0.0,0.0,0.0
132963705,8,1527.0,1527.0,1532.0,1532.0,1197.0,1532.0,1525.0,1520.0,0.0,0.0,0.0,0.0,0.0,0.0,0.0,0.0
132989040,8,1528.0,1528.0,1532.0,1532.0,1201.0,1532.0,1525.0,1520.0,0.0,0.0,0.0,0.0,0.0,0.0,0.0,0.0
133008978,8,1528.0,1528.0,1532.0,1532.0,1210.0,1532.0,1525.0,1520.0,0.0,0.0,0.0,0.0,0.0,0.0,0.0,0.0
133028986,8,1528.0,1528.0,1532.0,1532.0,1215.0,1532.0,1525.0,1520.0,0.0,0.0,0.0,0.0,0.0,0.0,0.0,0.0
133048897,8,1528.0,1528.0,1532.0,1533.0,1219.0,1532.0,1525.0,1520.0,0.0,0.0,0.0,0.0,0.0,0.0,0.0,0.0
133069125,8,1528.0,1528.0,1532.0,1532.0,1221.0,1532.0,1525.0,1520.0,0.0,0.0,0.0,0.0,0.0,0.0,0.0,0.0
133089062,8,1528.0,1528.0,1532.0,1532.0,1225.0,1532.0,1525.0,1520.0,0.0,0.0,0.0,0.0,0.0,0.0,0.0,0.0
133113583,8,1528.0,1528.0,1532.0,1532.0,1236.0,1532.0,1525.0,1520.0,0.0,0.0,0.0,0.0,0.0,0.0,0.0,0.0
133139829,8,1528.0,1528.0,1532.0,1532.0,1255.0,1532.0,1525.0,1520.0,0.0,0.0,0.0,0.0,0.0,0.0,0.0,0.0
133163219,8,1528.0,1528.0,1532.0,1532.0,1259.0,1532.0,1525.0,1520.0,0.0,0.0,0.0,0.0,0.0,0.0,0.0,0.0
133183575,8,1528.0,1528.0,1532.0,1532.0,1272.0,1532.0,1525.0,1520.0,0.0,0.0,0.0,0.0,0.0,0.0,0.0,0.0
133203687,8,1528.0,1528.0,1532.0,1532.0,1275.0,1532.0,1525.0,1520.0,0.0,0.0,0.0,0.0,0.0,0.0,0.0,0.0
133229026,8,1527.0,1527.0,1532.0,1532.0,1289.0,1532.0,1525.0,1520.0,0.0,0.0,0.0,0.0,0.0,0.0,0.0,0.0
133249383,8,1527.0,1527.0,1533.0,1532.0,1296.0,1532.0,1525.0,1520.0,0.0,0.0,0.0,0.0,0.0,0.0,0.0,0.0
133273987,8,1527.0,1527.0,1532.0,1532.0,1301.0,1532.0,1525.0,1520.0,0.0,0.0,0.0,0.0,0.0,0.0,0.0,0.0
133299686,8,1527.0,1527.0,1532.0,1532.0,1308.0,1532.0,1525.0,1520.0,0.0,0.0,0.0,0.0,0.0,0.0,0.0,0.0
133323490,8,1527.0,1527.0,1532.0,1532.0,1324.0,1532.0,1525.0,1520.0,0.0,0.0,0.0,0.0,0.0,0.0,0.0,0.0
133349121,8,1527.0,1527.0,1532.0,1532.0,1330.0,1532.0,1525.0,1520.0,0.0,0.0,0.0,0.0,0.0,0.0,0.0,0.0
133369136,8,1526.0,1526.0,1532.0,1532.0,1336.0,1532.0,1525.0,1520.0,0.0,0.0,0.0,0.0,0.0,0.0,0.0,0.0
133393553,8,1528.0,1528.0,1533.0,1532.0,1341.0,1532.0,1525.0,1520.0,0.0,0.0,0.0,0.0,0.0,0.0,0.0,0.0
133413517,8,1526.0,1526.0,1532.0,1532.0,1354.0,1532.0,1525.0,1520.0,0.0,0.0,0.0,0.0,0.0,0.0,0.0,0.0
133433547,8,1527.0,1527.0,1532.0,1533.0,1366.0,1532.0,1525.0,1520.0,0.0,0.0,0.0,0.0,0.0,0.0,0.0,0.0
133459330,8,1527.0,1527.0,1532.0,1532.0,1372.0,1532.0,1525.0,1520.0,0.0,0.0,0.0,0.0,0.0,0.0,0.0,0.0
133483471,8,1527.0,1527.0,1532.0,1533.0,1378.0,1532.0,1525.0,1520.0,0.0,0.0,0.0,0.0,0.0,0.0,0.0,0.0
133509117,8,1529.0,1529.0,1533.0,1533.0,1380.0,1533.0,1525.0,1520.0,0.0,0.0,0.0,0.0,0.0,0.0,0.0,0.0
133533628,8,1529.0,1529.0,1533.0,1533.0,1381.0,1533.0,1525.0,1520.0,0.0,0.0,0.0,0.0,0.0,0.0,0.0,0.0
133559331,8,1527.0,1527.0,1533.0,1532.0,1381.0,1533.0,1525.0,1520.0,0.0,0.0,0.0,0.0,0.0,0.0,0.0,0.0
133583240,8,1527.0,1527.0,1532.0,1533.0,1381.0,1532.0,1525.0,1520.0,0.0,0.0,0.0,0.0,0.0,0.0,0.0,0.0
133603628,8,1525.0,1525.0,1532.0,1533.0,1381.0,1532.0,1525.0,1520.0,0.0,0.0,0.0,0.0,0.0,0.0,0.0,0.0
133623592,8,1526.0,1526.0,1532.0,1533.0,1381.0,1533.0,1525.0,1520.0,0.0,0.0,0.0,0.0,0.0,0.0,0.0,0.0
133649109,8,1527.0,1527.0,1533.0,1532.0,1381.0,1532.0,1525.0,1520.0,0.0,0.0,0.0,0.0,0.0,0.0,0.0,0.0
133669417,8,1527.0,1527.0,1532.0,1532.0,1381.0,1532.0,1525.0,1520.0,0.0,0.0,0.0,0.0,0.0,0.0,0.0,0.0
133693301,8,1527.0,1527.0,1532.0,1533.0,1381.0,1532.0,1525.0,1520.0,0.0,0.0,0.0,0.0,0.0,0.0,0.0,0.0
133713693,8,1527.0,1527.0,1532.0,1533.0,1381.0,1532.0,1525.0,1520.0,0.0,0.0,0.0,0.0,0.0,0.0,0.0,0.0
133739441,8,1528.0,1528.0,1533.0,1533.0,1381.0,1533.0,1525.0,1520.0,0.0,0.0,0.0,0.0,0.0,0.0,0.0,0.0
133763509,8,1527.0,1527.0,1533.0,1532.0,1381.0,1533.0,1525.0,1520.0,0.0,0.0,0.0,0.0,0.0,0.0,0.0,0.0
133783559,8,1527.0,1527.0,1532.0,1533.0,1381.0,1533.0,1525.0,1520.0,0.0,0.0,0.0,0.0,0.0,0.0,0.0,0.0
133808956,8,1527.0,1527.0,1532.0,1533.0,1381.0,1533.0,1525.0,1520.0,0.0,0.0,0.0,0.0,0.0,0.0,0.0,0.0
133829112,8,1527.0,1527.0,1533.0,1532.0,1381.0,1533.0,1525.0,1520.0,0.0,0.0,0.0,0.0,0.0,0.0,0.0,0.0
133848889,8,1527.0,1527.0,1533.0,1533.0,1381.0,1533.0,1525.0,1520.0,0.0,0.0,0.0,0.0,0.0,0.0,0.0,0.0
133869111,8,1527.0,1527.0,1532.0,1532.0,1381.0,1532.0,1525.0,1520.0,0.0,0.0,0.0,0.0,0.0,0.0,0.0,0.0
133893577,8,1528.0,1528.0,1532.0,1532.0,1381.0,1532.0,1525.0,1520.0,0.0,0.0,0.0,0.0,0.0,0.0,0.0,0.0
133919387,8,1528.0,1528.0,1532.0,1532.0,1381.0,1532.0,1525.0,1520.0,0.0,0.0,0.0,0.0,0.0,0.0,0.0,0.0
133943458,8,1528.0,1528.0,1532.0,1532.0,1381.0,1532.0,1525.0,1520.0,0.0,0.0,0.0,0.0,0.0,0.0,0.0,0.0
133978058,8,1528.0,1528.0,1532.0,1533.0,1381.0,1532.0,1525.0,1520.0,0.0,0.0,0.0,0.0,0.0,0.0,0.0,0.0
133993692,8,1528.0,1528.0,1532.0,1533.0,1381.0,1533.0,1525.0,1520.0,0.0,0.0,0.0,0.0,0.0,0.0,0.0,0.0
134013412,8,1528.0,1528.0,1533.0,1532.0,1381.0,1533.0,1525.0,1520.0,0.0,0.0,0.0,0.0,0.0,0.0,0.0,0.0
134039479,8,1528.0,1528.0,1533.0,1533.0,1381.0,1533.0,1525.0,1520.0,0.0,0.0,0.0,0.0,0.0,0.0,0.0,0.0
134059712,8,1528.0,1528.0,1532.0,1533.0,1381.0,1533.0,1525.0,1520.0,0.0,0.0,0.0,0.0,0.0,0.0,0.0,0.0
134083449,8,1528.0,1528.0,1532.0,1533.0,1381.0,1533.0,1525.0,1520.0,0.0,0.0,0.0,0.0,0.0,0.0,0.0,0.0
134109448,8,1528.0,1528.0,1532.0,1533.0,1381.0,1532.0,1525.0,1520.0,0.0,0.0,0.0,0.0,0.0,0.0,0.0,0.0
134131071,8,1528.0,1528.0,1533.0,1532.0,1381.0,1532.0,1525.0,1520.0,0.0,0.0,0.0,0.0,0.0,0.0,0.0,0.0
134619170,8,1527.0,1527.0,1532.0,1533.0,1381.0,1532.0,1525.0,1520.0,0.0,0.0,0.0,0.0,0.0,0.0,0.0,0.0
134639421,8,1528.0,1528.0,1533.0,1532.0,1381.0,1532.0,1525.0,1520.0,0.0,0.0,0.0,0.0,0.0,0.0,0.0,0.0
134659669,8,1528.0,1528.0,1532.0,1533.0,1381.0,1532.0,1525.0,1520.0,0.0,0.0,0.0,0.0,0.0,0.0,0.0,0.0
134683582,8,1528.0,1528.0,1532.0,1533.0,1381.0,1532.0,1525.0,1520.0,0.0,0.0,0.0,0.0,0.0,0.0,0.0,0.0
134709166,8,1528.0,1527.0,1532.0,1533.0,1381.0,1532.0,1525.0,1520.0,0.0,0.0,0.0,0.0,0.0,0.0,0.0,0.0
134731109,8,1528.0,1528.0,1532.0,1533.0,1381.0,1532.0,1525.0,1520.0,0.0,0.0,0.0,0.0,0.0,0.0,0.0,0.0
134753469,8,1528.0,1528.0,1532.0,1532.0,1381.0,1532.0,1525.0,1520.0,0.0,0.0,0.0,0.0,0.0,0.0,0.0,0.0
134773489,8,1528.0,1528.0,1532.0,1532.0,1381.0,1532.0,1525.0,1520.0,0.0,0.0,0.0,0.0,0.0,0.0,0.0,0.0
134793515,8,1527.0,1527.0,1532.0,1533.0,1381.0,1532.0,1525.0,1520.0,0.0,0.0,0.0,0.0,0.0,0.0,0.0,0.0
134813497,8,1528.0,1528.0,1532.0,1533.0,1381.0,1532.0,1525.0,1520.0,0.0,0.0,0.0,0.0,0.0,0.0,0.0,0.0
134839402,8,1527.0,1527.0,1532.0,1533.0,1381.0,1532.0,1525.0,1520.0,0.0,0.0,0.0,0.0,0.0,0.0,0.0,0.0
134859428,8,1528.0,1528.0,1533.0,1532.0,1381.0,1532.0,1525.0,1520.0,0.0,0.0,0.0,0.0,0.0,0.0,0.0,0.0
134883534,8,1528.0,1528.0,1532.0,1532.0,1381.0,1532.0,1525.0,1520.0,0.0,0.0,0.0,0.0,0.0,0.0,0.0,0.0
134909123,8,1527.0,1527.0,1532.0,1532.0,1381.0,1532.0,1525.0,1520.0,0.0,0.0,0.0,0.0,0.0,0.0,0.0,0.0
134931094,8,1527.0,1527.0,1532.0,1533.0,1381.0,1532.0,1525.0,1520.0,0.0,0.0,0.0,0.0,0.0,0.0,0.0,0.0
134953393,8,1527.0,1527.0,1532.0,1533.0,1381.0,1532.0,1525.0,1520.0,0.0,0.0,0.0,0.0,0.0,0.0,0.0,0.0
134973594,8,1527.0,1527.0,1532.0,1532.0,1381.0,1532.0,1525.0,1520.0,0.0,0.0,0.0,0.0,0.0,0.0,0.0,0.0
135002600,8,1527.0,1527.0,1532.0,1532.0,1381.0,1532.0,1525.0,1520.0,0.0,0.0,0.0,0.0,0.0,0.0,0.0,0.0
135019437,8,1527.0,1527.0,1532.0,1532.0,1381.0,1532.0,1525.0,1520.0,0.0,0.0,0.0,0.0,0.0,0.0,0.0,0.0
135039616,8,1526.0,1526.0,1532.0,1532.0,1381.0,1532.0,1525.0,1520.0,0.0,0.0,0.0,0.0,0.0,0.0,0.0,0.0
135063690,8,1527.0,1527.0,1532.0,1532.0,1381.0,1532.0,1525.0,1520.0,0.0,0.0,0.0,0.0,0.0,0.0,0.0,0.0
135089276,8,1527.0,1527.0,1532.0,1532.0,1381.0,1532.0,1525.0,1520.0,0.0,0.0,0.0,0.0,0.0,0.0,0.0,0.0
135113224,8,1527.0,1527.0,1533.0,1532.0,1381.0,1532.0,1525.0,1520.0,0.0,0.0,0.0,0.0,0.0,0.0,0.0,0.0
135133422,8,1528.0,1528.0,1532.0,1532.0,1381.0,1532.0,1525.0,1520.0,0.0,0.0,0.0,0.0,0.0,0.0,0.0,0.0
135153679,8,1527.0,1527.0,1532.0,1532.0,1381.0,1532.0,1525.0,1520.0,0.0,0.0,0.0,0.0,0.0,0.0,0.0,0.0
135173474,8,1527.0,1527.0,1532.0,1532.0,1381.0,1532.0,1525.0,1520.0,0.0,0.0,0.0,0.0,0.0,0.0,0.0,0.0
135193719,8,1528.0,1528.0,1533.0,1532.0,1381.0,1532.0,1525.0,1520.0,0.0,0.0,0.0,0.0,0.0,0.0,0.0,0.0
135213666,8,1528.0,1528.0,1532.0,1533.0,1381.0,1532.0,1525.0,1520.0,0.0,0.0,0.0,0.0,0.0,0.0,0.0,0.0
135239512,8,1528.0,1528.0,1532.0,1532.0,1381.0,1532.0,1525.0,1520.0,0.0,0.0,0.0,0.0,0.0,0.0,0.0,0.0
135259533,8,1528.0,1528.0,1532.0,1533.0,1381.0,1532.0,1525.0,1520.0,0.0,0.0,0.0,0.0,0.0,0.0,0.0,0.0
135283523,8,1527.0,1527.0,1532.0,1533.0,1381.0,1532.0,1525.0,1520.0,0.0,0.0,0.0,0.0,0.0,0.0,0.0,0.0
135309035,8,1528.0,1528.0,1533.0,1532.0,1381.0,1532.0,1525.0,1520.0,0.0,0.0,0.0,0.0,0.0,0.0,0.0,0.0
135328900,8,1528.0,1528.0,1533.0,1532.0,1381.0,1532.0,1525.0,1520.0,0.0,0.0,0.0,0.0,0.0,0.0,0.0,0.0
135349168,8,1528.0,1528.0,1532.0,1532.0,1381.0,1532.0,1525.0,1520.0,0.0,0.0,0.0,0.0,0.0,0.0,0.0,0.0
135369097,8,1527.0,1527.0,1532.0,1532.0,1381.0,1532.0,1525.0,1520.0,0.0,0.0,0.0,0.0,0.0,0.0,0.0,0.0
135393400,8,1528.0,1528.0,1532.0,1532.0,1381.0,1532.0,1525.0,1520.0,0.0,0.0,0.0,0.0,0.0,0.0,0.0,0.0
135413389,8,1528.0,1528.0,1533.0,1532.0,1381.0,1532.0,1525.0,1520.0,0.0,0.0,0.0,0.0,0.0,0.0,0.0,0.0
135439423,8,1528.0,1528.0,1533.0,1532.0,1381.0,1533.0,1525.0,1520.0,0.0,0.0,0.0,0.0,0.0,0.0,0.0,0.0
135459406,8,1527.0,1527.0,1532.0,1532.0,1381.0,1532.0,1525.0,1520.0,0.0,0.0,0.0,0.0,0.0,0.0,0.0,0.0
135479446,8,1527.0,1527.0,1532.0,1533.0,1381.0,1532.0,1525.0,1520.0,0.0,0.0,0.0,0.0,0.0,0.0,0.0,0.0
135503503,8,1527.0,1527.0,1532.0,1532.0,1381.0,1532.0,1525.0,1520.0,0.0,0.0,0.0,0.0,0.0,0.0,0.0,0.0
135530991,8,1527.0,1527.0,1532.0,1532.0,1381.0,1532.0,1525.0,1520.0,0.0,0.0,0.0,0.0,0.0,0.0,0.0,0.0
135573429,8,1527.0,1527.0,1532.0,1532.0,1381.0,1532.0,1525.0,1520.0,0.0,0.0,0.0,0.0,0.0,0.0,0.0,0.0
135593443,8,1527.0,1527.0,1532.0,1532.0,1381.0,1532.0,1525.0,1520.0,0.0,0.0,0.0,0.0,0.0,0.0,0.0,0.0
135613435,8,1527.0,1527.0,1532.0,1532.0,1381.0,1532.0,1525.0,1520.0,0.0,0.0,0.0,0.0,0.0,0.0,0.0,0.0
135639496,8,1527.0,1527.0,1532.0,1532.0,1381.0,1532.0,1525.0,1520.0,0.0,0.0,0.0,0.0,0.0,0.0,0.0,0.0
135663061,8,1528.0,1528.0,1533.0,1532.0,1381.0,1532.0,1525.0,1520.0,0.0,0.0,0.0,0.0,0.0,0.0,0.0,0.0
135683520,8,1527.0,1527.0,1532.0,1533.0,1381.0,1532.0,1525.0,1520.0,0.0,0.0,0.0,0.0,0.0,0.0,0.0,0.0
135709296,8,1527.0,1527.0,1532.0,1532.0,1381.0,1532.0,1525.0,1520.0,0.0,0.0,0.0,0.0,0.0,0.0,0.0,0.0
135729436,8,1527.0,1527.0,1532.0,1532.0,1381.0,1532.0,1525.0,1520.0,0.0,0.0,0.0,0.0,0.0,0.0,0.0,0.0
135753488,8,1527.0,1527.0,1532.0,1532.0,1381.0,1532.0,1525.0,1520.0,0.0,0.0,0.0,0.0,0.0,0.0,0.0,0.0
135773638,8,1527.0,1527.0,1533.0,1532.0,1383.0,1532.0,1525.0,1520.0,0.0,0.0,0.0,0.0,0.0,0.0,0.0,0.0
135799518,8,1529.0,1529.0,1533.0,1532.0,1388.0,1532.0,1525.0,1520.0,0.0,0.0,0.0,0.0,0.0,0.0,0.0,0.0
135823334,8,1529.0,1529.0,1532.0,1533.0,1389.0,1532.0,1525.0,1520.0,0.0,0.0,0.0,0.0,0.0,0.0,0.0,0.0
136063306,8,1530.0,1530.0,1532.0,1533.0,1427.0,1533.0,1525.0,1520.0,0.0,0.0,0.0,0.0,0.0,0.0,0.0,0.0
136109025,8,1529.0,1529.0,1532.0,1532.0,1442.0,1532.0,1525.0,1520.0,0.0,0.0,0.0,0.0,0.0,0.0,0.0,0.0
136130151,8,1529.0,1529.0,1532.0,1532.0,1447.0,1532.0,1525.0,1520.0,0.0,0.0,0.0,0.0,0.0,0.0,0.0,0.0
136153620,8,1529.0,1529.0,1532.0,1532.0,1453.0,1532.0,1525.0,1520.0,0.0,0.0,0.0,0.0,0.0,0.0,0.0,0.0
136173473,8,1528.0,1528.0,1532.0,1533.0,1453.0,1532.0,1525.0,1520.0,0.0,0.0,0.0,0.0,0.0,0.0,0.0,0.0
136199178,8,1529.0,1529.0,1532.0,1533.0,1453.0,1533.0,1525.0,1520.0,0.0,0.0,0.0,0.0,0.0,0.0,0.0,0.0
136223445,8,1529.0,1529.0,1532.0,1533.0,1453.0,1532.0,1525.0,1520.0,0.0,0.0,0.0,0.0,0.0,0.0,0.0,0.0
136249093,8,1529.0,1530.0,1532.0,1533.0,1453.0,1533.0,1525.0,1520.0,0.0,0.0,0.0,0.0,0.0,0.0,0.0,0.0
136269123,8,1530.0,1530.0,1532.0,1533.0,1453.0,1533.0,1525.0,1520.0,0.0,0.0,0.0,0.0,0.0,0.0,0.0,0.0
136289135,8,1529.0,1529.0,1532.0,1533.0,1453.0,1532.0,1525.0,1520.0,0.0,0.0,0.0,0.0,0.0,0.0,0.0,0.0
136313389,8,1530.0,1530.0,1533.0,1532.0,1453.0,1533.0,1525.0,1520.0,0.0,0.0,0.0,0.0,0.0,0.0,0.0,0.0
136333485,8,1530.0,1530.0,1533.0,1532.0,1453.0,1533.0,1525.0,1520.0,0.0,0.0,0.0,0.0,0.0,0.0,0.0,0.0
136359556,8,1530.0,1530.0,1533.0,1533.0,1453.0,1533.0,1525.0,1520.0,0.0,0.0,0.0,0.0,0.0,0.0,0.0,0.0
136379310,8,1530.0,1530.0,1533.0,1532.0,1453.0,1533.0,1525.0,1520.0,0.0,0.0,0.0,0.0,0.0,0.0,0.0,0.0
136403460,8,1529.0,1529.0,1532.0,1533.0,1453.0,1532.0,1525.0,1520.0,0.0,0.0,0.0,0.0,0.0,0.0,0.0,0.0
136429236,8,1528.0,1528.0,1531.0,1533.0,1453.0,1532.0,1525.0,1520.0,0.0,0.0,0.0,0.0,0.0,0.0,0.0,0.0
136449196,8,1528.0,1528.0,1531.0,1533.0,1453.0,1532.0,1525.0,1520.0,0.0,0.0,0.0,0.0,0.0,0.0,0.0,0.0
136473402,8,1529.0,1529.0,1532.0,1532.0,1453.0,1532.0,1525.0,1520.0,0.0,0.0,0.0,0.0,0.0,0.0,0.0,0.0
136499653,8,1530.0,1530.0,1533.0,1532.0,1453.0,1532.0,1525.0,1520.0,0.0,0.0,0.0,0.0,0.0,0.0,0.0,0.0
136523333,8,1529.0,1529.0,1531.0,1533.0,1453.0,1532.0,1525.0,1520.0,0.0,0.0,0.0,0.0,0.0,0.0,0.0,0.0
136549167,8,1530.0,1530.0,1532.0,1533.0,1453.0,1532.0,1525.0,1520.0,0.0,0.0,0.0,0.0,0.0,0.0,0.0,0.0
136573530,8,1530.0,1530.0,1533.0,1532.0,1453.0,1532.0,1525.0,1520.0,0.0,0.0,0.0,0.0,0.0,0.0,0.0,0.0
136593541,8,1529.0,1529.0,1533.0,1531.0,1453.0,1532.0,1525.0,1520.0,0.0,0.0,0.0,0.0,0.0,0.0,0.0,0.0
136619754,8,1529.0,1529.0,1533.0,1531.0,1453.0,1532.0,1525.0,1520.0,0.0,0.0,0.0,0.0,0.0,0.0,0.0,0.0
136639588,8,1529.0,1529.0,1532.0,1532.0,1453.0,1532.0,1525.0,1520.0,0.0,0.0,0.0,0.0,0.0,0.0,0.0,0.0
136659752,8,1529.0,1529.0,1532.0,1533.0,1453.0,1532.0,1525.0,1520.0,0.0,0.0,0.0,0.0,0.0,0.0,0.0,0.0
136683670,8,1529.0,1529.0,1532.0,1533.0,1453.0,1532.0,1525.0,1520.0,0.0,0.0,0.0,0.0,0.0,0.0,0.0,0.0
136709670,8,1529.0,1529.0,1533.0,1531.0,1453.0,1532.0,1525.0,1520.0,0.0,0.0,0.0,0.0,0.0,0.0,0.0,0.0
136730842,8,1530.0,1530.0,1533.0,1531.0,1453.0,1532.0,1525.0,1520.0,0.0,0.0,0.0,0.0,0.0,0.0,0.0,0.0
136753008,8,1528.0,1528.0,1533.0,1532.0,1453.0,1532.0,1525.0,1520.0,0.0,0.0,0.0,0.0,0.0,0.0,0.0,0.0
136773552,8,1528.0,1528.0,1532.0,1533.0,1453.0,1532.0,1525.0,1520.0,0.0,0.0,0.0,0.0,0.0,0.0,0.0,0.0
136799459,8,1529.0,1529.0,1532.0,1533.0,1453.0,1532.0,1525.0,1520.0,0.0,0.0,0.0,0.0,0.0,0.0,0.0,0.0
136819779,8,1529.0,1529.0,1533.0,1532.0,1453.0,1532.0,1525.0,1520.0,0.0,0.0,0.0,0.0,0.0,0.0,0.0,0.0
136843030,8,1529.0,1529.0,1534.0,1530.0,1453.0,1532.0,1525.0,1520.0,0.0,0.0,0.0,0.0,0.0,0.0,0.0,0.0
136869316,8,1529.0,1529.0,1533.0,1530.0,1453.0,1532.0,1525.0,1520.0,0.0,0.0,0.0,0.0,0.0,0.0,0.0,0.0
136889090,8,1528.0,1528.0,1533.0,1530.0,1453.0,1532.0,1525.0,1520.0,0.0,0.0,0.0,0.0,0.0,0.0,0.0,0.0
136913409,8,1529.0,1529.0,1532.0,1531.0,1453.0,1532.0,1525.0,1520.0,0.0,0.0,0.0,0.0,0.0,0.0,0.0,0.0
136939359,8,1529.0,1529.0,1533.0,1531.0,1453.0,1532.0,1525.0,1520.0,0.0,0.0,0.0,0.0,0.0,0.0,0.0,0.0
136963340,8,1528.0,1528.0,1532.0,1532.0,1453.0,1532.0,1525.0,1520.0,0.0,0.0,0.0,0.0,0.0,0.0,0.0,0.0
136983463,8,1528.0,1528.0,1532.0,1532.0,1453.0,1532.0,1525.0,1520.0,0.0,0.0,0.0,0.0,0.0,0.0,0.0,0.0
137008913,8,1529.0,1529.0,1532.0,1532.0,1453.0,1532.0,1525.0,1520.0,0.0,0.0,0.0,0.0,0.0,0.0,0.0,0.0
137038084,8,1527.0,1527.0,1532.0,1532.0,1453.0,1532.0,1525.0,1520.0,0.0,0.0,0.0,0.0,0.0,0.0,0.0,0.0
137053425,8,1527.0,1527.0,1532.0,1533.0,1453.0,1533.0,1525.0,1520.0,0.0,0.0,0.0,0.0,0.0,0.0,0.0,0.0
137079478,8,1527.0,1527.0,1532.0,1534.0,1453.0,1533.0,1525.0,1520.0,0.0,0.0,0.0,0.0,0.0,0.0,0.0,0.0
137099598,8,1526.0,1526.0,1532.0,1533.0,1453.0,1532.0,1525.0,1520.0,0.0,0.0,0.0,0.0,0.0,0.0,0.0,0.0
137122984,8,1527.0,1527.0,1532.0,1533.0,1453.0,1532.0,1525.0,1520.0,0.0,0.0,0.0,0.0,0.0,0.0,0.0,0.0
137143095,8,1527.0,1527.0,1533.0,1532.0,1453.0,1532.0,1525.0,1520.0,0.0,0.0,0.0,0.0,0.0,0.0,0.0,0.0
137163010,8,1528.0,1528.0,1533.0,1532.0,1453.0,1532.0,1525.0,1520.0,0.0,0.0,0.0,0.0,0.0,0.0,0.0,0.0
137188954,8,1528.0,1528.0,1533.0,1532.0,1453.0,1532.0,1525.0,1520.0,0.0,0.0,0.0,0.0,0.0,0.0,0.0,0.0
137209027,8,1528.0,1528.0,1533.0,1532.0,1451.0,1533.0,1525.0,1520.0,0.0,0.0,0.0,0.0,0.0,0.0,0.0,0.0
137233054,8,1527.0,1527.0,1532.0,1533.0,1451.0,1532.0,1525.0,1520.0,0.0,0.0,0.0,0.0,0.0,0.0,0.0,0.0
137259440,8,1528.0,1528.0,1533.0,1532.0,1451.0,1533.0,1525.0,1520.0,0.0,0.0,0.0,0.0,0.0,0.0,0.0,0.0
137283412,8,1529.0,1529.0,1533.0,1532.0,1451.0,1533.0,1525.0,1520.0,0.0,0.0,0.0,0.0,0.0,0.0,0.0,0.0
137303400,8,1528.0,1528.0,1533.0,1532.0,1450.0,1533.0,1525.0,1520.0,0.0,0.0,0.0,0.0,0.0,0.0,0.0,0.0
137330907,8,1527.0,1527.0,1532.0,1533.0,1442.0,1532.0,1525.0,1520.0,0.0,0.0,0.0,0.0,0.0,0.0,0.0,0.0
137353428,8,1528.0,1528.0,1532.0,1532.0,1434.0,1532.0,1525.0,1520.0,0.0,0.0,0.0,0.0,0.0,0.0,0.0,0.0
137373445,8,1528.0,1528.0,1532.0,1532.0,1428.0,1532.0,1525.0,1520.0,0.0,0.0,0.0,0.0,0.0,0.0,0.0,0.0
137399083,8,1528.0,1528.0,1533.0,1532.0,1426.0,1532.0,1525.0,1520.0,0.0,0.0,0.0,0.0,0.0,0.0,0.0,0.0
137419577,8,1528.0,1528.0,1533.0,1532.0,1418.0,1532.0,1525.0,1520.0,0.0,0.0,0.0,0.0,0.0,0.0,0.0,0.0
137443014,8,1527.0,1527.0,1532.0,1532.0,1416.0,1532.0,1525.0,1520.0,0.0,0.0,0.0,0.0,0.0,0.0,0.0,0.0
137463450,8,1528.0,1528.0,1531.0,1533.0,1414.0,1532.0,1525.0,1520.0,0.0,0.0,0.0,0.0,0.0,0.0,0.0,0.0
137489203,8,1526.0,1526.0,1532.0,1532.0,1414.0,1532.0,1525.0,1520.0,0.0,0.0,0.0,0.0,0.0,0.0,0.0,0.0
137508932,8,1527.0,1527.0,1532.0,1533.0,1414.0,1532.0,1525.0,1520.0,0.0,0.0,0.0,0.0,0.0,0.0,0.0,0.0
137530942,8,1526.0,1526.0,1532.0,1532.0,1414.0,1532.0,1525.0,1520.0,0.0,0.0,0.0,0.0,0.0,0.0,0.0,0.0
137553350,8,1527.0,1527.0,1533.0,1532.0,1414.0,1532.0,1525.0,1520.0,0.0,0.0,0.0,0.0,0.0,0.0,0.0,0.0
137579134,8,1527.0,1528.0,1534.0,1532.0,1413.0,1533.0,1525.0,1520.0,0.0,0.0,0.0,0.0,0.0,0.0,0.0,0.0
137599186,8,1529.0,1529.0,1534.0,1532.0,1413.0,1533.0,1525.0,1520.0,0.0,0.0,0.0,0.0,0.0,0.0,0.0,0.0
137619735,8,1526.0,1528.0,1533.0,1532.0,1413.0,1533.0,1525.0,1520.0,0.0,0.0,0.0,0.0,0.0,0.0,0.0,0.0
137643348,8,1528.0,1528.0,1533.0,1532.0,1413.0,1532.0,1525.0,1520.0,0.0,0.0,0.0,0.0,0.0,0.0,0.0,0.0
137663162,8,1529.0,1529.0,1533.0,1532.0,1413.0,1533.0,1525.0,1520.0,0.0,0.0,0.0,0.0,0.0,0.0,0.0,0.0
137683491,8,1529.0,1529.0,1533.0,1532.0,1413.0,1532.0,1525.0,1520.0,0.0,0.0,0.0,0.0,0.0,0.0,0.0,0.0
137708844,8,1528.0,1528.0,1532.0,1532.0,1413.0,1532.0,1525.0,1520.0,0.0,0.0,0.0,0.0,0.0,0.0,0.0,0.0
137731004,8,1529.0,1529.0,1532.0,1532.0,1413.0,1532.0,1525.0,1520.0,0.0,0.0,0.0,0.0,0.0,0.0,0.0,0.0
137753390,8,1528.0,1528.0,1532.0,1532.0,1413.0,1532.0,1525.0,1520.0,0.0,0.0,0.0,0.0,0.0,0.0,0.0,0.0
137773549,8,1528.0,1528.0,1532.0,1532.0,1412.0,1532.0,1525.0,1520.0,0.0,0.0,0.0,0.0,0.0,0.0,0.0,0.0
137793433,8,1528.0,1528.0,1532.0,1532.0,1410.0,1532.0,1525.0,1520.0,0.0,0.0,0.0,0.0,0.0,0.0,0.0,0.0
137819255,8,1528.0,1528.0,1533.0,1533.0,1410.0,1533.0,1525.0,1520.0,0.0,0.0,0.0,0.0,0.0,0.0,0.0,0.0
137839658,8,1529.0,1529.0,1533.0,1533.0,1408.0,1533.0,1525.0,1520.0,0.0,0.0,0.0,0.0,0.0,0.0,0.0,0.0
137863382,8,1528.0,1528.0,1533.0,1533.0,1408.0,1533.0,1525.0,1520.0,0.0,0.0,0.0,0.0,0.0,0.0,0.0,0.0
137889283,8,1526.0,1526.0,1533.0,1533.0,1406.0,1533.0,1525.0,1520.0,0.0,0.0,0.0,0.0,0.0,0.0,0.0,0.0
137913385,8,1527.0,1527.0,1533.0,1532.0,1404.0,1533.0,1525.0,1520.0,0.0,0.0,0.0,0.0,0.0,0.0,0.0,0.0
137933403,8,1527.0,1527.0,1532.0,1532.0,1404.0,1532.0,1525.0,1520.0,0.0,0.0,0.0,0.0,0.0,0.0,0.0,0.0
137959366,8,1527.0,1527.0,1532.0,1532.0,1403.0,1532.0,1525.0,1520.0,0.0,0.0,0.0,0.0,0.0,0.0,0.0,0.0
137979240,8,1527.0,1527.0,1532.0,1532.0,1403.0,1532.0,1525.0,1520.0,0.0,0.0,0.0,0.0,0.0,0.0,0.0,0.0
137999450,8,1528.0,1527.0,1532.0,1532.0,1403.0,1532.0,1525.0,1520.0,0.0,0.0,0.0,0.0,0.0,0.0,0.0,0.0
138023407,8,1527.0,1527.0,1532.0,1532.0,1403.0,1532.0,1525.0,1520.0,0.0,0.0,0.0,0.0,0.0,0.0,0.0,0.0
138051666,8,1528.0,1528.0,1533.0,1532.0,1403.0,1532.0,1525.0,1520.0,0.0,0.0,0.0,0.0,0.0,0.0,0.0,0.0
138063501,8,1527.0,1527.0,1532.0,1532.0,1403.0,1532.0,1525.0,1520.0,0.0,0.0,0.0,0.0,0.0,0.0,0.0,0.0
138088935,8,1528.0,1528.0,1533.0,1532.0,1403.0,1532.0,1525.0,1520.0,0.0,0.0,0.0,0.0,0.0,0.0,0.0,0.0
138109065,8,1528.0,1528.0,1532.0,1532.0,1403.0,1533.0,1525.0,1520.0,0.0,0.0,0.0,0.0,0.0,0.0,0.0,0.0
138130148,8,1528.0,1528.0,1533.0,1533.0,1403.0,1533.0,1525.0,1520.0,0.0,0.0,0.0,0.0,0.0,0.0,0.0,0.0
138153594,8,1527.0,1527.0,1533.0,1532.0,1403.0,1533.0,1525.0,1520.0,0.0,0.0,0.0,0.0,0.0,0.0,0.0,0.0
138179146,8,1528.0,1528.0,1532.0,1533.0,1403.0,1532.0,1525.0,1520.0,0.0,0.0,0.0,0.0,0.0,0.0,0.0,0.0
138199403,8,1527.0,1527.0,1532.0,1532.0,1403.0,1532.0,1525.0,1520.0,0.0,0.0,0.0,0.0,0.0,0.0,0.0,0.0
138219598,8,1527.0,1527.0,1532.0,1532.0,1403.0,1532.0,1525.0,1520.0,0.0,0.0,0.0,0.0,0.0,0.0,0.0,0.0
138243511,8,1527.0,1527.0,1532.0,1532.0,1403.0,1532.0,1525.0,1520.0,0.0,0.0,0.0,0.0,0.0,0.0,0.0,0.0
138263594,8,1527.0,1527.0,1532.0,1532.0,1403.0,1532.0,1525.0,1520.0,0.0,0.0,0.0,0.0,0.0,0.0,0.0,0.0
138289066,8,1527.0,1527.0,1532.0,1532.0,1403.0,1532.0,1525.0,1520.0,0.0,0.0,0.0,0.0,0.0,0.0,0.0,0.0
138313400,8,1527.0,1527.0,1532.0,1532.0,1403.0,1532.0,1525.0,1520.0,0.0,0.0,0.0,0.0,0.0,0.0,0.0,0.0
138339539,8,1527.0,1527.0,1532.0,1532.0,1404.0,1532.0,1525.0,1520.0,0.0,0.0,0.0,0.0,0.0,0.0,0.0,0.0
138363450,8,1527.0,1527.0,1532.0,1533.0,1404.0,1532.0,1525.0,1520.0,0.0,0.0,0.0,0.0,0.0,0.0,0.0,0.0
138389111,8,1527.0,1527.0,1532.0,1532.0,1404.0,1532.0,1525.0,1520.0,0.0,0.0,0.0,0.0,0.0,0.0,0.0,0.0
138413398,8,1527.0,1527.0,1532.0,1532.0,1404.0,1532.0,1525.0,1520.0,0.0,0.0,0.0,0.0,0.0,0.0,0.0,0.0
138439146,8,1527.0,1527.0,1532.0,1532.0,1404.0,1532.0,1525.0,1520.0,0.0,0.0,0.0,0.0,0.0,0.0,0.0,0.0
138459586,8,1527.0,1527.0,1532.0,1532.0,1404.0,1532.0,1525.0,1520.0,0.0,0.0,0.0,0.0,0.0,0.0,0.0,0.0
138479570,8,1528.0,1528.0,1532.0,1532.0,1404.0,1532.0,1525.0,1520.0,0.0,0.0,0.0,0.0,0.0,0.0,0.0,0.0
138503461,8,1528.0,1528.0,1532.0,1532.0,1404.0,1532.0,1525.0,1520.0,0.0,0.0,0.0,0.0,0.0,0.0,0.0,0.0
138531008,8,1527.0,1527.0,1532.0,1532.0,1404.0,1532.0,1525.0,1520.0,0.0,0.0,0.0,0.0,0.0,0.0,0.0,0.0
138553546,8,1527.0,1527.0,1532.0,1532.0,1404.0,1532.0,1525.0,1520.0,0.0,0.0,0.0,0.0,0.0,0.0,0.0,0.0
138579201,8,1528.0,1528.0,1532.0,1533.0,1404.0,1532.0,1525.0,1520.0,0.0,0.0,0.0,0.0,0.0,0.0,0.0,0.0
138599386,8,1528.0,1528.0,1533.0,1532.0,1404.0,1532.0,1525.0,1520.0,0.0,0.0,0.0,0.0,0.0,0.0,0.0,0.0
138619373,8,1528.0,1528.0,1532.0,1533.0,1404.0,1533.0,1525.0,1520.0,0.0,0.0,0.0,0.0,0.0,0.0,0.0,0.0
138640008,8,1528.0,1528.0,1533.0,1532.0,1404.0,1532.0,1525.0,1520.0,0.0,0.0,0.0,0.0,0.0,0.0,0.0,0.0
138659620,8,1528.0,1528.0,1532.0,1532.0,1404.0,1532.0,1525.0,1520.0,0.0,0.0,0.0,0.0,0.0,0.0,0.0,0.0
138683635,8,1528.0,1528.0,1532.0,1532.0,1404.0,1532.0,1525.0,1520.0,0.0,0.0,0.0,0.0,0.0,0.0,0.0,0.0
138703131,8,1527.0,1527.0,1532.0,1533.0,1406.0,1532.0,1525.0,1520.0,0.0,0.0,0.0,0.0,0.0,0.0,0.0,0.0
138730811,8,1527.0,1527.0,1532.0,1532.0,1406.0,1532.0,1525.0,1520.0,0.0,0.0,0.0,0.0,0.0,0.0,0.0,0.0
138753384,8,1528.0,1528.0,1533.0,1532.0,1412.0,1532.0,1525.0,1520.0,0.0,0.0,0.0,0.0,0.0,0.0,0.0,0.0
138773372,8,1527.0,1527.0,1532.0,1533.0,1412.0,1532.0,1525.0,1520.0,0.0,0.0,0.0,0.0,0.0,0.0,0.0,0.0
138799188,8,1527.0,1527.0,1532.0,1533.0,1412.0,1532.0,1525.0,1520.0,0.0,0.0,0.0,0.0,0.0,0.0,0.0,0.0
138819206,8,1527.0,1527.0,1532.0,1533.0,1412.0,1532.0,1525.0,1520.0,0.0,0.0,0.0,0.0,0.0,0.0,0.0,0.0
138839342,8,1527.0,1527.0,1532.0,1532.0,1412.0,1532.0,1525.0,1520.0,0.0,0.0,0.0,0.0,0.0,0.0,0.0,0.0
138859656,8,1528.0,1528.0,1532.0,1532.0,1412.0,1532.0,1525.0,1520.0,0.0,0.0,0.0,0.0,0.0,0.0,0.0,0.0
138883067,8,1527.0,1527.0,1533.0,1532.0,1412.0,1532.0,1525.0,1520.0,0.0,0.0,0.0,0.0,0.0,0.0,0.0,0.0
138903475,8,1527.0,1527.0,1532.0,1532.0,1412.0,1532.0,1525.0,1520.0,0.0,0.0,0.0,0.0,0.0,0.0,0.0,0.0
138930900,8,1528.0,1528.0,1532.0,1532.0,1412.0,1532.0,1525.0,1520.0,0.0,0.0,0.0,0.0,0.0,0.0,0.0,0.0
138953077,8,1527.0,1527.0,1532.0,1532.0,1413.0,1532.0,1525.0,1520.0,0.0,0.0,0.0,0.0,0.0,0.0,0.0,0.0
138973518,8,1528.0,1528.0,1532.0,1533.0,1413.0,1533.0,1525.0,1520.0,0.0,0.0,0.0,0.0,0.0,0.0,0.0,0.0
138993517,8,1528.0,1528.0,1532.0,1532.0,1413.0,1532.0,1525.0,1520.0,0.0,0.0,0.0,0.0,0.0,0.0,0.0,0.0
139019494,8,1528.0,1528.0,1532.0,1533.0,1413.0,1532.0,1525.0,1520.0,0.0,0.0,0.0,0.0,0.0,0.0,0.0,0.0
139043298,8,1528.0,1528.0,1532.0,1532.0,1413.0,1532.0,1525.0,1520.0,0.0,0.0,0.0,0.0,0.0,0.0,0.0,0.0
139072007,8,1528.0,1528.0,1532.0,1533.0,1413.0,1532.0,1525.0,1520.0,0.0,0.0,0.0,0.0,0.0,0.0,0.0,0.0
139083467,8,1528.0,1528.0,1532.0,1533.0,1413.0,1532.0,1525.0,1520.0,0.0,0.0,0.0,0.0,0.0,0.0,0.0,0.0
139109031,8,1528.0,1528.0,1532.0,1532.0,1413.0,1532.0,1525.0,1520.0,0.0,0.0,0.0,0.0,0.0,0.0,0.0,0.0
139130926,8,1527.0,1527.0,1532.0,1532.0,1413.0,1532.0,1525.0,1520.0,0.0,0.0,0.0,0.0,0.0,0.0,0.0,0.0
139153424,8,1528.0,1528.0,1532.0,1533.0,1413.0,1532.0,1525.0,1520.0,0.0,0.0,0.0,0.0,0.0,0.0,0.0,0.0
139179435,8,1528.0,1528.0,1532.0,1532.0,1413.0,1532.0,1525.0,1520.0,0.0,0.0,0.0,0.0,0.0,0.0,0.0,0.0
139203452,8,1528.0,1528.0,1532.0,1532.0,1413.0,1532.0,1525.0,1520.0,0.0,0.0,0.0,0.0,0.0,0.0,0.0,0.0
139228974,8,1528.0,1528.0,1532.0,1532.0,1413.0,1532.0,1525.0,1520.0,0.0,0.0,0.0,0.0,0.0,0.0,0.0,0.0
139253414,8,1527.0,1527.0,1532.0,1532.0,1413.0,1532.0,1525.0,1520.0,0.0,0.0,0.0,0.0,0.0,0.0,0.0,0.0
139273509,8,1528.0,1528.0,1532.0,1532.0,1413.0,1532.0,1525.0,1520.0,0.0,0.0,0.0,0.0,0.0,0.0,0.0,0.0
139299233,8,1528.0,1528.0,1532.0,1532.0,1413.0,1532.0,1525.0,1520.0,0.0,0.0,0.0,0.0,0.0,0.0,0.0,0.0
139323489,8,1527.0,1527.0,1532.0,1532.0,1413.0,1532.0,1525.0,1520.0,0.0,0.0,0.0,0.0,0.0,0.0,0.0,0.0
139348876,8,1527.0,1527.0,1532.0,1532.0,1413.0,1532.0,1525.0,1520.0,0.0,0.0,0.0,0.0,0.0,0.0,0.0,0.0
139369123,8,1528.0,1528.0,1532.0,1533.0,1413.0,1532.0,1525.0,1520.0,0.0,0.0,0.0,0.0,0.0,0.0,0.0,0.0
139393637,8,1527.0,1527.0,1533.0,1532.0,1413.0,1532.0,1525.0,1520.0,0.0,0.0,0.0,0.0,0.0,0.0,0.0,0.0
139413575,8,1528.0,1528.0,1533.0,1532.0,1413.0,1532.0,1525.0,1520.0,0.0,0.0,0.0,0.0,0.0,0.0,0.0,0.0
139433445,8,1528.0,1528.0,1532.0,1532.0,1413.0,1532.0,1525.0,1520.0,0.0,0.0,0.0,0.0,0.0,0.0,0.0,0.0
139459137,8,1527.0,1527.0,1533.0,1532.0,1413.0,1532.0,1525.0,1520.0,0.0,0.0,0.0,0.0,0.0,0.0,0.0,0.0
139479458,8,1527.0,1527.0,1532.0,1533.0,1413.0,1533.0,1525.0,1520.0,0.0,0.0,0.0,0.0,0.0,0.0,0.0,0.0
139499752,8,1527.0,1527.0,1532.0,1533.0,1413.0,1532.0,1525.0,1520.0,0.0,0.0,0.0,0.0,0.0,0.0,0.0,0.0
139523499,8,1528.0,1528.0,1532.0,1532.0,1413.0,1532.0,1525.0,1520.0,0.0,0.0,0.0,0.0,0.0,0.0,0.0,0.0
139543432,8,1528.0,1528.0,1532.0,1532.0,1413.0,1532.0,1525.0,1520.0,0.0,0.0,0.0,0.0,0.0,0.0,0.0,0.0
139563521,8,1527.0,1527.0,1532.0,1532.0,1412.0,1532.0,1525.0,1520.0,0.0,0.0,0.0,0.0,0.0,0.0,0.0,0.0
139583503,8,1527.0,1527.0,1532.0,1532.0,1412.0,1532.0,1525.0,1520.0,0.0,0.0,0.0,0.0,0.0,0.0,0.0,0.0
139609005,8,1527.0,1527.0,1532.0,1532.0,1412.0,1532.0,1525.0,1520.0,0.0,0.0,0.0,0.0,0.0,0.0,0.0,0.0
139633643,8,1527.0,1527.0,1532.0,1532.0,1412.0,1532.0,1525.0,1520.0,0.0,0.0,0.0,0.0,0.0,0.0,0.0,0.0
139653549,8,1527.0,1527.0,1532.0,1532.0,1412.0,1532.0,1525.0,1520.0,0.0,0.0,0.0,0.0,0.0,0.0,0.0,0.0
139673732,8,1527.0,1527.0,1532.0,1532.0,1412.0,1532.0,1525.0,1520.0,0.0,0.0,0.0,0.0,0.0,0.0,0.0,0.0
139699488,8,1527.0,1527.0,1532.0,1532.0,1412.0,1532.0,1525.0,1520.0,0.0,0.0,0.0,0.0,0.0,0.0,0.0,0.0
139719800,8,1527.0,1527.0,1533.0,1532.0,1412.0,1532.0,1525.0,1520.0,0.0,0.0,0.0,0.0,0.0,0.0,0.0,0.0
139743550,8,1527.0,1527.0,1532.0,1532.0,1412.0,1532.0,1525.0,1520.0,0.0,0.0,0.0,0.0,0.0,0.0,0.0,0.0
139763597,8,1527.0,1527.0,1532.0,1532.0,1412.0,1532.0,1525.0,1520.0,0.0,0.0,0.0,0.0,0.0,0.0,0.0,0.0
139789182,8,1527.0,1527.0,1532.0,1533.0,1412.0,1532.0,1525.0,1520.0,0.0,0.0,0.0,0.0,0.0,0.0,0.0,0.0
139813658,8,1527.0,1527.0,1532.0,1533.0,1412.0,1532.0,1525.0,1520.0,0.0,0.0,0.0,0.0,0.0,0.0,0.0,0.0
139833663,8,1527.0,1527.0,1532.0,1533.0,1412.0,1533.0,1525.0,1520.0,0.0,0.0,0.0,0.0,0.0,0.0,0.0,0.0
139859532,8,1527.0,1527.0,1533.0,1533.0,1412.0,1533.0,1525.0,1520.0,0.0,0.0,0.0,0.0,0.0,0.0,0.0,0.0
139879745,8,1527.0,1527.0,1532.0,1532.0,1412.0,1532.0,1525.0,1520.0,0.0,0.0,0.0,0.0,0.0,0.0,0.0,0.0
139903702,8,1527.0,1527.0,1532.0,1532.0,1412.0,1532.0,1525.0,1520.0,0.0,0.0,0.0,0.0,0.0,0.0,0.0,0.0
139923645,8,1527.0,1527.0,1532.0,1532.0,1412.0,1532.0,1525.0,1520.0,0.0,0.0,0.0,0.0,0.0,0.0,0.0,0.0
139948994,8,1527.0,1527.0,1532.0,1532.0,1412.0,1532.0,1525.0,1520.0,0.0,0.0,0.0,0.0,0.0,0.0,0.0,0.0
139973616,8,1527.0,1527.0,1532.0,1532.0,1412.0,1532.0,1525.0,1520.0,0.0,0.0,0.0,0.0,0.0,0.0,0.0,0.0
139999175,8,1527.0,1527.0,1532.0,1532.0,1412.0,1532.0,1525.0,1520.0,0.0,0.0,0.0,0.0,0.0,0.0,0.0,0.0
140019123,8,1527.0,1527.0,1532.0,1532.0,1412.0,1532.0,1525.0,1520.0,0.0,0.0,0.0,0.0,0.0,0.0,0.0,0.0
140039785,8,1527.0,1527.0,1533.0,1532.0,1412.0,1532.0,1525.0,1520.0,0.0,0.0,0.0,0.0,0.0,0.0,0.0,0.0
140063633,8,1527.0,1527.0,1532.0,1532.0,1412.0,1532.0,1525.0,1520.0,0.0,0.0,0.0,0.0,0.0,0.0,0.0,0.0
140098174,8,1527.0,1527.0,1532.0,1533.0,1412.0,1532.0,1525.0,1520.0,0.0,0.0,0.0,0.0,0.0,0.0,0.0,0.0
140113246,8,1527.0,1527.0,1532.0,1532.0,1412.0,1532.0,1525.0,1520.0,0.0,0.0,0.0,0.0,0.0,0.0,0.0,0.0
140133450,8,1526.0,1526.0,1532.0,1532.0,1412.0,1532.0,1525.0,1520.0,0.0,0.0,0.0,0.0,0.0,0.0,0.0,0.0
140153755,8,1527.0,1527.0,1532.0,1532.0,1412.0,1532.0,1525.0,1520.0,0.0,0.0,0.0,0.0,0.0,0.0,0.0,0.0
140179335,8,1527.0,1527.0,1532.0,1533.0,1412.0,1532.0,1525.0,1520.0,0.0,0.0,0.0,0.0,0.0,0.0,0.0,0.0
140199916,8,1527.0,1527.0,1532.0,1532.0,1412.0,1532.0,1525.0,1520.0,0.0,0.0,0.0,0.0,0.0,0.0,0.0,0.0
140223515,8,1527.0,1527.0,1532.0,1532.0,1412.0,1532.0,1525.0,1520.0,0.0,0.0,0.0,0.0,0.0,0.0,0.0,0.0
140243509,8,1527.0,1527.0,1533.0,1532.0,1412.0,1532.0,1525.0,1520.0,0.0,0.0,0.0,0.0,0.0,0.0,0.0,0.0
140269072,8,1527.0,1527.0,1533.0,1532.0,1412.0,1532.0,1525.0,1520.0,0.0,0.0,0.0,0.0,0.0,0.0,0.0,0.0
140543643,8,1528.0,1528.0,1532.0,1532.0,1412.0,1532.0,1525.0,1520.0,0.0,0.0,0.0,0.0,0.0,0.0,0.0,0.0
140563359,8,1528.0,1528.0,1532.0,1532.0,1412.0,1532.0,1525.0,1520.0,0.0,0.0,0.0,0.0,0.0,0.0,0.0,0.0
140583393,8,1528.0,1528.0,1532.0,1532.0,1413.0,1532.0,1525.0,1520.0,0.0,0.0,0.0,0.0,0.0,0.0,0.0,0.0
140603440,8,1528.0,1528.0,1532.0,1532.0,1413.0,1532.0,1525.0,1520.0,0.0,0.0,0.0,0.0,0.0,0.0,0.0,0.0
140629077,8,1528.0,1528.0,1532.0,1533.0,1413.0,1532.0,1525.0,1520.0,0.0,0.0,0.0,0.0,0.0,0.0,0.0,0.0
140649229,8,1528.0,1528.0,1532.0,1533.0,1413.0,1532.0,1525.0,1520.0,0.0,0.0,0.0,0.0,0.0,0.0,0.0,0.0
140669243,8,1527.0,1527.0,1532.0,1532.0,1413.0,1532.0,1525.0,1520.0,0.0,0.0,0.0,0.0,0.0,0.0,0.0,0.0
140693785,8,1528.0,1528.0,1532.0,1532.0,1413.0,1532.0,1525.0,1520.0,0.0,0.0,0.0,0.0,0.0,0.0,0.0,0.0
140719288,8,1527.0,1527.0,1533.0,1533.0,1413.0,1533.0,1525.0,1520.0,0.0,0.0,0.0,0.0,0.0,0.0,0.0,0.0
140743499,8,1528.0,1528.0,1533.0,1533.0,1413.0,1533.0,1525.0,1520.0,0.0,0.0,0.0,0.0,0.0,0.0,0.0,0.0
140768958,8,1528.0,1528.0,1532.0,1533.0,1413.0,1532.0,1525.0,1520.0,0.0,0.0,0.0,0.0,0.0,0.0,0.0,0.0
140793890,8,1527.0,1527.0,1532.0,1532.0,1413.0,1532.0,1525.0,1520.0,0.0,0.0,0.0,0.0,0.0,0.0,0.0,0.0
140813829,8,1528.0,1528.0,1532.0,1532.0,1413.0,1532.0,1525.0,1520.0,0.0,0.0,0.0,0.0,0.0,0.0,0.0,0.0
140839294,8,1528.0,1528.0,1532.0,1532.0,1413.0,1532.0,1525.0,1520.0,0.0,0.0,0.0,0.0,0.0,0.0,0.0,0.0
140859536,8,1527.0,1527.0,1532.0,1532.0,1413.0,1532.0,1525.0,1520.0,0.0,0.0,0.0,0.0,0.0,0.0,0.0,0.0
140883498,8,1528.0,1528.0,1532.0,1532.0,1413.0,1532.0,1525.0,1520.0,0.0,0.0,0.0,0.0,0.0,0.0,0.0,0.0
140903808,8,1528.0,1528.0,1532.0,1532.0,1413.0,1532.0,1525.0,1520.0,0.0,0.0,0.0,0.0,0.0,0.0,0.0,0.0
140931045,8,1527.0,1527.0,1532.0,1532.0,1413.0,1532.0,1525.0,1520.0,0.0,0.0,0.0,0.0,0.0,0.0,0.0,0.0
140953477,8,1528.0,1528.0,1533.0,1532.0,1413.0,1532.0,1525.0,1520.0,0.0,0.0,0.0,0.0,0.0,0.0,0.0,0.0
140979479,8,1528.0,1528.0,1533.0,1532.0,1413.0,1532.0,1525.0,1520.0,0.0,0.0,0.0,0.0,0.0,0.0,0.0,0.0
141003506,8,1527.0,1527.0,1532.0,1532.0,1413.0,1532.0,1525.0,1520.0,0.0,0.0,0.0,0.0,0.0,0.0,0.0,0.0
141023576,8,1528.0,1528.0,1533.0,1532.0,1413.0,1533.0,1525.0,1520.0,0.0,0.0,0.0,0.0,0.0,0.0,0.0,0.0
141043517,8,1528.0,1528.0,1532.0,1533.0,1413.0,1533.0,1525.0,1520.0,0.0,0.0,0.0,0.0,0.0,0.0,0.0,0.0
141069449,8,1528.0,1528.0,1533.0,1532.0,1413.0,1532.0,1525.0,1520.0,0.0,0.0,0.0,0.0,0.0,0.0,0.0,0.0
141093483,8,1528.0,1528.0,1532.0,1532.0,1413.0,1532.0,1525.0,1520.0,0.0,0.0,0.0,0.0,0.0,0.0,0.0,0.0
141130125,8,1528.0,1528.0,1532.0,1532.0,1413.0,1532.0,1525.0,1520.0,0.0,0.0,0.0,0.0,0.0,0.0,0.0,0.0
141163819,8,1528.0,1528.0,1532.0,1532.0,1413.0,1532.0,1525.0,1520.0,0.0,0.0,0.0,0.0,0.0,0.0,0.0,0.0
141183662,8,1528.0,1528.0,1532.0,1532.0,1413.0,1532.0,1525.0,1520.0,0.0,0.0,0.0,0.0,0.0,0.0,0.0,0.0
141209072,8,1528.0,1528.0,1532.0,1532.0,1413.0,1532.0,1525.0,1520.0,0.0,0.0,0.0,0.0,0.0,0.0,0.0,0.0
141229070,8,1528.0,1528.0,1533.0,1532.0,1413.0,1533.0,1525.0,1520.0,0.0,0.0,0.0,0.0,0.0,0.0,0.0,0.0
141253532,8,1528.0,1528.0,1533.0,1532.0,1413.0,1533.0,1525.0,1520.0,0.0,0.0,0.0,0.0,0.0,0.0,0.0,0.0
141273523,8,1528.0,1528.0,1533.0,1532.0,1413.0,1533.0,1525.0,1520.0,0.0,0.0,0.0,0.0,0.0,0.0,0.0,0.0
141299445,8,1528.0,1528.0,1532.0,1532.0,1413.0,1532.0,1525.0,1520.0,0.0,0.0,0.0,0.0,0.0,0.0,0.0,0.0
141323506,8,1527.0,1527.0,1532.0,1533.0,1413.0,1532.0,1525.0,1520.0,0.0,0.0,0.0,0.0,0.0,0.0,0.0,0.0
141348985,8,1527.0,1527.0,1532.0,1532.0,1413.0,1532.0,1525.0,1520.0,0.0,0.0,0.0,0.0,0.0,0.0,0.0,0.0
141369166,8,1527.0,1527.0,1532.0,1533.0,1413.0,1532.0,1525.0,1520.0,0.0,0.0,0.0,0.0,0.0,0.0,0.0,0.0
141393565,8,1526.0,1526.0,1532.0,1532.0,1413.0,1532.0,1525.0,1520.0,0.0,0.0,0.0,0.0,0.0,0.0,0.0,0.0
141419405,8,1526.0,1526.0,1532.0,1532.0,1413.0,1532.0,1525.0,1520.0,0.0,0.0,0.0,0.0,0.0,0.0,0.0,0.0
141443156,8,1527.0,1527.0,1532.0,1532.0,1413.0,1532.0,1525.0,1520.0,0.0,0.0,0.0,0.0,0.0,0.0,0.0,0.0
141463125,8,1526.0,1526.0,1532.0,1532.0,1413.0,1532.0,1525.0,1520.0,0.0,0.0,0.0,0.0,0.0,0.0,0.0,0.0
141483347,8,1526.0,1526.0,1532.0,1532.0,1413.0,1532.0,1525.0,1520.0,0.0,0.0,0.0,0.0,0.0,0.0,0.0,0.0
141503338,8,1527.0,1527.0,1532.0,1533.0,1413.0,1532.0,1525.0,1520.0,0.0,0.0,0.0,0.0,0.0,0.0,0.0,0.0
141530087,8,1527.0,1527.0,1532.0,1532.0,1413.0,1532.0,1525.0,1520.0,0.0,0.0,0.0,0.0,0.0,0.0,0.0,0.0
141553094,8,1527.0,1527.0,1532.0,1532.0,1413.0,1532.0,1525.0,1520.0,0.0,0.0,0.0,0.0,0.0,0.0,0.0,0.0
141573721,8,1527.0,1527.0,1532.0,1532.0,1413.0,1532.0,1525.0,1520.0,0.0,0.0,0.0,0.0,0.0,0.0,0.0,0.0
141599286,8,1527.0,1527.0,1532.0,1532.0,1413.0,1532.0,1525.0,1520.0,0.0,0.0,0.0,0.0,0.0,0.0,0.0,0.0
141623634,8,1527.0,1527.0,1532.0,1532.0,1413.0,1532.0,1525.0,1520.0,0.0,0.0,0.0,0.0,0.0,0.0,0.0,0.0
141649044,8,1527.0,1527.0,1532.0,1532.0,1413.0,1532.0,1525.0,1520.0,0.0,0.0,0.0,0.0,0.0,0.0,0.0,0.0
141669219,8,1527.0,1527.0,1532.0,1532.0,1413.0,1532.0,1525.0,1520.0,0.0,0.0,0.0,0.0,0.0,0.0,0.0,0.0
141693497,8,1527.0,1527.0,1533.0,1532.0,1413.0,1532.0,1525.0,1520.0,0.0,0.0,0.0,0.0,0.0,0.0,0.0,0.0
141713398,8,1527.0,1527.0,1532.0,1532.0,1413.0,1532.0,1525.0,1520.0,0.0,0.0,0.0,0.0,0.0,0.0,0.0,0.0
141739197,8,1527.0,1527.0,1532.0,1532.0,1413.0,1532.0,1525.0,1520.0,0.0,0.0,0.0,0.0,0.0,0.0,0.0,0.0
141759157,8,1527.0,1527.0,1532.0,1532.0,1413.0,1532.0,1525.0,1520.0,0.0,0.0,0.0,0.0,0.0,0.0,0.0,0.0
141779330,8,1527.0,1527.0,1532.0,1532.0,1413.0,1532.0,1525.0,1520.0,0.0,0.0,0.0,0.0,0.0,0.0,0.0,0.0
141799599,8,1527.0,1527.0,1532.0,1532.0,1413.0,1532.0,1525.0,1520.0,0.0,0.0,0.0,0.0,0.0,0.0,0.0,0.0
141823085,8,1527.0,1527.0,1532.0,1532.0,1413.0,1532.0,1525.0,1520.0,0.0,0.0,0.0,0.0,0.0,0.0,0.0,0.0
141843393,8,1527.0,1527.0,1532.0,1532.0,1413.0,1532.0,1525.0,1520.0,0.0,0.0,0.0,0.0,0.0,0.0,0.0,0.0
141863506,8,1527.0,1527.0,1532.0,1532.0,1413.0,1532.0,1525.0,1520.0,0.0,0.0,0.0,0.0,0.0,0.0,0.0,0.0
141889371,8,1527.0,1527.0,1532.0,1532.0,1413.0,1532.0,1525.0,1520.0,0.0,0.0,0.0,0.0,0.0,0.0,0.0,0.0
141913370,8,1526.0,1526.0,1532.0,1532.0,1413.0,1532.0,1525.0,1520.0,0.0,0.0,0.0,0.0,0.0,0.0,0.0,0.0
141933421,8,1528.0,1527.0,1532.0,1532.0,1413.0,1532.0,1525.0,1520.0,0.0,0.0,0.0,0.0,0.0,0.0,0.0,0.0
141959461,8,1526.0,1526.0,1532.0,1533.0,1413.0,1532.0,1525.0,1520.0,0.0,0.0,0.0,0.0,0.0,0.0,0.0,0.0
141983405,8,1526.0,1526.0,1532.0,1532.0,1413.0,1532.0,1525.0,1520.0,0.0,0.0,0.0,0.0,0.0,0.0,0.0,0.0
142003401,8,1526.0,1526.0,1533.0,1532.0,1413.0,1532.0,1525.0,1520.0,0.0,0.0,0.0,0.0,0.0,0.0,0.0,0.0
142023499,8,1527.0,1527.0,1532.0,1532.0,1413.0,1532.0,1525.0,1520.0,0.0,0.0,0.0,0.0,0.0,0.0,0.0,0.0
142048908,8,1526.0,1526.0,1532.0,1532.0,1413.0,1532.0,1525.0,1520.0,0.0,0.0,0.0,0.0,0.0,0.0,0.0,0.0
142069313,8,1526.0,1526.0,1532.0,1532.0,1413.0,1532.0,1525.0,1520.0,0.0,0.0,0.0,0.0,0.0,0.0,0.0,0.0
142093427,8,1527.0,1527.0,1532.0,1532.0,1413.0,1532.0,1525.0,1520.0,0.0,0.0,0.0,0.0,0.0,0.0,0.0,0.0
142119337,8,1526.0,1526.0,1532.0,1532.0,1413.0,1532.0,1525.0,1520.0,0.0,0.0,0.0,0.0,0.0,0.0,0.0,0.0
142151734,8,1527.0,1527.0,1532.0,1532.0,1413.0,1532.0,1525.0,1520.0,0.0,0.0,0.0,0.0,0.0,0.0,0.0,0.0
142169258,8,1528.0,1528.0,1532.0,1532.0,1413.0,1532.0,1525.0,1520.0,0.0,0.0,0.0,0.0,0.0,0.0,0.0,0.0
142193046,8,1529.0,1529.0,1533.0,1532.0,1413.0,1533.0,1525.0,1520.0,0.0,0.0,0.0,0.0,0.0,0.0,0.0,0.0
142213366,8,1528.0,1528.0,1532.0,1533.0,1413.0,1532.0,1525.0,1520.0,0.0,0.0,0.0,0.0,0.0,0.0,0.0,0.0
142239375,8,1527.0,1527.0,1532.0,1533.0,1413.0,1533.0,1525.0,1520.0,0.0,0.0,0.0,0.0,0.0,0.0,0.0,0.0
142259389,8,1528.0,1528.0,1533.0,1532.0,1413.0,1532.0,1525.0,1520.0,0.0,0.0,0.0,0.0,0.0,0.0,0.0,0.0
142283075,8,1528.0,1528.0,1532.0,1532.0,1413.0,1532.0,1525.0,1520.0,0.0,0.0,0.0,0.0,0.0,0.0,0.0,0.0
142309464,8,1528.0,1528.0,1532.0,1532.0,1413.0,1532.0,1525.0,1520.0,0.0,0.0,0.0,0.0,0.0,0.0,0.0,0.0
142330150,8,1528.0,1528.0,1532.0,1533.0,1413.0,1532.0,1525.0,1520.0,0.0,0.0,0.0,0.0,0.0,0.0,0.0,0.0
142353483,8,1528.0,1528.0,1532.0,1532.0,1413.0,1532.0,1525.0,1520.0,0.0,0.0,0.0,0.0,0.0,0.0,0.0,0.0
142373451,8,1528.0,1528.0,1532.0,1532.0,1413.0,1532.0,1525.0,1520.0,0.0,0.0,0.0,0.0,0.0,0.0,0.0,0.0
142399325,8,1528.0,1528.0,1533.0,1532.0,1413.0,1532.0,1525.0,1520.0,0.0,0.0,0.0,0.0,0.0,0.0,0.0,0.0
142419696,8,1528.0,1528.0,1532.0,1532.0,1413.0,1532.0,1525.0,1520.0,0.0,0.0,0.0,0.0,0.0,0.0,0.0,0.0
142443040,8,1528.0,1528.0,1532.0,1532.0,1413.0,1532.0,1525.0,1520.0,0.0,0.0,0.0,0.0,0.0,0.0,0.0,0.0
142463468,8,1528.0,1528.0,1532.0,1533.0,1413.0,1532.0,1525.0,1520.0,0.0,0.0,0.0,0.0,0.0,0.0,0.0,0.0
142489004,8,1528.0,1528.0,1533.0,1533.0,1413.0,1533.0,1525.0,1520.0,0.0,0.0,0.0,0.0,0.0,0.0,0.0,0.0
142513494,8,1528.0,1528.0,1533.0,1532.0,1413.0,1532.0,1525.0,1520.0,0.0,0.0,0.0,0.0,0.0,0.0,0.0,0.0
142539071,8,1528.0,1528.0,1533.0,1532.0,1413.0,1532.0,1525.0,1520.0,0.0,0.0,0.0,0.0,0.0,0.0,0.0,0.0
142563409,8,1527.0,1527.0,1532.0,1532.0,1413.0,1532.0,1525.0,1520.0,0.0,0.0,0.0,0.0,0.0,0.0,0.0,0.0
142583567,8,1528.0,1528.0,1533.0,1532.0,1413.0,1532.0,1525.0,1520.0,0.0,0.0,0.0,0.0,0.0,0.0,0.0,0.0
142609063,8,1528.0,1528.0,1532.0,1532.0,1413.0,1532.0,1525.0,1520.0,0.0,0.0,0.0,0.0,0.0,0.0,0.0,0.0
142629103,8,1528.0,1528.0,1532.0,1532.0,1413.0,1532.0,1525.0,1520.0,0.0,0.0,0.0,0.0,0.0,0.0,0.0,0.0
144833485,8,1528.0,1528.0,1533.0,1532.0,1000.0,1532.0,1525.0,1520.0,0.0,0.0,0.0,0.0,0.0,0.0,0.0,0.0
144873418,8,1528.0,1528.0,1532.0,1532.0,1000.0,1532.0,1525.0,1520.0,0.0,0.0,0.0,0.0,0.0,0.0,0.0,0.0
144899448,8,1527.0,1527.0,1532.0,1532.0,1000.0,1532.0,1525.0,1520.0,0.0,0.0,0.0,0.0,0.0,0.0,0.0,0.0
144923011,8,1528.0,1528.0,1532.0,1532.0,1000.0,1532.0,1525.0,1520.0,0.0,0.0,0.0,0.0,0.0,0.0,0.0,0.0
144943461,8,1528.0,1528.0,1532.0,1532.0,1000.0,1532.0,1525.0,1520.0,0.0,0.0,0.0,0.0,0.0,0.0,0.0,0.0
144969239,8,1528.0,1528.0,1532.0,1532.0,1000.0,1532.0,1525.0,1520.0,0.0,0.0,0.0,0.0,0.0,0.0,0.0,0.0
