timestamp,indicated_airspeed_m_s,true_airspeed_m_s,air_temperature_celsius,confidence
128098739,-2.9100654,-2.9864852,29.474998,1.0
128163093,-2.9066215,-2.9829247,29.46,1.0
128173794,-2.9067523,-2.9831088,29.47,1.0
128184488,-2.9069955,-2.9833581,29.47,1.0
128195222,-2.9073172,-2.9836884,29.47,1.0
128206088,-2.9076889,-2.984066,29.47,1.0
128216786,-2.9080873,-2.984524,29.48,1.0
128227497,-2.9084935,-2.9847684,29.445,1.0
128238208,-2.908893,-2.9854991,29.51,1.0
128248898,-2.909275,-2.985669,29.465,1.0
128259687,-2.909632,-2.985986,29.455,1.0
128270488,-2.909958,-2.986345,29.46,1.0
128281186,-2.9102502,-2.9866946,29.47,1.0
128291894,-2.9105074,-2.98686,29.449999,1.0
128302587,-2.9106205,-2.986976,29.449999,1.0
128313288,-2.9105096,-2.9868963,29.46,1.0
128324003,-2.9102306,-2.9866843,29.474998,1.0
128334698,-2.9097219,-2.9859893,29.439999,1.0
128345441,-2.9089434,-2.9853384,29.47,1.0
128356140,-2.9079823,-2.9842799,29.449999,1.0
128366838,-2.906911,-2.9831061,29.435,1.0
128377544,-2.9058988,-2.9822645,29.474998,1.0
128388248,-2.9050734,-2.9812946,29.449999,1.0
128398953,-2.9044168,-2.9806206,29.449999,1.0
128409676,-2.90402,-2.9801948,29.449999,1.0
128420464,-2.9039447,-2.9801912,29.465,1.0
128431162,-2.904118,-2.9804432,29.48,1.0
128441934,-2.9044764,-2.9807124,29.46,1.0
128452671,-2.9049652,-2.9812877,29.474998,1.0
128463372,-2.9055386,-2.9818516,29.47,1.0
128474080,-2.9061587,-2.9824488,29.465,1.0
128484818,-2.9067953,-2.9828553,29.414999,1.0
128495612,-2.9074242,-2.9838214,29.48,1.0
128506376,-2.9080281,-2.9843674,29.465,1.0
128517094,-2.9085934,-2.9850016,29.47,1.0
128527796,-2.9091117,-2.985706,29.505,1.0
128538489,-2.9095778,-2.9858885,29.445,1.0
128549191,-2.9099896,-2.986533,29.49,1.0
128559904,-2.9102366,-2.9868114,29.494999,1.0
128570610,-2.9102407,-2.9865994,29.455,1.0
128581318,-2.910058,-2.9863875,29.449999,1.0
128592025,-2.9097383,-2.986133,29.465,1.0
128602720,-2.9094331,-2.9858942,29.48,1.0
128613605,-2.9092581,-2.9857147,29.48,1.0
128624380,-2.909189,-2.9855695,29.465,1.0
128635085,-2.9092026,-2.9856195,29.47,1.0
128645785,-2.9092793,-2.9858212,29.494999,1.0
128656537,-2.909402,-2.9857497,29.455,1.0
128667236,-2.909556,-2.9859324,29.46,1.0
128678008,-2.909729,-2.985987,29.435,1.0
128688724,-2.9099116,-2.98623,29.449999,1.0
128699428,-2.9100952,-2.9864428,29.455,1.0
128710123,-2.9102743,-2.9865282,29.435,1.0
128720824,-2.9104445,-2.9868753,29.47,1.0
128731522,-2.9106019,-2.9869294,29.455,1.0
128742274,-2.9107451,-2.9871013,29.46,1.0
128753009,-2.910763,-2.987021,29.439999,1.0
128763794,-2.910575,-2.9870746,29.49,1.0
128774494,-2.9103446,-2.9867148,29.465,1.0
128785208,-2.9101987,-2.9865403,29.46,1.0
128795905,-2.910122,-2.9866393,29.49,1.0
128806690,-2.9101007,-2.9865189,29.47,1.0
128817403,-2.9101224,-2.9865165,29.465,1.0
128828095,-2.9101768,-2.9865723,29.465,1.0
128838874,-2.910254,-2.9865527,29.445,1.0
128849592,-2.9103467,-2.9866896,29.455,1.0
128860431,-2.9104483,-2.9866214,29.42,1.0
128871129,-2.910553,-2.9870002,29.474998,1.0
128881830,-2.9106574,-2.9871566,29.484999,1.0
128892524,-2.9107583,-2.9871972,29.47,1.0
128903289,-2.9108531,-2.9872947,29.47,1.0
128914046,-2.9109402,-2.9874089,29.474998,1.0
128924739,-2.911019,-2.98749,29.474998,1.0
128935487,-2.9110887,-2.9875364,29.47,1.0
128946182,-2.9111493,-2.9876723,29.484999,1.0
128956889,-2.911201,-2.987754,29.49,1.0
128967590,-2.911135,-2.9876862,29.49,1.0
128978286,-2.9108706,-2.9873903,29.484999,1.0
128989075,-2.9105728,-2.987134,29.494999,1.0
128999770,-2.9103677,-2.9868002,29.47,1.0
129010468,-2.910241,-2.9865997,29.455,1.0
129021175,-2.910177,-2.9864357,29.435,1.0
129031893,-2.910164,-2.9864717,29.445,1.0
129042583,-2.9101906,-2.9865234,29.449999,1.0
129053287,-2.910246,-2.9866767,29.465,1.0
129064009,-2.910322,-2.9868531,29.484999,1.0
129074704,-2.9104116,-2.9868712,29.47,1.0
129085466,-2.9105086,-2.9869463,29.465,1.0
129096167,-2.9106085,-2.986975,29.449999,1.0
129106867,-2.910707,-2.9870512,29.445,1.0
129139002,-2.910972,-2.9873145,29.449999,1.0
129149713,-2.9110453,-2.9873896,29.449999,1.0
129160446,-2.9111102,-2.987678,29.494999,1.0
129171161,-2.9111664,-2.9877262,29.49,1.0
129181885,-2.911214,-2.987553,29.445,1.0
129192592,-2.9112544,-2.9877176,29.47,1.0
129203286,-2.911287,-2.9875782,29.435,1.0
129214012,-2.911313,-2.9876473,29.445,1.0
129224823,-2.9113333,-2.987717,29.455,1.0
129235575,-2.9113483,-2.9878314,29.474998,1.0
129246278,-2.911359,-2.9877434,29.455,1.0
129257008,-2.9113662,-2.9877264,29.449999,1.0
129267710,-2.91137,-2.987829,29.47,1.0
129278405,-2.9113715,-2.987758,29.449999,1.0
129289105,-2.911371,-2.9878805,29.474998,1.0
129299883,-2.911369,-2.9878292,29.465,1.0
129310584,-2.9113662,-2.9878263,29.465,1.0
129321289,-2.9113624,-2.988001,29.505,1.0
129332011,-2.9113584,-2.9879725,29.5,1.0
129342715,-2.9113538,-2.9878693,29.48,1.0
129353410,-2.9113495,-2.9877658,29.46,1.0
129364120,-2.9113452,-2.9878109,29.47,1.0
129374897,-2.9112315,-2.9877658,29.48,1.0
129385600,-2.9108183,-2.9871197,29.435,1.0
129396302,-2.9100788,-2.9865332,29.47,1.0
129407012,-2.9091122,-2.9855413,29.47,1.0
129417729,-2.9081113,-2.9844155,29.449999,1.0
129428586,-2.9072251,-2.9835062,29.449999,1.0
129439289,-2.906455,-2.982913,29.49,1.0
129450026,-2.9059076,-2.9820802,29.435,1.0
129460720,-2.9056575,-2.9818974,29.449999,1.0
129471429,-2.9056432,-2.981981,29.47,1.0
129482209,-2.9058099,-2.982103,29.46,1.0
129492961,-2.9061103,-2.982362,29.449999,1.0
129503677,-2.9065034,-2.9828491,29.465,1.0
129514390,-2.9069555,-2.9833376,29.47,1.0
129525096,-2.907438,-2.9837832,29.46,1.0
129535802,-2.9079292,-2.9842873,29.46,1.0
129546572,-2.9084117,-2.9846594,29.435,1.0
129557275,-2.9088721,-2.985193,29.449999,1.0
129568013,-2.9093015,-2.985732,29.47,1.0
129578717,-2.9096935,-2.986159,29.474998,1.0
129589417,-2.9100447,-2.9865193,29.474998,1.0
129600116,-2.9103534,-2.9866884,29.445,1.0
129610810,-2.9106202,-2.9870853,29.47,1.0
129621577,-2.9108467,-2.9875152,29.51,1.0
129632295,-2.9110346,-2.9874861,29.465,1.0
129643010,-2.9111876,-2.9877417,29.484999,1.0
129653725,-2.911309,-2.9878416,29.48,1.0
129664427,-2.9114025,-2.9878795,29.474998,1.0
129675142,-2.9114714,-2.9879994,29.484999,1.0
129685872,-2.9115195,-2.988148,29.505,1.0
129696588,-2.91155,-2.9880064,29.47,1.0
129707301,-2.9115665,-2.9880478,29.474998,1.0
129718008,-2.9114616,-2.9879441,29.474998,1.0
129728723,-2.911048,-2.9875684,29.484999,1.0
129739428,-2.910301,-2.9868019,29.484999,1.0
129750128,-2.9093215,-2.9857228,29.47,1.0
129760827,-2.9081948,-2.984616,29.48,1.0
129771703,-2.90699,-2.983372,29.48,1.0
129782403,-2.9057631,-2.9819157,29.439999,1.0
129793109,-2.9045575,-2.980925,29.49,1.0
129803827,-2.9034057,-2.9793983,29.42,1.0
129814525,-2.9023314,-2.9785173,29.465,1.0
129825237,-2.9013495,-2.9774506,29.449999,1.0
129836131,-2.9004698,-2.976474,29.435,1.0
129846898,-2.8996956,-2.97595,29.49,1.0
129857609,-2.8990264,-2.9751647,29.47,1.0
129868315,-2.8984585,-2.9744835,29.449999,1.0
129879008,-2.8979864,-2.9740236,29.455,1.0
129889698,-2.897602,-2.9736047,29.449999,1.0
129900450,-2.8972971,-2.9732428,29.439999,1.0
129911147,-2.8970625,-2.9729774,29.435,1.0
129921924,-2.8968892,-2.9726276,29.4,1.0
129932633,-2.8967683,-2.9729629,29.494999,1.0
129943327,-2.8966916,-2.9728591,29.49,1.0
129954034,-2.8966506,-2.9725718,29.439999,1.0
129964725,-2.8966384,-2.9726086,29.449999,1.0
129975460,-2.8966486,-2.9727664,29.48,1.0
129986155,-2.896676,-2.9728189,29.484999,1.0
129996860,-2.8967154,-2.9728591,29.484999,1.0
130007580,-2.8967628,-2.9729323,29.49,1.0
130018289,-2.8968148,-2.972814,29.455,1.0
130029001,-2.896869,-2.9730413,29.49,1.0
130039695,-2.8969228,-2.9729028,29.455,1.0
130050534,-2.8969748,-2.97303,29.47,1.0
130061231,-2.8970237,-2.9731784,29.49,1.0
130072027,-2.897069,-2.9731019,29.465,1.0
130082723,-2.8971097,-2.9733403,29.505,1.0
130093478,-2.8971457,-2.9732618,29.48,1.0
130104246,-2.8971772,-2.9732451,29.47,1.0
130114965,-2.8972042,-2.9731746,29.449999,1.0
130125662,-2.8972268,-2.9732714,29.465,1.0
130136369,-2.8972452,-2.973226,29.439999,1.0
130147068,-2.8972602,-2.9734135,29.474998,1.0
130157915,-2.8972716,-2.973499,29.49,1.0
130168614,-2.8972805,-2.9735081,29.49,1.0
130179309,-2.897287,-2.973441,29.474998,1.0
130190015,-2.897291,-2.9734695,29.48,1.0
130200767,-2.8972933,-2.973336,29.465,1.0
130211594,-2.8972943,-2.9733615,29.47,1.0
130222286,-2.8972943,-2.9732633,29.449999,1.0
130233002,-2.8972933,-2.9732864,29.455,1.0
130243760,-2.8972921,-2.9733837,29.474998,1.0
130254458,-2.89729,-2.9734602,29.484999,1.0
130265160,-2.8972878,-2.9733105,29.455,1.0
130275865,-2.8972855,-2.9733326,29.46,1.0
130286562,-2.897283,-2.9732072,29.435,1.0
130297327,-2.8972807,-2.9732542,29.445,1.0
130308087,-2.8972783,-2.9735007,29.494999,1.0
130318790,-2.8972764,-2.973278,29.449999,1.0
130329495,-2.8972745,-2.973153,29.425,1.0
130340186,-2.8973832,-2.9733632,29.445,1.0
130350883,-2.897793,-2.9738326,29.455,1.0
130361580,-2.8984208,-2.9745762,29.47,1.0
130372301,-2.8989758,-2.9750721,29.455,1.0
130383013,-2.8993475,-2.975429,29.449999,1.0
130393718,-2.899567,-2.975851,29.49,1.0
130404437,-2.8996632,-2.9756546,29.429998,1.0
130415150,-2.8996618,-2.975715,29.449999,1.0
130425888,-2.8995862,-2.9756129,29.445,1.0
130436586,-2.8994558,-2.9757738,29.505,1.0
130447289,-2.899287,-2.9755268,29.49,1.0
130457997,-2.8990948,-2.975256,29.474998,1.0
130468690,-2.8988903,-2.9751344,29.49,1.0
130479426,-2.8986828,-2.9748478,29.474998,1.0
130490123,-2.8984797,-2.9746394,29.474998,1.0
130500819,-2.8982863,-2.974441,29.474998,1.0
130511538,-2.898106,-2.9743052,29.484999,1.0
130522243,-2.8979418,-2.9740837,29.474998,1.0
130532966,-2.897795,-2.9738839,29.465,1.0
130543774,-2.8976657,-2.97353,29.42,1.0
130554469,-2.8975546,-2.9736617,29.47,1.0
130565169,-2.8974602,-2.9732947,29.414999,1.0
130575934,-2.897382,-2.9735215,29.47,1.0
130586636,-2.8973184,-2.9735544,29.49,1.0
130597389,-2.8972678,-2.9732323,29.435,1.0
130608094,-2.8972294,-2.973365,29.47,1.0
130618801,-2.897201,-2.9733357,29.47,1.0
130629535,-2.8971815,-2.973237,29.46,1.0
130640463,-2.8971689,-2.9731996,29.455,1.0
130651159,-2.8971624,-2.973193,29.455,1.0
130661950,-2.897161,-2.9733386,29.484999,1.0
130672647,-2.897163,-2.9731688,29.449999,1.0
130683337,-2.8971677,-2.9732041,29.46,1.0
130694046,-2.8971746,-2.9733098,29.48,1.0
130704748,-2.8971827,-2.9732935,29.474998,1.0
130715458,-2.8971915,-2.9731061,29.435,1.0
130726159,-2.8972006,-2.973312,29.474998,1.0
130736854,-2.8972096,-2.9732473,29.46,1.0
130747566,-2.8972185,-2.9733057,29.47,1.0
130758275,-2.8972266,-2.9734366,29.494999,1.0
130769048,-2.8972342,-2.9734445,29.494999,1.0
130779741,-2.8972409,-2.9733531,29.474998,1.0
130790476,-2.897247,-2.9733179,29.465,1.0
130801179,-2.8972523,-2.9733722,29.474998,1.0
130811874,-2.8972566,-2.973254,29.449999,1.0
130822568,-2.8972604,-2.973307,29.46,1.0
130833276,-2.8972635,-2.9732857,29.455,1.0
130843999,-2.897266,-2.973325,29.47,1.0
130854765,-2.8972678,-2.9733024,29.465,1.0
130865504,-2.8972695,-2.9732547,29.455,1.0
130876231,-2.8972704,-2.9733298,29.47,1.0
130886938,-2.897271,-2.9735267,29.51,1.0
130897707,-2.8972714,-2.9733634,29.47,1.0
130908404,-2.8972714,-2.9734619,29.49,1.0
130919119,-2.8972714,-2.9734128,29.48,1.0
130929813,-2.8972714,-2.97329,29.455,1.0
130940571,-2.897271,-2.9731665,29.429998,1.0
130951273,-2.897271,-2.9733374,29.47,1.0
130962049,-2.8972704,-2.973239,29.449999,1.0
130972744,-2.89727,-2.973361,29.474998,1.0
130983634,-2.8972695,-2.973262,29.455,1.0
130994340,-2.8972692,-2.9732618,29.455,1.0
131005050,-2.8972688,-2.9734583,29.494999,1.0
131015743,-2.8972685,-2.9734514,29.49,1.0
131026440,-2.897268,-2.973451,29.49,1.0
131037138,-2.8972678,-2.973279,29.455,1.0
131047950,-2.8972678,-2.973279,29.455,1.0
131058688,-2.8972673,-2.9733593,29.47,1.0
131069430,-2.8972673,-2.9734087,29.48,1.0
131080134,-2.897267,-2.973089,29.414999,1.0
131090829,-2.897267,-2.9734821,29.494999,1.0
131101527,-2.8972669,-2.9733589,29.47,1.0
131112232,-2.8972666,-2.973285,29.455,1.0
131122983,-2.8972666,-2.973334,29.465,1.0
131133683,-2.8972666,-2.9733489,29.465,1.0
131144382,-2.8972666,-2.9732015,29.435,1.0
131155082,-2.8972666,-2.9735453,29.505,1.0
131165797,-2.8972666,-2.9732015,29.435,1.0
131176537,-2.8972666,-2.9732997,29.455,1.0
131187234,-2.8972666,-2.9733324,29.47,1.0
131197999,-2.8972666,-2.9733324,29.47,1.0
131208726,-2.8972666,-2.9732833,29.46,1.0
131219428,-2.8972666,-2.9733078,29.465,1.0
131230125,-2.8972666,-2.9734304,29.49,1.0
131240832,-2.8972666,-2.973357,29.474998,1.0
131251533,-2.8972666,-2.9732888,29.455,1.0
131262288,-2.8972666,-2.9733624,29.47,1.0
131273010,-2.8972669,-2.9733136,29.46,1.0
131283732,-2.8972669,-2.9735346,29.505,1.0
131294425,-2.8972669,-2.9733872,29.474998,1.0
131305144,-2.8972669,-2.9733615,29.474998,1.0
131315887,-2.8972669,-2.9733372,29.47,1.0
131326684,-2.8972669,-2.9732141,29.445,1.0
131337440,-2.8972669,-2.9734352,29.49,1.0
131348135,-2.8972669,-2.9733627,29.47,1.0
131358870,-2.8972669,-2.9733627,29.47,1.0
131369564,-2.8972669,-2.9733381,29.465,1.0
131380461,-2.8972669,-2.9733627,29.47,1.0
131391160,-2.8972669,-2.9733627,29.47,1.0
131401962,-2.8972669,-2.9733627,29.47,1.0
131412667,-2.8972669,-2.9733703,29.47,1.0
131423375,-2.8972669,-2.9734683,29.49,1.0
131434069,-2.8972669,-2.9734683,29.49,1.0
131444819,-2.8972669,-2.9733946,29.474998,1.0
131455572,-2.8972669,-2.9733946,29.474998,1.0
131466338,-2.8972669,-2.9734623,29.484999,1.0
131477036,-2.8972669,-2.9733884,29.47,1.0
131487738,-2.8972669,-2.9734375,29.48,1.0
131498624,-2.8972669,-2.973364,29.465,1.0
131509389,-2.8972669,-2.9733357,29.46,1.0
131520095,-2.8972669,-2.9733357,29.46,1.0
131530819,-2.8972669,-2.9732866,29.449999,1.0
131541563,-2.8972669,-2.9732866,29.449999,1.0
131552301,-2.8972669,-2.9734828,29.49,1.0
131563021,-2.8972669,-2.9733357,29.46,1.0
131573717,-2.8972669,-2.9735556,29.51,1.0
131584411,-2.8972669,-2.9733098,29.46,1.0
131595127,-2.8972669,-2.9733589,29.47,1.0
131605875,-2.8972669,-2.9733837,29.474998,1.0
131616574,-2.8972669,-2.9733298,29.47,1.0
131627328,-2.8972669,-2.9733543,29.474998,1.0
131638093,-2.8972669,-2.9733298,29.47,1.0
131648804,-2.8972669,-2.9733543,29.474998,1.0
131659528,-2.8972669,-2.973428,29.49,1.0
131670228,-2.8972669,-2.973412,29.48,1.0
131681070,-2.8972669,-2.9734612,29.49,1.0
131691771,-2.8972669,-2.9733627,29.47,1.0
131702462,-2.8972669,-2.9733872,29.474998,1.0
131713180,-2.8972669,-2.9733872,29.474998,1.0
131723923,-2.8972669,-2.973412,29.48,1.0
131734686,-2.8972669,-2.9734807,29.5,1.0
131745436,-2.8972669,-2.9734313,29.49,1.0
131756164,-2.8972669,-2.9733577,29.474998,1.0
131766864,-2.8972669,-2.9733334,29.47,1.0
131777617,-2.8972669,-2.9735298,29.51,1.0
131788370,-2.8972669,-2.9734106,29.484999,1.0
131799214,-2.8972669,-2.9733372,29.47,1.0
131809968,-2.8972669,-2.9735336,29.51,1.0
131820661,-2.8972669,-2.9734843,29.5,1.0
131831402,-2.8972669,-2.9733481,29.47,1.0
131842107,-2.8972669,-2.9734461,29.49,1.0
131852981,-2.8972669,-2.9733481,29.47,1.0
131863679,-2.8972669,-2.9732742,29.455,1.0
131874472,-2.8972669,-2.9734461,29.49,1.0
131885171,-2.8972669,-2.9734461,29.49,1.0
131895864,-2.8972669,-2.9733827,29.48,1.0
131906576,-2.8972669,-2.9733334,29.47,1.0
131917286,-2.8972669,-2.9733827,29.48,1.0
131928138,-2.8972669,-2.9733577,29.474998,1.0
131938880,-2.8972669,-2.9732351,29.449999,1.0
131949573,-2.8972669,-2.973239,29.449999,1.0
131960294,-2.8972669,-2.973239,29.449999,1.0
131971021,-2.8972669,-2.973239,29.449999,1.0
131981718,-2.8972669,-2.9733372,29.47,1.0
131992494,-2.8972669,-2.9732804,29.46,1.0
132003290,-2.8972669,-2.9734035,29.484999,1.0
132014069,-2.8972669,-2.973428,29.49,1.0
132024828,-2.8972669,-2.973379,29.48,1.0
132035660,-2.8972669,-2.9732313,29.449999,1.0
132046365,-2.8972669,-2.9733543,29.474998,1.0
132057135,-2.8972669,-2.9733899,29.48,1.0
132068045,-2.8972669,-2.973316,29.465,1.0
132078779,-2.8972669,-2.9732425,29.449999,1.0
132089474,-2.8972669,-2.973144,29.429998,1.0
132100444,-2.8972669,-2.9734635,29.494999,1.0
132111144,-2.8972669,-2.97351,29.5,1.0
132121890,-2.8972669,-2.973412,29.48,1.0
132132597,-2.8972669,-2.973412,29.48,1.0
132143320,-2.897377,-2.9734757,29.47,1.0
132154078,-2.8976784,-2.9737482,29.47,1.0
132164830,-2.8980062,-2.9739864,29.449999,1.0
132175572,-2.8982344,-2.9743924,29.484999,1.0
132186277,-2.8983788,-2.9745162,29.48,1.0
132197006,-2.8984547,-2.9743974,29.439999,1.0
132207757,-2.898476,-2.974665,29.49,1.0
132218574,-2.8984542,-2.9744387,29.449999,1.0
132229345,-2.8984,-2.9743588,29.445,1.0
132240080,-2.8983235,-2.9745014,29.49,1.0
132250802,-2.8982317,-2.9742105,29.449999,1.0
132261506,-2.8981314,-2.9739797,29.414999,1.0
132272200,-2.8980274,-2.9741187,29.465,1.0
132282906,-2.897924,-2.9740615,29.474998,1.0
132293730,-2.897824,-2.9740329,29.49,1.0
132304424,-2.89773,-2.9738626,29.474998,1.0
132315150,-2.8976438,-2.9739387,29.51,1.0
132325882,-2.8975658,-2.9737113,29.48,1.0
132336578,-2.8974967,-2.9736402,29.48,1.0
132347300,-2.8974369,-2.9736278,29.49,1.0
132358021,-2.8973851,-2.9733047,29.435,1.0
132368714,-2.8973422,-2.9736292,29.51,1.0
132379441,-2.897307,-2.9734075,29.47,1.0
132390134,-2.8972785,-2.9734275,29.48,1.0
132400844,-2.8972566,-2.973307,29.46,1.0
132411577,-2.8972402,-2.9735355,29.51,1.0
132422275,-2.897228,-2.9733927,29.484999,1.0
132433078,-2.8972204,-2.973385,29.484999,1.0
132443775,-2.8972156,-2.9733555,29.48,1.0
132454470,-2.8972137,-2.9731572,29.439999,1.0
132465184,-2.897214,-2.973403,29.49,1.0
132475884,-2.8972158,-2.973362,29.484999,1.0
132486583,-2.897219,-2.9734633,29.505,1.0
132497296,-2.8972225,-2.973123,29.435,1.0
132508005,-2.8972268,-2.9734468,29.5,1.0
132518704,-2.8972313,-2.973206,29.449999,1.0
132529414,-2.8972359,-2.9732106,29.449999,1.0
132540150,-2.8972404,-2.9732988,29.47,1.0
132550850,-2.8972447,-2.9733768,29.484999,1.0
132561548,-2.8972487,-2.97343,29.494999,1.0
132572251,-2.8972523,-2.9732373,29.455,1.0
132582965,-2.8972554,-2.9732404,29.455,1.0
132593664,-2.8972583,-2.9733171,29.47,1.0
132604380,-2.8973708,-2.9733558,29.449999,1.0
132615073,-2.8976743,-2.9738636,29.49,1.0
132625873,-2.898004,-2.9740548,29.46,1.0
132636575,-2.8982334,-2.974462,29.494999,1.0
132647289,-2.8983788,-2.97439,29.449999,1.0
132658083,-2.8984556,-2.9744105,29.435,1.0
132668780,-2.8984773,-2.9746542,29.48,1.0
132679493,-2.8984559,-2.9744356,29.439999,1.0
132690202,-2.8984025,-2.9746265,29.49,1.0
132700905,-2.898326,-2.974376,29.455,1.0
132711666,-2.8982341,-2.9743307,29.465,1.0
132722418,-2.8981335,-2.974269,29.47,1.0
132733122,-2.8980296,-2.9741378,29.465,1.0
132743830,-2.897926,-2.9742036,29.5,1.0
132754522,-2.897826,-2.974027,29.484999,1.0
132765456,-2.8977318,-2.9737585,29.449999,1.0
132776152,-2.8976452,-2.9738114,29.48,1.0
132786867,-2.897567,-2.9738781,29.51,1.0
132797573,-2.897498,-2.973709,29.49,1.0
132808286,-2.8974376,-2.9735982,29.48,1.0
132819003,-2.897386,-2.9734225,29.455,1.0
132829699,-2.8973427,-2.9736383,29.505,1.0
132840441,-2.8973074,-2.9736266,29.51,1.0
132851139,-2.897279,-2.9733272,29.455,1.0
132861850,-2.8972569,-2.9733782,29.47,1.0
132872552,-2.8972402,-2.973361,29.47,1.0
132883248,-2.8972282,-2.9733536,29.48,1.0
132893987,-2.8972204,-2.9732475,29.46,1.0
132904683,-2.8972156,-2.9733653,29.484999,1.0
132915495,-2.8972137,-2.9733882,29.49,1.0
132926197,-2.897214,-2.973339,29.48,1.0
132936909,-2.8972156,-2.97339,29.49,1.0
132947609,-2.8972187,-2.9731965,29.449999,1.0
132958302,-2.8972225,-2.9732988,29.47,1.0
132969001,-2.8972268,-2.9732049,29.449999,1.0
132979709,-2.8972313,-2.9733078,29.47,1.0
132990541,-2.8972359,-2.973327,29.47,1.0
133001243,-2.8972404,-2.9734302,29.49,1.0
133011942,-2.8972447,-2.9733114,29.465,1.0
133022659,-2.8972487,-2.9734142,29.484999,1.0
133033356,-2.8972523,-2.9733932,29.48,1.0
133044117,-2.8972554,-2.9733608,29.474998,1.0
133054823,-2.8972583,-2.9734619,29.494999,1.0
133065643,-2.8972607,-2.9732432,29.449999,1.0
133076349,-2.8972628,-2.973442,29.49,1.0
133087050,-2.8972645,-2.9734683,29.494999,1.0
133097748,-2.8972657,-2.9734108,29.48,1.0
133108757,-2.8972669,-2.9733381,29.465,1.0
133119485,-2.8972678,-2.973413,29.48,1.0
133130218,-2.8972683,-2.9734626,29.49,1.0
133141286,-2.8972688,-2.973463,29.49,1.0
133152016,-2.897269,-2.9732985,29.455,1.0
133163019,-2.8972692,-2.9733973,29.474998,1.0
133173717,-2.8972692,-2.9735935,29.515,1.0
133184426,-2.8972692,-2.9732497,29.445,1.0
133195132,-2.897269,-2.973323,29.46,1.0
133205883,-2.8972688,-2.9733646,29.47,1.0
133216581,-2.8972688,-2.9733646,29.47,1.0
133227292,-2.8972685,-2.9735117,29.5,1.0
133238095,-2.8972683,-2.9733887,29.474998,1.0
133248852,-2.897268,-2.9732656,29.449999,1.0
133259561,-2.8972678,-2.9733636,29.47,1.0
133270550,-2.8972678,-2.973327,29.47,1.0
133281282,-2.8972676,-2.9732282,29.449999,1.0
133292106,-2.8972673,-2.973302,29.465,1.0
133303020,-2.8972673,-2.973228,29.449999,1.0
133313713,-2.897267,-2.9732854,29.455,1.0
133324451,-2.897267,-2.9734085,29.48,1.0
133335157,-2.897267,-2.973359,29.47,1.0
133345888,-2.897267,-2.9734576,29.49,1.0
133356592,-2.897377,-2.973595,29.494999,1.0
133367294,-2.8976781,-2.9737172,29.46,1.0
133378077,-2.8981164,-2.9742405,29.474998,1.0
133388773,-2.8986456,-2.9747102,29.46,1.0
133399498,-2.899228,-2.9752834,29.455,1.0
133410200,-2.899833,-2.975978,29.47,1.0
133420895,-2.9004362,-2.9766314,29.48,1.0
133431604,-2.901019,-2.9771805,29.47,1.0
133442303,-2.9015682,-2.9776454,29.449999,1.0
133453072,-2.9020746,-2.9781651,29.449999,1.0
133463775,-2.9025319,-2.978733,29.47,1.0
133474479,-2.9029374,-2.9791675,29.47,1.0
133485186,-2.903291,-2.979555,29.474998,1.0
133495970,-2.9035933,-2.9800131,29.505,1.0
133506697,-2.903737,-2.9799142,29.455,1.0
133517404,-2.9036453,-2.9800417,29.5,1.0
133528109,-2.9033751,-2.9795747,29.46,1.0
133538810,-2.9029777,-2.9793146,29.49,1.0
133549575,-2.9024947,-2.9785976,29.445,1.0
133560555,-2.901961,-2.9782465,29.484999,1.0
133571294,-2.9015155,-2.9778879,29.505,1.0
133582008,-2.9012616,-2.9775102,29.484999,1.0
133592759,-2.9010522,-2.9773936,29.505,1.0
133603597,-2.9008834,-2.9770486,29.47,1.0
133614288,-2.900861,-2.9771237,29.49,1.0
133625003,-2.9009516,-2.9772167,29.49,1.0
133635713,-2.901236,-2.9774716,29.474998,1.0
133646408,-2.9017699,-2.9781673,29.505,1.0
133657158,-2.9024777,-2.97882,29.49,1.0
133667926,-2.903297,-2.979759,29.51,1.0
133678682,-2.9041755,-2.9804637,29.47,1.0
133689380,-2.905072,-2.9813654,29.47,1.0
133700141,-2.9059544,-2.9822955,29.474998,1.0
133710867,-2.906688,-2.983024,29.47,1.0
133721596,-2.9071753,-2.9836226,29.49,1.0
133732294,-2.9075685,-2.9839766,29.48,1.0
133743002,-2.907987,-2.9845862,29.515,1.0
133753761,-2.9084122,-2.9848502,29.48,1.0
133764467,-2.9088285,-2.9852774,29.48,1.0
133775195,-2.9091158,-2.9854734,29.46,1.0
133786171,-2.9091854,-2.9856188,29.474998,1.0
133796892,-2.9091957,-2.9854677,29.439999,1.0
133807602,-2.90927,-2.9855936,29.449999,1.0
133818369,-2.9092817,-2.9857538,29.48,1.0
133829086,-2.9091349,-2.9856272,29.484999,1.0
133839805,-2.9088714,-2.9853077,29.474998,1.0
133850629,-2.9085267,-2.984854,29.46,1.0
133861391,-2.90824,-2.9847574,29.5,1.0
133872092,-2.9081173,-2.9844093,29.455,1.0
133882956,-2.9081233,-2.98444,29.46,1.0
133893661,-2.9082282,-2.9845972,29.47,1.0
133904368,-2.908405,-2.9848478,29.49,1.0
133915066,-2.9086318,-2.9851298,29.5,1.0
133925766,-2.9088895,-2.9852216,29.465,1.0
133936461,-2.9091632,-2.9854286,29.449999,1.0
133947163,-2.9094403,-2.9858115,29.47,1.0
133957989,-2.9097114,-2.9862463,29.494999,1.0
133968713,-2.9099693,-2.986289,29.449999,1.0
133979429,-2.9102092,-2.9866092,29.465,1.0
133990159,-2.9104276,-2.9867594,29.449999,1.0
134000877,-2.910623,-2.9869108,29.439999,1.0
134011587,-2.9107943,-2.9871507,29.449999,1.0
134022288,-2.910942,-2.9873023,29.449999,1.0
134033000,-2.9110672,-2.9875786,29.48,1.0
134043723,-2.9111707,-2.9875612,29.455,1.0
134054415,-2.9112551,-2.9876235,29.449999,1.0
134065136,-2.9113214,-2.9876418,29.439999,1.0
134075867,-2.9113722,-2.9876893,29.445,1.0
134086587,-2.9114096,-2.987925,29.484999,1.0
134097291,-2.9114356,-2.9878778,29.47,1.0
134108011,-2.9114518,-2.9880176,29.494999,1.0
134118706,-2.9114602,-2.987914,29.47,1.0
134129413,-2.911462,-2.9880643,29.5,1.0
134140106,-2.911459,-2.9880612,29.5,1.0
134601678,-2.9091017,-2.9854836,29.465,1.0
134612404,-2.907994,-2.9845035,29.505,1.0
134623145,-2.90681,-2.9831405,29.474998,1.0
134633887,-2.9056046,-2.9820514,29.505,1.0
134644581,-2.9044204,-2.980836,29.505,1.0
134655502,-2.9032893,-2.9796011,29.49,1.0
134666211,-2.9022346,-2.9783626,29.449999,1.0
134676907,-2.9012706,-2.9775455,29.484999,1.0
134687606,-2.9004073,-2.9767332,29.5,1.0
134698311,-2.8996472,-2.9757318,29.455,1.0
134709024,-2.8989906,-2.9752302,29.49,1.0
134719715,-2.8984334,-2.9746568,29.494999,1.0
134730440,-2.8979704,-2.9741082,29.48,1.0
134741137,-2.8975935,-2.9736228,29.46,1.0
134751851,-2.8972945,-2.9733899,29.474998,1.0
134762544,-2.8970647,-2.9732766,29.5,1.0
134773257,-2.8968947,-2.9730716,29.49,1.0
134783972,-2.8967764,-2.972754,29.449999,1.0
134794702,-2.896701,-2.9728482,29.484999,1.0
134805477,-2.896661,-2.9727337,29.47,1.0
134816247,-2.8966494,-2.9727461,29.474998,1.0
134827001,-2.8966596,-2.9728792,29.5,1.0
134837730,-2.8966866,-2.9727426,29.465,1.0
134848669,-2.8967254,-2.9731019,29.529999,1.0
134859397,-2.896772,-2.972953,29.49,1.0
134870114,-2.8968232,-2.9729567,29.48,1.0
134880848,-2.8968763,-2.9729507,29.47,1.0
134891578,-2.8970394,-2.973143,29.474998,1.0
134902289,-2.8973916,-2.973455,29.465,1.0
134913119,-2.897878,-2.9741752,29.51,1.0
134923815,-2.8984516,-2.9745429,29.465,1.0
134934529,-2.898964,-2.975086,29.47,1.0
134945444,-2.8993034,-2.9755328,29.49,1.0
134956167,-2.8996096,-2.9757977,29.48,1.0
134966880,-2.9001012,-2.976204,29.46,1.0
134977583,-2.9007192,-2.977133,29.519999,1.0
134988294,-2.9013047,-2.9775128,29.474998,1.0
134999032,-2.9019568,-2.978219,29.474998,1.0
135009732,-2.9027495,-2.979057,29.48,1.0
135020436,-2.9036252,-2.980005,29.49,1.0
135031147,-2.9045367,-2.9807925,29.46,1.0
135041888,-2.905447,-2.9817922,29.48,1.0
135052595,-2.9063282,-2.9826474,29.47,1.0
135063299,-2.907159,-2.9838204,29.535,1.0
135074008,-2.9079256,-2.9845083,29.515,1.0
135084699,-2.9086192,-2.984974,29.465,1.0
135095490,-2.9091249,-2.9854708,29.465,1.0
135106189,-2.9093616,-2.9859848,29.519999,1.0
135116911,-2.9094944,-2.9858248,29.46,1.0
135127607,-2.9096532,-2.9861605,29.494999,1.0
135138317,-2.909827,-2.986339,29.494999,1.0
135149035,-2.910007,-2.9864745,29.484999,1.0
135159741,-2.910186,-2.986478,29.449999,1.0
135170453,-2.9103587,-2.9868526,29.49,1.0
135181203,-2.9105208,-2.9868956,29.465,1.0
135192005,-2.91067,-2.9870734,29.47,1.0
135202713,-2.910805,-2.9872453,29.47,1.0
135213412,-2.9109242,-2.9874415,29.484999,1.0
135224121,-2.911028,-2.9874494,29.465,1.0
135234883,-2.9111166,-2.987639,29.484999,1.0
135245588,-2.911191,-2.987444,29.429998,1.0
135256295,-2.9112518,-2.9876149,29.455,1.0
135267062,-2.9113007,-2.9878871,29.5,1.0
135277965,-2.9113388,-2.9877784,29.47,1.0
135288668,-2.9113674,-2.9877582,29.46,1.0
135299362,-2.9113877,-2.9878287,29.47,1.0
135310070,-2.9114013,-2.987867,29.474998,1.0
135320775,-2.9114091,-2.9877667,29.449999,1.0
135331496,-2.9114125,-2.9878936,29.474998,1.0
135342198,-2.911412,-2.9879918,29.494999,1.0
135352946,-2.911409,-2.9878156,29.46,1.0
135363697,-2.9114037,-2.9877167,29.449999,1.0
135374434,-2.911397,-2.9879072,29.49,1.0
135385141,-2.9113896,-2.9879985,29.51,1.0
135395868,-2.9113817,-2.987793,29.47,1.0
135406639,-2.9113739,-2.9878342,29.48,1.0
135417399,-2.9113662,-2.9879398,29.5,1.0
135428094,-2.9113588,-2.9876854,29.449999,1.0
135438810,-2.911352,-2.9876785,29.449999,1.0
135449503,-2.911346,-2.9877708,29.47,1.0
135460194,-2.9113402,-2.987839,29.484999,1.0
135470894,-2.9113355,-2.9878871,29.494999,1.0
135481600,-2.9113312,-2.9880064,29.519999,1.0
135492305,-2.9113278,-2.9878547,29.49,1.0
135503008,-2.9113247,-2.9878023,29.48,1.0
135513752,-2.9113224,-2.987849,29.49,1.0
135524467,-2.9113204,-2.9877708,29.47,1.0
135535170,-2.911319,-2.9878185,29.48,1.0
135546160,-2.911318,-2.9879658,29.51,1.0
135556942,-2.9113173,-2.9878414,29.484999,1.0
135567638,-2.9113169,-2.987767,29.47,1.0
135578354,-2.9113166,-2.9878678,29.494999,1.0
135589124,-2.9113166,-2.987621,29.445,1.0
135599896,-2.9113166,-2.9879174,29.505,1.0
135610589,-2.9113169,-2.987967,29.515,1.0
135621319,-2.911317,-2.987745,29.47,1.0
135632013,-2.9113173,-2.9876463,29.449999,1.0
135642708,-2.9113178,-2.987799,29.48,1.0
135653399,-2.9113183,-2.98775,29.47,1.0
135664095,-2.9113183,-2.987651,29.449999,1.0
135674801,-2.9113188,-2.9878244,29.484999,1.0
135685570,-2.911319,-2.987652,29.449999,1.0
135696366,-2.9113193,-2.987673,29.449999,1.0
135707068,-2.9113197,-2.9877968,29.474998,1.0
135717770,-2.91132,-2.9878216,29.48,1.0
135728586,-2.91132,-2.9877722,29.47,1.0
135739297,-2.9113202,-2.9878218,29.48,1.0
135750028,-2.9113204,-2.9877481,29.465,1.0
135760721,-2.9113204,-2.9878545,29.49,1.0
135771447,-2.9113204,-2.9876573,29.449999,1.0
135782143,-2.9113207,-2.987756,29.47,1.0
135792945,-2.9113207,-2.9877067,29.46,1.0
135803646,-2.9113207,-2.9877067,29.46,1.0
135814387,-2.9113207,-2.987724,29.465,1.0
135825096,-2.9113207,-2.9877734,29.474998,1.0
136060760,-2.9113204,-2.9876757,29.449999,1.0
136071500,-2.9113204,-2.987947,29.505,1.0
136093005,-2.9113204,-2.9877114,29.455,1.0
136103701,-2.9113204,-2.9877114,29.455,1.0
136114392,-2.9113204,-2.9876375,29.439999,1.0
136125102,-2.9113204,-2.9878843,29.49,1.0
136135807,-2.9113204,-2.9878867,29.494999,1.0
136146512,-2.9113204,-2.987936,29.505,1.0
136157209,-2.9113204,-2.9877138,29.46,1.0
136167940,-2.9113204,-2.987862,29.49,1.0
136178635,-2.9113204,-2.987678,29.455,1.0
136189347,-2.9113204,-2.987777,29.474998,1.0
136200050,-2.9113204,-2.9876535,29.449999,1.0
136210758,-2.9113204,-2.9877026,29.46,1.0
136221540,-2.9113204,-2.9879248,29.505,1.0
136232286,-2.9113204,-2.9878755,29.494999,1.0
136243003,-2.9113204,-2.9878213,29.474998,1.0
136253700,-2.9113204,-2.9878461,29.48,1.0
136264448,-2.9113204,-2.9878953,29.49,1.0
136275147,-2.9113204,-2.9877968,29.47,1.0
136285880,-2.9113204,-2.987957,29.51,1.0
136296602,-2.9113204,-2.987957,29.51,1.0
136307302,-2.9113204,-2.9880557,29.529999,1.0
136318067,-2.9113204,-2.9877844,29.474998,1.0
136328761,-2.9113204,-2.9877346,29.465,1.0
136339509,-2.9113204,-2.9878988,29.49,1.0
136350205,-2.9113204,-2.9878001,29.47,1.0
136360907,-2.9113204,-2.987652,29.439999,1.0
136371666,-2.9113204,-2.9878988,29.49,1.0
136382406,-2.9113204,-2.9878988,29.49,1.0
136393137,-2.9113204,-2.9878001,29.47,1.0
136403846,-2.9113204,-2.9877114,29.455,1.0
136414595,-2.9113204,-2.9876375,29.439999,1.0
136425491,-2.9113204,-2.9877114,29.455,1.0
136436186,-2.9113204,-2.98781,29.474998,1.0
136446885,-2.9113204,-2.987835,29.48,1.0
136457587,-2.9113204,-2.9878814,29.484999,1.0
136468298,-2.9113204,-2.987906,29.49,1.0
136479108,-2.9113204,-2.9877336,29.455,1.0
136489801,-2.9113204,-2.9878075,29.47,1.0
136500513,-2.9113204,-2.9877582,29.46,1.0
136511228,-2.9113204,-2.9876447,29.455,1.0
136521985,-2.9113204,-2.987719,29.47,1.0
136532709,-2.9113204,-2.9878175,29.49,1.0
136543409,-2.9113204,-2.9877436,29.474998,1.0
136554148,-2.9113204,-2.9878175,29.49,1.0
136564901,-2.9113204,-2.987816,29.48,1.0
136575692,-2.9113204,-2.987668,29.449999,1.0
136586391,-2.9113204,-2.987866,29.49,1.0
136597088,-2.9113204,-2.987866,29.49,1.0
136607905,-2.9113204,-2.9878905,29.494999,1.0
136618739,-2.9113204,-2.9877138,29.46,1.0
136629443,-2.9113204,-2.9877138,29.46,1.0
136640134,-2.9113204,-2.987862,29.49,1.0
136650862,-2.9113204,-2.9877138,29.46,1.0
136661571,-2.9113204,-2.987767,29.47,1.0
136672413,-2.9113204,-2.987668,29.449999,1.0
136683135,-2.9113204,-2.9877422,29.465,1.0
136693848,-2.9113204,-2.987767,29.47,1.0
136704539,-2.9113204,-2.9875941,29.435,1.0
136715243,-2.9113204,-2.9876435,29.445,1.0
136726132,-2.9113204,-2.9879544,29.505,1.0
136736838,-2.9113204,-2.987831,29.48,1.0
136747537,-2.9113204,-2.9877322,29.46,1.0
136758256,-2.9113204,-2.9877076,29.455,1.0
136769025,-2.9113204,-2.9878805,29.49,1.0
136779717,-2.9113204,-2.987962,29.505,1.0
136790478,-2.9113204,-2.987962,29.505,1.0
136801193,-2.9113204,-2.9878385,29.48,1.0
136811896,-2.9113204,-2.9877646,29.465,1.0
136822586,-2.9113204,-2.987778,29.47,1.0
136833289,-2.9113204,-2.9880002,29.515,1.0
136844066,-2.9113204,-2.9878767,29.49,1.0
136854786,-2.9113204,-2.9878767,29.49,1.0
136865580,-2.9113204,-2.987655,29.445,1.0
136876409,-2.9113204,-2.9878027,29.474998,1.0
136887157,-2.9113204,-2.987778,29.47,1.0
136897972,-2.9113204,-2.9877534,29.465,1.0
136908777,-2.9113204,-2.9879012,29.494999,1.0
136919523,-2.9113204,-2.987778,29.47,1.0
136930381,-2.911211,-2.9877644,29.49,1.0
136941163,-2.910911,-2.9874492,29.49,1.0
136951859,-2.9105844,-2.9869165,29.449999,1.0
136962554,-2.9103572,-2.9869797,29.51,1.0
136973251,-2.9102137,-2.986783,29.5,1.0
136983967,-2.9101381,-2.986525,29.465,1.0
136994696,-2.9101171,-2.9865282,29.47,1.0
137005478,-2.9101386,-2.986575,29.474998,1.0
137016190,-2.9101923,-2.9866052,29.47,1.0
137026889,-2.9102685,-2.9866343,29.46,1.0
137037594,-2.91036,-2.9867282,29.46,1.0
137048294,-2.91046,-2.9870517,29.51,1.0
137059022,-2.9105635,-2.9870346,29.484999,1.0
137069732,-2.9106667,-2.987091,29.474998,1.0
137080434,-2.910766,-2.9870698,29.449999,1.0
137091182,-2.9108593,-2.98719,29.455,1.0
137101899,-2.9109457,-2.9873538,29.465,1.0
137112596,-2.9110231,-2.9874825,29.474998,1.0
137123292,-2.9110918,-2.9875531,29.474998,1.0
137134010,-2.9111516,-2.9875653,29.465,1.0
137144735,-2.9112027,-2.9875436,29.449999,1.0
137155450,-2.9112456,-2.9877048,29.47,1.0
137166148,-2.9112806,-2.987642,29.449999,1.0
137176896,-2.9111993,-2.9874597,29.429998,1.0
137187596,-2.9109216,-2.9874463,29.484999,1.0
137198305,-2.9106114,-2.98698,29.455,1.0
137209003,-2.9103959,-2.98667,29.439999,1.0
137219737,-2.91026,-2.9867525,29.484999,1.0
137230479,-2.910189,-2.9866302,29.474998,1.0
137241179,-2.91017,-2.9866357,29.48,1.0
137251930,-2.9100816,-2.986471,29.465,1.0
137262631,-2.9098337,-2.9863915,29.49,1.0
137273335,-2.9095802,-2.9861562,29.494999,1.0
137284037,-2.9094405,-2.9860375,29.5,1.0
137294736,-2.9093924,-2.9860127,29.505,1.0
137305540,-2.909416,-2.9858887,29.474998,1.0
137316239,-2.9094934,-2.9860535,29.505,1.0
137326949,-2.90961,-2.985902,29.449999,1.0
137337688,-2.909753,-2.9862459,29.49,1.0
137348463,-2.9099114,-2.9863837,29.484999,1.0
137359156,-2.9100769,-2.986578,29.49,1.0
137369903,-2.9102426,-2.986752,29.49,1.0
137380639,-2.9104033,-2.9869416,29.494999,1.0
137391348,-2.910555,-2.986974,29.47,1.0
137402050,-2.910695,-2.9869943,29.445,1.0
137412743,-2.910822,-2.9872973,29.48,1.0
137423680,-2.9109347,-2.9874067,29.474998,1.0
137434380,-2.9110332,-2.9874833,29.47,1.0
137445152,-2.9111178,-2.98757,29.47,1.0
137455875,-2.9112985,-2.987854,29.49,1.0
137466581,-2.9117663,-2.9883847,29.51,1.0
137477285,-2.912659,-2.989301,29.51,1.0
137488109,-2.9139578,-2.9906838,29.519999,1.0
137498820,-2.9154174,-2.992132,29.51,1.0
137509523,-2.9168448,-2.9934983,29.49,1.0
137520424,-2.9182024,-2.9948668,29.484999,1.0
137531175,-2.9193554,-2.9960797,29.484999,1.0
137541912,-2.9200964,-2.9967408,29.465,1.0
137552610,-2.9204993,-2.9972785,29.49,1.0
137563312,-2.920849,-2.997588,29.48,1.0
137574019,-2.9212565,-2.9978578,29.449999,1.0
137584766,-2.9216952,-2.9984562,29.48,1.0
137595527,-2.922035,-2.9985821,29.435,1.0
137606229,-2.9219608,-2.9987288,29.48,1.0
137616934,-2.921353,-2.997981,29.455,1.0
137627711,-2.9204652,-2.9970095,29.445,1.0
137638407,-2.919499,-2.9962406,29.49,1.0
137649133,-2.9183936,-2.9952054,29.51,1.0
137659900,-2.9171069,-2.993563,29.445,1.0
137670596,-2.9158304,-2.9924755,29.49,1.0
137681301,-2.9147112,-2.9912283,29.47,1.0
137692078,-2.9137475,-2.9903407,29.48,1.0
137702937,-2.913043,-2.9896917,29.494999,1.0
137713661,-2.9126682,-2.9892824,29.49,1.0
137724409,-2.912449,-2.9891312,29.505,1.0
137735131,-2.9121358,-2.988637,29.47,1.0
137745874,-2.9116511,-2.9882348,29.49,1.0
137756569,-2.9110503,-2.9874945,29.465,1.0
137767294,-2.9103792,-2.9869044,29.484999,1.0
137778093,-2.909675,-2.986231,29.494999,1.0
137788789,-2.9089675,-2.9855273,29.51,1.0
137799614,-2.9082794,-2.984821,29.51,1.0
137810456,-2.9075184,-2.9838183,29.465,1.0
137821162,-2.9066148,-2.9829648,29.48,1.0
137831861,-2.9056308,-2.9820042,29.49,1.0
137842600,-2.9046152,-2.9809372,29.484999,1.0
137853297,-2.9036076,-2.9799845,29.5,1.0
137864022,-2.9026372,-2.978841,29.47,1.0
137874720,-2.9016156,-2.977891,29.49,1.0
137885478,-2.900367,-2.9766095,29.49,1.0
137896177,-2.8988729,-2.9751747,29.51,1.0
137906879,-2.8972366,-2.973456,29.505,1.0
137917578,-2.895653,-2.9717567,29.49,1.0
137928289,-2.8943796,-2.970278,29.455,1.0
137939000,-2.8933842,-2.9695022,29.505,1.0
137949726,-2.8925219,-2.9686172,29.505,1.0
137960441,-2.8917892,-2.9676628,29.46,1.0
137971146,-2.8911786,-2.9672813,29.51,1.0
137981841,-2.8906806,-2.9664762,29.449999,1.0
137992542,-2.8902845,-2.966192,29.474998,1.0
138003266,-2.8898685,-2.9657161,29.465,1.0
138013980,-2.8892288,-2.9651518,29.48,1.0
138024915,-2.8884385,-2.9641936,29.449999,1.0
138035640,-2.8877778,-2.9635644,29.46,1.0
138046341,-2.887348,-2.96327,29.49,1.0
138057086,-2.8871083,-2.9630976,29.505,1.0
138067945,-2.8871324,-2.9630356,29.484999,1.0
138078688,-2.8874686,-2.9631603,29.439999,1.0
138089387,-2.888033,-2.9640577,29.505,1.0
138100078,-2.888865,-2.9647646,29.474998,1.0
138110790,-2.8900967,-2.9658875,29.449999,1.0
138121489,-2.8917058,-2.9676862,29.48,1.0
138132287,-2.8935533,-2.9696314,29.49,1.0
138143025,-2.8955245,-2.9715316,29.465,1.0
138153807,-2.897529,-2.9735887,29.465,1.0
138164501,-2.8993855,-2.9757152,29.51,1.0
138175196,-2.9008505,-2.9770331,29.47,1.0
138186117,-2.9018605,-2.978291,29.515,1.0
138196886,-2.9026,-2.978779,29.46,1.0
138207591,-2.9033298,-2.9797251,29.5,1.0
138218293,-2.904139,-2.9802852,29.445,1.0
138229009,-2.9048734,-2.9811752,29.474998,1.0
138239771,-2.9053082,-2.981597,29.47,1.0
138250474,-2.90539,-2.9816315,29.46,1.0
138261173,-2.9050894,-2.9815202,29.5,1.0
138271877,-2.9042845,-2.980509,29.47,1.0
138282589,-2.9031188,-2.9795344,29.515,1.0
138293303,-2.901933,-2.9781945,29.49,1.0
138304005,-2.9008782,-2.9771612,29.5,1.0
138314704,-2.899957,-2.9759207,29.439999,1.0
138325561,-2.899167,-2.9755034,29.519999,1.0
138336288,-2.8985023,-2.9749074,29.529999,1.0
138347008,-2.8979545,-2.974099,29.48,1.0
138357711,-2.8975132,-2.9737935,29.51,1.0
138368650,-2.8971674,-2.9732423,29.47,1.0
138379401,-2.8969057,-2.9729981,29.474998,1.0
138390127,-2.8967164,-2.9726923,29.449999,1.0
138400838,-2.8965886,-2.9728558,29.51,1.0
138411551,-2.8966222,-2.9727428,29.48,1.0
138422258,-2.8969986,-2.9731781,29.49,1.0
138433131,-2.8977358,-2.9740393,29.515,1.0
138443823,-2.8987265,-2.9750316,29.51,1.0
138454518,-2.8998797,-2.9761167,29.49,1.0
138465431,-2.9010112,-2.9772043,29.474998,1.0
138476164,-2.9018705,-2.97816,29.49,1.0
138486860,-2.9023848,-2.9787612,29.505,1.0
138497608,-2.9027288,-2.979016,29.484999,1.0
138508362,-2.9031513,-2.979376,29.47,1.0
138519075,-2.9037309,-2.9800692,29.49,1.0
138529779,-2.9044123,-2.9805717,29.449999,1.0
138540532,-2.9050407,-2.9813397,29.474998,1.0
138551240,-2.905389,-2.9817019,29.47,1.0
138561982,-2.9054022,-2.981691,29.465,1.0
138572692,-2.9051578,-2.981563,29.49,1.0
138583383,-2.9048343,-2.9811325,29.47,1.0
138594077,-2.9046795,-2.9808383,29.449999,1.0
138604816,-2.904769,-2.981078,29.48,1.0
138615638,-2.9050426,-2.9813836,29.484999,1.0
138626337,-2.905449,-2.9815543,29.435,1.0
138637035,-2.9059439,-2.9822838,29.48,1.0
138647744,-2.9064913,-2.9827964,29.47,1.0
138658461,-2.9070618,-2.9833705,29.47,1.0
138669180,-2.9077418,-2.9841177,29.48,1.0
138679978,-2.908594,-2.9850416,29.49,1.0
138690703,-2.9094415,-2.9858127,29.47,1.0
138701405,-2.9101493,-2.986613,29.484999,1.0
138712104,-2.9107282,-2.987031,29.449999,1.0
138722806,-2.91119,-2.9876282,29.474998,1.0
138733657,-2.911548,-2.9880202,29.48,1.0
138744371,-2.9118147,-2.988146,29.449999,1.0
138755064,-2.9120038,-2.9884386,29.47,1.0
138765772,-2.912127,-2.9886155,29.474998,1.0
138776473,-2.912087,-2.9886732,29.494999,1.0
138787173,-2.9117033,-2.988255,29.49,1.0
138797966,-2.9109588,-2.9874415,29.48,1.0
138808659,-2.909961,-2.9865654,29.51,1.0
138819349,-2.9088001,-2.9852667,29.494999,1.0
138830045,-2.9075503,-2.9839349,29.484999,1.0
138840738,-2.9062712,-2.9827206,29.505,1.0
138851442,-2.9050097,-2.981352,29.49,1.0
138862169,-2.9038014,-2.980112,29.49,1.0
138872913,-2.902671,-2.978925,29.48,1.0
138883640,-2.901636,-2.9779854,29.505,1.0
138894334,-2.900706,-2.9769576,29.49,1.0
138905039,-2.8999963,-2.9759831,29.439999,1.0
138915739,-2.8995872,-2.9757538,29.474998,1.0
138926441,-2.8993113,-2.97552,29.484999,1.0
138937198,-2.899146,-2.9752767,29.47,1.0
138947950,-2.8992913,-2.975524,29.49,1.0
138958688,-2.8997793,-2.9760246,29.49,1.0
138969390,-2.9005148,-2.9767551,29.484999,1.0
138980089,-2.9013066,-2.9776514,29.505,1.0
138990791,-2.9018967,-2.9780846,29.47,1.0
139001493,-2.902204,-2.9784737,29.484999,1.0
139012188,-2.902285,-2.9785078,29.474998,1.0
139022950,-2.9020803,-2.9782732,29.47,1.0
139033682,-2.9015532,-2.9777048,29.46,1.0
139044392,-2.900905,-2.977015,29.455,1.0
139055123,-2.9002948,-2.9764628,29.47,1.0
139065849,-2.8997326,-2.9760087,29.494999,1.0
139076547,-2.8992248,-2.9756129,29.525,1.0
139087285,-2.8987744,-2.975126,29.519999,1.0
139098077,-2.8983824,-2.9746747,29.51,1.0
139108776,-2.898047,-2.9742813,29.5,1.0
139119505,-2.8976555,-2.9737816,29.48,1.0
139130223,-2.8970132,-2.973024,29.46,1.0
139141098,-2.8960876,-2.9723022,29.505,1.0
139151808,-2.894975,-2.9709394,29.46,1.0
139162498,-2.8937526,-2.9697833,29.48,1.0
139173202,-2.8924844,-2.9685307,29.49,1.0
139183906,-2.891221,-2.967087,29.46,1.0
139194596,-2.8901112,-2.966138,29.494999,1.0
139205439,-2.8892636,-2.965268,29.494999,1.0
139216134,-2.8885336,-2.9644942,29.49,1.0
139226897,-2.8879163,-2.9637876,29.474998,1.0
139237659,-2.8875153,-2.96348,29.5,1.0
139248371,-2.887182,-2.9632847,29.529999,1.0
139259071,-2.88669,-2.9625595,29.484999,1.0
139269764,-2.8859808,-2.9619296,29.505,1.0
139280466,-2.8852384,-2.961192,29.51,1.0
139291175,-2.8847146,-2.9604588,29.47,1.0
139301901,-2.8844855,-2.960137,29.449999,1.0
139312683,-2.8843787,-2.960076,29.46,1.0
139323406,-2.8842583,-2.9601238,29.494999,1.0
139334154,-2.8841314,-2.9599936,29.494999,1.0
139344914,-2.884003,-2.9598126,29.484999,1.0
139355660,-2.883878,-2.9595354,29.465,1.0
139366372,-2.8837593,-2.9592423,29.429998,1.0
139377093,-2.883649,-2.9592762,29.46,1.0
139387941,-2.883549,-2.9593446,29.494999,1.0
139398633,-2.8834596,-2.9591978,29.48,1.0
139409338,-2.8833814,-2.9591417,29.484999,1.0
139420052,-2.883314,-2.9590483,29.48,1.0
139430762,-2.883257,-2.9590874,29.5,1.0
139441461,-2.88321,-2.958868,29.465,1.0
139452163,-2.8832824,-2.9592113,29.519999,1.0
139462943,-2.8835552,-2.959142,29.449999,1.0
139473660,-2.8839724,-2.9597409,29.484999,1.0
139484410,-2.8844876,-2.9603188,29.494999,1.0
139495132,-2.8850615,-2.9607854,29.47,1.0
139506227,-2.8856623,-2.9615977,29.51,1.0
139516922,-2.8862646,-2.961976,29.455,1.0
139527624,-2.8868496,-2.9625764,29.455,1.0
139538607,-2.8874032,-2.9631934,29.465,1.0
139549304,-2.8879151,-2.9637432,29.47,1.0
139560002,-2.888379,-2.9643176,29.49,1.0
139570701,-2.8887918,-2.9646113,29.465,1.0
139581424,-2.8891523,-2.964981,29.465,1.0
139592121,-2.8895721,-2.9656324,29.51,1.0
139603015,-2.8901348,-2.966112,29.49,1.0
139613716,-2.890789,-2.9666364,29.46,1.0
139624450,-2.8913825,-2.9675245,29.519999,1.0
139635158,-2.8918004,-2.9677083,29.47,1.0
139645896,-2.892071,-2.9679372,29.46,1.0
139656594,-2.8921099,-2.9680753,29.48,1.0
139667291,-2.8918595,-2.9677691,29.47,1.0
139678115,-2.8913953,-2.9671853,29.445,1.0
139688809,-2.8907824,-2.966654,29.465,1.0
139699579,-2.8900738,-2.9660006,29.48,1.0
139710502,-2.889204,-2.9650831,29.474998,1.0
139721216,-2.888127,-2.9640307,29.484999,1.0
139731933,-2.8870356,-2.9628124,29.465,1.0
139742653,-2.8860774,-2.9619026,29.48,1.0
139753364,-2.8853624,-2.9612665,29.5,1.0
139764109,-2.8851876,-2.9608915,29.46,1.0
139774810,-2.8856537,-2.9615655,29.5,1.0
139785629,-2.886485,-2.9622698,29.48,1.0
139796385,-2.8874598,-2.963221,29.47,1.0
139807208,-2.888513,-2.9642777,29.465,1.0
139818081,-2.889594,-2.9652889,29.445,1.0
139828781,-2.8906617,-2.9667032,29.51,1.0
139839501,-2.8916864,-2.9677386,29.5,1.0
139850209,-2.8926456,-2.9687724,29.51,1.0
139860927,-2.893525,-2.9695275,29.48,1.0
139871624,-2.8944254,-2.9704273,29.474998,1.0
139882319,-2.895535,-2.9715304,29.47,1.0
139893070,-2.896769,-2.9727478,29.46,1.0
139903768,-2.89784,-2.974068,29.505,1.0
139914462,-2.898642,-2.974817,29.49,1.0
139925161,-2.8992133,-2.9754279,29.494999,1.0
139935879,-2.8995898,-2.9758637,29.505,1.0
139946617,-2.8998058,-2.9760554,29.49,1.0
139957399,-2.8998919,-2.9762177,29.505,1.0
139968180,-2.8999856,-2.976191,29.48,1.0
139978880,-2.9001925,-2.9765508,29.51,1.0
139989576,-2.9003696,-2.9765358,29.47,1.0
140000505,-2.9005184,-2.9767818,29.494999,1.0
140011234,-2.9008608,-2.9771826,29.505,1.0
140021963,-2.9014509,-2.9777389,29.494999,1.0
140032659,-2.902212,-2.9785693,29.505,1.0
140043359,-2.90319,-2.9794855,29.484999,1.0
140054067,-2.9045231,-2.9807801,29.47,1.0
140064829,-2.9060864,-2.9824827,29.49,1.0
140075572,-2.907447,-2.9838305,29.48,1.0
140086274,-2.9081712,-2.9846222,29.49,1.0
140096976,-2.908056,-2.9845042,29.49,1.0
140107677,-2.9073017,-2.9837694,29.494999,1.0
140118394,-2.9063003,-2.98284,29.515,1.0
140129093,-2.9052508,-2.98164,29.49,1.0
140139785,-2.9041972,-2.9805589,29.49,1.0
140150580,-2.9031732,-2.9796064,29.51,1.0
140161291,-2.902204,-2.9784515,29.484999,1.0
140172006,-2.901307,-2.977482,29.474998,1.0
140182711,-2.9004934,-2.9766715,29.48,1.0
140193413,-2.899769,-2.9759777,29.49,1.0
140204116,-2.899136,-2.9754555,29.51,1.0
140214817,-2.8985922,-2.9748974,29.51,1.0
140225577,-2.8980243,-2.974413,29.529999,1.0
140236292,-2.897345,-2.9733963,29.465,1.0
140247017,-2.896712,-2.9729185,29.5,1.0
140257717,-2.8962443,-2.9725368,29.519999,1.0
140268600,-2.895918,-2.9719636,29.47,1.0
140504732,-2.903622,-2.9798985,29.474998,1.0
140515454,-2.9030082,-2.9792438,29.47,1.0
140526155,-2.9023585,-2.9785032,29.455,1.0
140536910,-2.9017017,-2.9778783,29.465,1.0
140558320,-2.9004493,-2.9766705,29.48,1.0
140569010,-2.899882,-2.9761374,29.49,1.0
140579704,-2.8993657,-2.9752636,29.42,1.0
140590464,-2.8987944,-2.9748986,29.465,1.0
140601169,-2.8980885,-2.9742513,29.48,1.0
140611886,-2.897302,-2.973272,29.445,1.0
140622579,-2.8964777,-2.972549,29.47,1.0
140633291,-2.8957605,-2.971813,29.47,1.0
140644018,-2.8952582,-2.9715185,29.515,1.0
140654716,-2.8949363,-2.9710655,29.49,1.0
140665483,-2.8947625,-2.9707887,29.47,1.0
140676183,-2.894708,-2.970954,29.515,1.0
140686891,-2.894746,-2.9708457,29.484999,1.0
140697593,-2.8949645,-2.9710698,29.484999,1.0
140708308,-2.8955345,-2.9717307,29.505,1.0
140719015,-2.8963559,-2.972402,29.47,1.0
140729713,-2.8970134,-2.973298,29.515,1.0
140740496,-2.8971944,-2.973287,29.474998,1.0
140751193,-2.8967845,-2.972842,29.47,1.0
140761890,-2.8958244,-2.9719293,29.49,1.0
140772584,-2.8945823,-2.9707525,29.51,1.0
140783283,-2.8933837,-2.9694734,29.5,1.0
140794009,-2.8924763,-2.9684193,29.474998,1.0
140804699,-2.8919313,-2.967811,29.465,1.0
140815524,-2.8915703,-2.9675965,29.49,1.0
140826235,-2.8912516,-2.967171,29.47,1.0
140836931,-2.8910851,-2.9670491,29.48,1.0
140847630,-2.8911514,-2.9670928,29.474998,1.0
140858335,-2.8913932,-2.9674392,29.494999,1.0
140869080,-2.8916523,-2.9676168,29.48,1.0
140879777,-2.8916955,-2.9676366,29.474998,1.0
140890519,-2.891351,-2.9673564,29.49,1.0
140901258,-2.8904994,-2.966458,29.484999,1.0
140912015,-2.8891752,-2.965148,29.494999,1.0
140922710,-2.8876402,-2.9635262,29.49,1.0
140933403,-2.8862128,-2.9620612,29.49,1.0
140944097,-2.8850229,-2.9609377,29.51,1.0
140954895,-2.883942,-2.9598527,29.515,1.0
140965589,-2.8828669,-2.9586275,29.49,1.0
140976301,-2.8818305,-2.9576712,29.5,1.0
140987008,-2.8808558,-2.9564507,29.455,1.0
140997714,-2.88007,-2.9557667,29.48,1.0
141008429,-2.8796747,-2.9552634,29.46,1.0
141019132,-2.8797023,-2.955536,29.51,1.0
141029895,-2.8799422,-2.9555943,29.47,1.0
141040598,-2.880115,-2.9558692,29.49,1.0
141051311,-2.88001,-2.9557855,29.494999,1.0
141062049,-2.8794732,-2.9551373,29.474998,1.0
141072997,-2.878512,-2.9541507,29.474998,1.0
141083701,-2.8773656,-2.9528437,29.455,1.0
141094451,-2.8762245,-2.951965,29.515,1.0
141105152,-2.8751228,-2.950615,29.47,1.0
141115907,-2.8740857,-2.9496727,29.494999,1.0
141126649,-2.8731306,-2.9485705,29.47,1.0
141137400,-2.872268,-2.947689,29.47,1.0
141148096,-2.8715036,-2.9469774,29.484999,1.0
141158800,-2.8709493,-2.9464817,29.5,1.0
141169501,-2.8707957,-2.9461782,29.47,1.0
141180196,-2.8710651,-2.9465764,29.494999,1.0
141190907,-2.8716502,-2.947123,29.49,1.0
141201640,-2.872347,-2.9479358,29.51,1.0
141212424,-2.8729973,-2.9484084,29.47,1.0
141223124,-2.8737018,-2.9492044,29.484999,1.0
141233830,-2.8746483,-2.9501758,29.484999,1.0
141244535,-2.8758612,-2.951351,29.47,1.0
141255523,-2.877129,-2.952701,29.48,1.0
141266225,-2.8781772,-2.9538007,29.484999,1.0
141276924,-2.8789134,-2.9545321,29.48,1.0
141287662,-2.879388,-2.955068,29.49,1.0
141298432,-2.8796473,-2.9554355,29.51,1.0
141309128,-2.8798447,-2.9554427,29.47,1.0
141319818,-2.880099,-2.9558747,29.505,1.0
141330583,-2.8803892,-2.9560502,29.48,1.0
141341292,-2.8806977,-2.9565134,29.51,1.0
141352071,-2.8810108,-2.956764,29.5,1.0
141362780,-2.881317,-2.9570048,29.484999,1.0
141373494,-2.8816087,-2.9573534,29.494999,1.0
141384275,-2.8817697,-2.9575918,29.51,1.0
141395000,-2.8816037,-2.9573236,29.49,1.0
141405693,-2.8809707,-2.9568305,29.51,1.0
141416391,-2.8797781,-2.9554107,29.47,1.0
141427088,-2.8780825,-2.9538414,29.505,1.0
141437976,-2.8760536,-2.951759,29.505,1.0
141448839,-2.8738325,-2.9493089,29.47,1.0
141459571,-2.871533,-2.9470148,29.484999,1.0
141470434,-2.869133,-2.944479,29.47,1.0
141481149,-2.8665085,-2.9418824,29.49,1.0
141491847,-2.8635697,-2.938891,29.494999,1.0
141502540,-2.860258,-2.9354677,29.49,1.0
141513236,-2.856651,-2.931655,29.47,1.0
141523936,-2.8528166,-2.9278405,29.494999,1.0
141534653,-2.8487022,-2.9236906,29.51,1.0
141545464,-2.8445003,-2.9191852,29.47,1.0
141556163,-2.8404737,-2.9152453,29.51,1.0
141566872,-2.8367066,-2.9113693,29.505,1.0
141577593,-2.833256,-2.9077318,29.484999,1.0
141588419,-2.8299305,-2.904391,29.5,1.0
141599239,-2.8264654,-2.9007626,29.484999,1.0
141609953,-2.822888,-2.897115,29.49,1.0
141620646,-2.8193347,-2.8934433,29.49,1.0
141631390,-2.8160238,-2.8900454,29.49,1.0
141642091,-2.813229,-2.8871772,29.49,1.0
141652789,-2.8110316,-2.8848507,29.474998,1.0
141663640,-2.8093605,-2.8831832,29.484999,1.0
141674330,-2.808146,-2.8818903,29.47,1.0
141685035,-2.8073194,-2.88109,29.48,1.0
141695734,-2.8070433,-2.8807828,29.474998,1.0
141706437,-2.8075392,-2.8812675,29.47,1.0
141717162,-2.8088372,-2.8826237,29.474998,1.0
141727877,-2.810936,-2.8848062,29.49,1.0
141738632,-2.813807,-2.8876808,29.474998,1.0
141749341,-2.8172913,-2.8914478,29.515,1.0
141760063,-2.8210206,-2.895108,29.48,1.0
141770775,-2.824819,-2.8991895,29.51,1.0
141781535,-2.8286633,-2.9029431,29.47,1.0
141792266,-2.832309,-2.9069002,29.515,1.0
141803005,-2.8356879,-2.910176,29.474998,1.0
141813710,-2.8389816,-2.9137008,29.505,1.0
141824423,-2.8421068,-2.9167635,29.474998,1.0
141835142,-2.8450046,-2.9195879,29.449999,1.0
141845872,-2.84775,-2.9224052,29.449999,1.0
141856570,-2.8502922,-2.925183,29.484999,1.0
141867274,-2.8524873,-2.9275327,29.505,1.0
141878013,-2.8542368,-2.9293041,29.5,1.0
141888744,-2.8557022,-2.930728,29.484999,1.0
141899446,-2.8571274,-2.932409,29.529999,1.0
141910145,-2.858813,-2.9339693,29.494999,1.0
141920854,-2.860867,-2.9360044,29.48,1.0
141931579,-2.863027,-2.9384396,29.525,1.0
141942283,-2.865089,-2.9403071,29.47,1.0
141953056,-2.8671222,-2.9425392,29.5,1.0
141963763,-2.869181,-2.9445794,29.484999,1.0
141974459,-2.8709722,-2.9464662,29.494999,1.0
141985155,-2.8721695,-2.9476707,29.49,1.0
141995862,-2.8729856,-2.948606,29.51,1.0
142006576,-2.8738177,-2.9494839,29.515,1.0
142017287,-2.8747473,-2.9502676,29.48,1.0
142027987,-2.875611,-2.95113,29.474998,1.0
142038809,-2.8761754,-2.951709,29.474998,1.0
142049532,-2.8761601,-2.951909,29.519999,1.0
142060436,-2.875368,-2.9509497,29.49,1.0
142071135,-2.8738947,-2.949608,29.525,1.0
142081916,-2.8720553,-2.9474282,29.465,1.0
142092610,-2.870215,-2.9455638,29.47,1.0
142103323,-2.8686535,-2.9440491,29.484999,1.0
142114041,-2.8674664,-2.942782,29.474998,1.0
142124731,-2.8664918,-2.9419518,29.51,1.0
142135456,-2.865488,-2.9409215,29.51,1.0
142146158,-2.8643816,-2.9398348,29.519999,1.0
142156921,-2.8634539,-2.9387128,29.484999,1.0
142167642,-2.8629153,-2.9382083,29.494999,1.0
142178420,-2.8625803,-2.9378405,29.49,1.0
142189120,-2.8623002,-2.937383,29.455,1.0
142199827,-2.8619595,-2.9372032,29.49,1.0
142210588,-2.861248,-2.9364998,29.5,1.0
142221304,-2.8599403,-2.9349637,29.46,1.0
142232009,-2.8581038,-2.9332,29.484999,1.0
142242703,-2.8561428,-2.9312844,29.505,1.0
142253397,-2.8544822,-2.9296527,29.519999,1.0
142264140,-2.8534398,-2.928446,29.484999,1.0
142274892,-2.8532395,-2.9283133,29.5,1.0
142285591,-2.853579,-2.9285889,29.484999,1.0
142296312,-2.853874,-2.9289885,29.505,1.0
142307025,-2.8537898,-2.9289262,29.51,1.0
142317731,-2.8530822,-2.92814,29.505,1.0
142328624,-2.8518074,-2.9268074,29.5,1.0
142339316,-2.8504725,-2.9254856,29.51,1.0
142350018,-2.8492458,-2.9241784,29.5,1.0
142360755,-2.84814,-2.922995,29.49,1.0
142371490,-2.847498,-2.9224603,29.515,1.0
142382197,-2.8475676,-2.9224594,29.5,1.0
142392994,-2.8484044,-2.9231493,29.465,1.0
142403692,-2.850026,-2.9249341,29.49,1.0
142414386,-2.8525329,-2.9274826,29.484999,1.0
142425105,-2.8561957,-2.9312263,29.474998,1.0
142435835,-2.8615181,-2.9367855,29.494999,1.0
142446543,-2.8686042,-2.943961,29.474998,1.0
142457241,-2.8768063,-2.9524026,29.48,1.0
142467947,-2.8854847,-2.9613092,29.48,1.0
142478732,-2.8940277,-2.9702802,29.519999,1.0
142489433,-2.901976,-2.9783149,29.494999,1.0
142500140,-2.9090006,-2.985475,29.484999,1.0
142510847,-2.9147708,-2.991397,29.484999,1.0
142521566,-2.919294,-2.996163,29.51,1.0
142532307,-2.9226146,-2.9994924,29.494999,1.0
142543001,-2.924476,-3.0011551,29.445,1.0
142553692,-2.9245086,-3.001362,29.48,1.0
142564477,-2.9228115,-2.9997692,29.51,1.0
142575204,-2.9199498,-2.996634,29.47,1.0
142586114,-2.9165013,-2.9930654,29.47,1.0
142596837,-2.9128182,-2.989483,29.51,1.0
142607570,-2.9090695,-2.985685,29.519999,1.0
142618272,-2.9054961,-2.9818206,29.48,1.0
142629015,-2.9023888,-2.9787052,29.494999,1.0
142639709,-2.8998458,-2.9761693,29.51,1.0
142650460,-2.8977058,-2.9737358,29.455,1.0
143680478,-2.8615947,-2.9369137,29.515,1.0
143691175,-2.8588264,-2.9338546,29.47,1.0
144817291,-2.8846402,-2.9604986,29.49,1.0
144828006,-2.884461,-2.9603145,29.49,1.0
144860155,-2.8852148,-2.9609647,29.47,1.0
144870875,-2.8859265,-2.9615974,29.449999,1.0
144881577,-2.886495,-2.962328,29.48,1.0
144892416,-2.8869364,-2.962903,29.505,1.0
144903172,-2.8874876,-2.9634688,29.505,1.0
144913895,-2.8881056,-2.964044,29.49,1.0
144924589,-2.8886447,-2.9644015,29.449999,1.0
144935421,-2.8892176,-2.9651854,29.49,1.0
144946125,-2.8897977,-2.9657807,29.49,1.0
144956821,-2.8901446,-2.9662406,29.515,1.0
144967573,-2.8901916,-2.966044,29.465,1.0
144978288,-2.890118,-2.966091,29.49,1.0
144989025,-2.8901749,-2.9659534,29.449999,1.0
144999899,-2.8903303,-2.96626,29.48,1.0
145010594,-2.8904455,-2.9664028,29.484999,1.0
145021303,-2.8906372,-2.9665787,29.48,1.0
145032041,-2.8909914,-2.9670157,29.494999,1.0
145042736,-2.8915699,-2.9675846,29.49,1.0
145053629,-2.892522,-2.968562,29.49,1.0
145064325,-2.8936205,-2.969812,29.515,1.0
145075022,-2.894355,-2.9704185,29.484999,1.0
145085726,-2.8945677,-2.9706302,29.484999,1.0
145096424,-2.8944843,-2.9705691,29.49,1.0
145107126,-2.8943973,-2.9704797,29.49,1.0
145118004,-2.8944204,-2.9706752,29.525,1.0
145128718,-2.8944168,-2.9706962,29.529999,1.0
145139482,-2.8942826,-2.9704201,29.49,1.0
145150179,-2.8941631,-2.9701505,29.46,1.0
145160872,-2.8941686,-2.9703524,29.5,1.0
145171621,-2.8942697,-2.9706032,29.529999,1.0
145182315,-2.8944411,-2.970534,29.48,1.0
145193154,-2.894661,-2.9707928,29.494999,1.0
145203853,-2.8949106,-2.971196,29.525,1.0
145214562,-2.8951757,-2.9713945,29.51,1.0
145225259,-2.8955543,-2.9716852,29.49,1.0
145236202,-2.8962288,-2.972446,29.51,1.0
145246903,-2.8974385,-2.9734912,29.47,1.0
145257601,-2.8994608,-2.9757385,29.505,1.0
145268319,-2.9020405,-2.978509,29.529999,1.0
145279115,-2.904525,-2.9807882,29.474998,1.0
145289806,-2.9067495,-2.983342,29.529999,1.0
145300584,-2.9088147,-2.985357,29.505,1.0
145311290,-2.9105837,-2.9870737,29.484999,1.0
145322163,-2.9118516,-2.9884984,29.51,1.0
145333064,-2.9123673,-2.9889042,29.484999,1.0
145343830,-2.9122913,-2.9889004,29.5,1.0
145354550,-2.9122026,-2.9886649,29.47,1.0
145365252,-2.912217,-2.9888275,29.5,1.0
145375962,-2.9121995,-2.9888592,29.51,1.0
145386696,-2.9124877,-2.989056,29.49,1.0
145397407,-2.913658,-2.9902918,29.5,1.0
145408221,-2.915795,-2.9923615,29.474998,1.0
145418925,-2.918604,-2.995343,29.494999,1.0
145429616,-2.9219465,-2.998922,29.525,1.0
145440472,-2.92581,-3.0027385,29.494999,1.0
145451182,-2.930058,-3.0071232,29.5,1.0
145461888,-2.9344647,-3.0116458,29.5,1.0
145472585,-2.938528,-3.0160403,29.545,1.0
145483341,-2.94155,-3.0188675,29.49,1.0
145494099,-2.943465,-3.020708,29.465,1.0
145504923,-2.94469,-3.022165,29.505,1.0
145515748,-2.9456744,-3.0231628,29.494999,1.0
145526522,-2.9468765,-3.0242214,29.46,1.0
145537218,-2.948316,-3.025874,29.494999,1.0
145548040,-2.949459,-3.027022,29.49,1.0
145558738,-2.9496906,-3.0273335,29.51,1.0
145569441,-2.9488914,-3.026613,29.529999,1.0
145580147,-2.9476526,-3.0253167,29.525,1.0
145590859,-2.9465482,-3.0240834,29.505,1.0
145601631,-2.9453647,-3.0228438,29.5,1.0
145612327,-2.9436157,-3.0210986,29.51,1.0
145623095,-2.941378,-3.0187924,29.505,1.0
145633798,-2.9390528,-3.016306,29.484999,1.0
145644514,-2.9367325,-3.0138502,29.47,1.0
145655403,-2.934379,-3.0115342,29.49,1.0
145666155,-2.932183,-3.0091813,29.47,1.0
145676863,-2.9302845,-3.0072737,29.484999,1.0
145687610,-2.9285648,-3.0054343,29.47,1.0
145698311,-2.926927,-3.0039027,29.5,1.0
145709013,-2.9254029,-3.0022886,29.49,1.0
145719724,-2.9240134,-3.0007634,29.47,1.0
145730417,-2.92288,-2.9997463,29.494999,1.0
145741157,-2.9220872,-2.9989328,29.494999,1.0
145751867,-2.9215808,-2.9982643,29.465,1.0
145762624,-2.9214187,-2.9981725,29.48,1.0
145773330,-2.9216347,-2.9985428,29.51,1.0
145784043,-2.921915,-2.9987745,29.494999,1.0
145794754,-2.9217992,-2.9987795,29.519999,1.0
145805528,-2.9211645,-2.998029,29.5,1.0
145816235,-2.9202614,-2.9971519,29.51,1.0
145826934,-2.9193995,-2.9960692,29.47,1.0
145837670,-2.918815,-2.995583,29.49,1.0
145848379,-2.9185703,-2.9954555,29.515,1.0
145859081,-2.9187033,-2.995518,29.5,1.0
145869774,-2.919449,-2.9963825,29.519999,1.0
145880472,-2.9207501,-2.9974453,29.465,1.0
145891241,-2.9218893,-2.9987063,29.5,1.0
145901953,-2.922322,-2.9993238,29.535,1.0
145912685,-2.9222012,-2.9988775,29.47,1.0
145923610,-2.9216592,-2.9986188,29.529999,1.0
145934312,-2.9207027,-2.9973152,29.465,1.0
145945021,-2.9194582,-2.9961925,29.484999,1.0
145955726,-2.9179218,-2.9945168,29.465,1.0
145966470,-2.9161003,-2.9927714,29.49,1.0
145977171,-2.9142263,-2.990922,29.505,1.0
145987955,-2.912699,-2.9892557,29.484999,1.0
145998658,-2.9118145,-2.9883552,29.484999,1.0
146009353,-2.9115596,-2.9880445,29.474998,1.0
146020050,-2.9115763,-2.988185,29.5,1.0
146030762,-2.9113617,-2.9878416,29.474998,1.0
146041470,-2.9107575,-2.9873335,29.5,1.0
146052159,-2.9098735,-2.9864016,29.494999,1.0
146062995,-2.9088025,-2.9852285,29.48,1.0
146073700,-2.9076216,-2.9841645,29.51,1.0
146084397,-2.9063933,-2.982682,29.465,1.0
146095091,-2.9051669,-2.9817438,29.529999,1.0
146105802,-2.9040902,-2.980496,29.51,1.0
146116504,-2.9034915,-2.9796352,29.46,1.0
146127199,-2.9034982,-2.9796915,29.47,1.0
146138008,-2.9038582,-2.9801347,29.484999,1.0
146148718,-2.9042575,-2.9805691,29.49,1.0
146159407,-2.9044552,-2.9809983,29.529999,1.0
146170147,-2.9044917,-2.9810112,29.525,1.0
146180840,-2.9045138,-2.9808862,29.494999,1.0
146191567,-2.9044142,-2.9808085,29.5,1.0
146202268,-2.9042244,-2.9807062,29.515,1.0
146213109,-2.9041915,-2.9807215,29.525,1.0
146223805,-2.9044995,-2.9811363,29.545,1.0
