timestamp,gps_hvel[0],gps_hvel[1],gps_vvel,gps_hpos[0],gps_hpos[1],gps_vpos,ev_hvel[0],ev_hvel[1],ev_vvel,ev_hpos[0],ev_hpos[1],ev_vpos,fake_hvel[0],fake_hvel[1],fake_vvel,fake_hpos[0],fake_hpos[1],fake_vpos,rng_vpos,baro_vpos,aux_hvel[0],aux_hvel[1],aux_vvel,flow[0],flow[1],heading,mag_field[0],mag_field[1],mag_field[2],drag[0],drag[1],airspeed,beta,hagl
128104855,0.09899831,0.098998345,0.21394187,0.31930113,0.31930116,0.0,0.0,0.0,0.0,0.0,0.0,0.0,nan,nan,nan,nan,nan,nan,0.0,12.405273,0.0,0.0,nan,0.0,0.0,0.09013915,0.0,0.0,0.0,0.0,0.0,0.0,0.0,0.0
128304852,0.09892394,0.098923974,0.21394053,0.31576383,0.31576383,0.0,0.0,0.0,0.0,0.0,0.0,0.0,nan,nan,nan,nan,nan,nan,0.0,12.406259,0.0,0.0,nan,0.0,0.0,0.09013914,0.0,0.0,0.0,0.0,0.0,0.0,0.0,0.0
128504848,0.09898497,0.09898502,0.21396492,0.31373525,0.31373528,0.0,0.0,0.0,0.0,0.0,0.0,0.0,nan,nan,nan,nan,nan,nan,0.0,12.40615,0.0,0.0,nan,0.0,0.0,0.09013914,0.0,0.0,0.0,0.0,0.0,0.0,0.0,0.0
128704871,0.09897062,0.09897067,0.21394445,0.31147668,0.3114767,0.0,0.0,0.0,0.0,0.0,0.0,0.0,nan,nan,nan,nan,nan,nan,0.0,12.405325,0.0,0.0,nan,0.0,0.0,0.09013914,0.0,0.0,0.0,0.0,0.0,0.0,0.0,0.0
128904884,0.09895645,0.098956496,0.21398416,0.30922517,0.30922517,0.0,0.0,0.0,0.0,0.0,0.0,0.0,nan,nan,nan,nan,nan,nan,0.0,12.405767,0.0,0.0,nan,0.0,0.0,0.09013915,0.0,0.0,0.0,0.0,0.0,0.0,0.0,0.0
129104886,0.09894531,0.09894535,0.21396461,0.3080341,0.30803412,0.0,0.0,0.0,0.0,0.0,0.0,0.0,nan,nan,nan,nan,nan,nan,0.0,12.405681,0.0,0.0,nan,0.0,0.0,0.09013914,0.0,0.0,0.0,0.0,0.0,0.0,0.0,0.0
129304848,0.0989383,0.09893834,0.21394591,0.30580455,0.30580455,0.0,0.0,0.0,0.0,0.0,0.0,0.0,nan,nan,nan,nan,nan,nan,0.0,12.405412,0.0,0.0,nan,0.0,0.0,0.09013914,0.0,0.0,0.0,0.0,0.0,0.0,0.0,0.0
129504848,0.09893027,0.098930314,0.21392697,0.30462852,0.30462855,0.0,0.0,0.0,0.0,0.0,0.0,0.0,nan,nan,nan,nan,nan,nan,0.0,12.405331,0.0,0.0,nan,0.0,0.0,0.09013914,0.0,0.0,0.0,0.0,0.0,0.0,0.0,0.0
129704848,0.09892271,0.098922744,0.21396816,0.30346423,0.30346426,0.0,0.0,0.0,0.0,0.0,0.0,0.0,nan,nan,nan,nan,nan,nan,0.0,12.406334,0.0,0.0,nan,0.0,0.0,0.090139136,0.0,0.0,0.0,0.0,0.0,0.0,0.0,0.0
129904861,0.09891537,0.09891541,0.21394926,0.30126753,0.30126756,0.0,0.0,0.0,0.0,0.0,0.0,0.0,nan,nan,nan,nan,nan,nan,0.0,12.405511,0.0,0.0,nan,0.0,0.0,0.09013914,0.0,0.0,0.0,0.0,0.0,0.0,0.0,0.0
130104849,0.09890846,0.09890851,0.21392973,0.2990753,0.2990753,0.0,0.0,0.0,0.0,0.0,0.0,0.0,nan,nan,nan,nan,nan,nan,0.0,12.405417,0.0,0.0,nan,0.0,0.0,0.090139136,0.0,0.0,0.0,0.0,0.0,0.0,0.0,0.0
130304849,0.09889983,0.09889988,0.21397,0.29792312,0.29792312,0.0,0.0,0.0,0.0,0.0,0.0,0.0,nan,nan,nan,nan,nan,nan,0.0,12.405868,0.0,0.0,nan,0.0,0.0,0.09013914,0.0,0.0,0.0,0.0,0.0,0.0,0.0,0.0
130504848,0.09889269,0.09889275,0.21395077,0.29781634,0.29781634,0.0,0.0,0.0,0.0,0.0,0.0,0.0,nan,nan,nan,nan,nan,nan,0.0,12.405786,0.0,0.0,nan,0.0,0.0,0.090139136,0.0,0.0,0.0,0.0,0.0,0.0,0.0,0.0
130704861,0.09888798,0.09888803,0.2139323,0.29669252,0.29669255,0.0,0.0,0.0,0.0,0.0,0.0,0.0,nan,nan,nan,nan,nan,nan,0.0,12.4055195,0.0,0.0,nan,0.0,0.0,0.09013914,0.0,0.0,0.0,0.0,0.0,0.0,0.0,0.0
130904848,0.09882215,0.098822206,0.2139313,0.29640535,0.29640535,0.0,0.0,0.0,0.0,0.0,0.0,0.0,nan,nan,nan,nan,nan,nan,0.0,12.405451,0.0,0.0,nan,0.0,0.0,0.09013914,0.0,0.0,0.0,0.0,0.0,0.0,0.0,0.0
131104848,0.09883122,0.09883127,0.21391633,0.29532748,0.29532748,0.0,0.0,0.0,0.0,0.0,0.0,0.0,nan,nan,nan,nan,nan,nan,0.0,12.405394,0.0,0.0,nan,0.0,0.0,0.09013914,0.0,0.0,0.0,0.0,0.0,0.0,0.0,0.0
131304853,0.09889849,0.098898545,0.21394353,0.29548556,0.29548556,0.0,0.0,0.0,0.0,0.0,0.0,0.0,nan,nan,nan,nan,nan,nan,0.0,12.405143,0.0,0.0,nan,0.0,0.0,0.090139136,0.0,0.0,0.0,0.0,0.0,0.0,0.0,0.0
131504853,0.09889069,0.098890744,0.21398462,0.2943944,0.2943944,0.0,0.0,0.0,0.0,0.0,0.0,0.0,nan,nan,nan,nan,nan,nan,0.0,12.406654,0.0,0.0,nan,0.0,0.0,0.09013914,0.0,0.0,0.0,0.0,0.0,0.0,0.0,0.0
131704867,0.09888284,0.09888289,0.2139625,0.2933049,0.2933049,0.0,0.0,0.0,0.0,0.0,0.0,0.0,nan,nan,nan,nan,nan,nan,0.0,12.405811,0.0,0.0,nan,0.0,0.0,0.09013914,0.0,0.0,0.0,0.0,0.0,0.0,0.0,0.0
131904948,0.098875605,0.098875664,0.21394107,0.29221702,0.29221702,0.0,0.0,0.0,0.0,0.0,0.0,0.0,nan,nan,nan,nan,nan,nan,0.0,12.405697,0.0,0.0,nan,0.0,0.0,0.09013914,0.0,0.0,0.0,0.0,0.0,0.0,0.0,0.0
132104848,0.098867,0.09886706,0.21397986,0.2911308,0.2911308,0.0,0.0,0.0,0.0,0.0,0.0,0.0,nan,nan,nan,nan,nan,nan,0.0,12.406136,0.0,0.0,nan,0.0,0.0,0.090139136,0.0,0.0,0.0,0.0,0.0,0.0,0.0,0.0
132304850,0.09885899,0.09885906,0.21395953,0.29106918,0.29106918,0.0,0.0,0.0,0.0,0.0,0.0,0.0,nan,nan,nan,nan,nan,nan,0.0,12.406034,0.0,0.0,nan,0.0,0.0,0.090139136,0.0,0.0,0.0,0.0,0.0,0.0,0.0,0.0
132504907,0.09885244,0.0988525,0.2139397,0.2899949,0.2899949,0.0,0.0,0.0,0.0,0.0,0.0,0.0,nan,nan,nan,nan,nan,nan,0.0,12.405218,0.0,0.0,nan,0.0,0.0,0.09013913,0.0,0.0,0.0,0.0,0.0,0.0,0.0,0.0
132704866,0.09884525,0.09884532,0.21397991,0.2889207,0.2889207,0.0,0.0,0.0,0.0,0.0,0.0,0.0,nan,nan,nan,nan,nan,nan,0.0,12.405675,0.0,0.0,nan,0.0,0.0,0.090139136,0.0,0.0,0.0,0.0,0.0,0.0,0.0,0.0
132904872,0.09883838,0.09883845,0.21396132,0.2888658,0.28886577,0.0,0.0,0.0,0.0,0.0,0.0,0.0,nan,nan,nan,nan,nan,nan,0.0,12.405925,0.0,0.0,nan,0.0,0.0,0.09013913,0.0,0.0,0.0,0.0,0.0,0.0,0.0,0.0
133104863,0.09883271,0.098832786,0.2139998,0.2888201,0.2888201,0.0,0.0,0.0,0.0,0.0,0.0,0.0,nan,nan,nan,nan,nan,nan,0.0,12.406326,0.0,0.0,nan,0.0,0.0,0.09013913,0.0,0.0,0.0,0.0,0.0,0.0,0.0,0.0
133304880,0.09876689,0.09876696,0.21393552,0.28756133,0.28756136,0.0,0.0,0.0,0.0,0.0,0.0,0.0,nan,nan,nan,nan,nan,nan,0.0,12.406204,0.0,0.0,nan,0.0,0.0,0.09013913,0.0,0.0,0.0,0.0,0.0,0.0,0.0,0.0
133504849,0.098834336,0.09883441,0.21395904,0.28774607,0.28774607,0.0,0.0,0.0,0.0,0.0,0.0,0.0,nan,nan,nan,nan,nan,nan,0.0,12.405903,0.0,0.0,nan,0.0,0.0,0.09013913,0.0,0.0,0.0,0.0,0.0,0.0,0.0,0.0
133704851,0.09876679,0.09876687,0.21395555,0.28649017,0.28649017,0.0,0.0,0.0,0.0,0.0,0.0,0.0,nan,nan,nan,nan,nan,nan,0.0,12.405791,0.0,0.0,nan,0.0,0.0,0.090139136,0.0,0.0,0.0,0.0,0.0,0.0,0.0,0.0
133904875,0.09877139,0.098771475,0.21393836,0.28444546,0.28444546,0.0,0.0,0.0,0.0,0.0,0.0,0.0,nan,nan,nan,nan,nan,nan,0.0,12.406227,0.0,0.0,nan,0.0,0.0,0.09013913,0.0,0.0,0.0,0.0,0.0,0.0,0.0,0.0
134104861,0.098835334,0.09883542,0.21396273,0.28259373,0.28259373,0.0,0.0,0.0,0.0,0.0,0.0,0.0,nan,nan,nan,nan,nan,nan,0.0,12.406126,0.0,0.0,nan,0.0,0.0,0.09013913,0.0,0.0,0.0,0.0,0.0,0.0,0.0,0.0
134704851,0.09879559,0.09879568,0.21396329,0.27832595,0.27832595,0.0,0.0,0.0,0.0,0.0,0.0,0.0,nan,nan,nan,nan,nan,nan,0.0,12.406172,0.0,0.0,nan,0.0,0.0,0.090139136,0.0,0.0,0.0,0.0,0.0,0.0,0.0,0.0
134904848,0.098785944,0.09878603,0.21394296,0.27824706,0.2782471,0.0,0.0,0.0,0.0,0.0,0.0,0.0,nan,nan,nan,nan,nan,nan,0.0,12.405345,0.0,0.0,nan,0.0,0.0,0.090139136,0.0,0.0,0.0,0.0,0.0,0.0,0.0,0.0
135104849,0.0987787,0.09877879,0.21398282,0.27818084,0.27818087,0.0,0.0,0.0,0.0,0.0,0.0,0.0,nan,nan,nan,nan,nan,nan,0.0,12.405785,0.0,0.0,nan,0.0,0.0,0.090139136,0.0,0.0,0.0,0.0,0.0,0.0,0.0,0.0
135304896,0.0987707,0.09877079,0.21396337,0.2781257,0.27812573,0.0,0.0,0.0,0.0,0.0,0.0,0.0,nan,nan,nan,nan,nan,nan,0.0,12.405695,0.0,0.0,nan,0.0,0.0,0.090139136,0.0,0.0,0.0,0.0,0.0,0.0,0.0,0.0
135504856,0.09882895,0.09882904,0.21398662,0.27828115,0.2782812,0.0,0.0,0.0,0.0,0.0,0.0,0.0,nan,nan,nan,nan,nan,nan,0.0,12.405418,0.0,0.0,nan,0.0,0.0,0.090139136,0.0,0.0,0.0,0.0,0.0,0.0,0.0,0.0
135704854,0.09875142,0.09875151,0.21392304,0.27801675,0.2780168,0.0,0.0,0.0,0.0,0.0,0.0,0.0,nan,nan,nan,nan,nan,nan,0.0,12.405335,0.0,0.0,nan,0.0,0.0,0.090139136,0.0,0.0,0.0,0.0,0.0,0.0,0.0,0.0
136104851,0.098738,0.09873808,0.21394292,0.2779395,0.27793956,0.0,0.0,0.0,0.0,0.0,0.0,0.0,nan,nan,nan,nan,nan,nan,0.0,12.405506,0.0,0.0,nan,0.0,0.0,0.09013913,0.0,0.0,0.0,0.0,0.0,0.0,0.0,0.0
136304848,0.09873749,0.09873757,0.21392386,0.2779232,0.27792323,0.0,0.0,0.0,0.0,0.0,0.0,0.0,nan,nan,nan,nan,nan,nan,0.0,12.405411,0.0,0.0,nan,0.0,0.0,0.090139136,0.0,0.0,0.0,0.0,0.0,0.0,0.0,0.0
136504848,0.09868031,0.098680384,0.21392278,0.27771136,0.2777114,0.0,0.0,0.0,0.0,0.0,0.0,0.0,nan,nan,nan,nan,nan,nan,0.0,12.405866,0.0,0.0,nan,0.0,0.0,0.090139136,0.0,0.0,0.0,0.0,0.0,0.0,0.0,0.0
136704859,0.09875622,0.09875627,0.21394867,0.27792525,0.2779253,0.0,0.0,0.0,0.0,0.0,0.0,0.0,nan,nan,nan,nan,nan,nan,0.0,12.405783,0.0,0.0,nan,0.0,0.0,0.090139136,0.0,0.0,0.0,0.0,0.0,0.0,0.0,0.0
136904855,0.09875376,0.09875384,0.21393037,0.27791584,0.27791587,0.0,0.0,0.0,0.0,0.0,0.0,0.0,nan,nan,nan,nan,nan,nan,0.0,12.405517,0.0,0.0,nan,0.0,0.0,0.09013913,0.0,0.0,0.0,0.0,0.0,0.0,0.0,0.0
137104883,0.09875279,0.098752916,0.21397123,0.2779085,0.27790853,0.0,0.0,0.0,0.0,0.0,0.0,0.0,nan,nan,nan,nan,nan,nan,0.0,12.40544,0.0,0.0,nan,0.0,0.0,0.09013913,0.0,0.0,0.0,0.0,0.0,0.0,0.0,0.0
137304894,0.098754,0.098754145,0.2139535,0.27790287,0.2779029,0.0,0.0,0.0,0.0,0.0,0.0,0.0,nan,nan,nan,nan,nan,nan,0.0,12.405376,0.0,0.0,nan,0.0,0.0,0.090139136,0.0,0.0,0.0,0.0,0.0,0.0,0.0,0.0
137504948,0.09874781,0.09874791,0.21393655,0.27789897,0.277899,0.0,0.0,0.0,0.0,0.0,0.0,0.0,nan,nan,nan,nan,nan,nan,0.0,12.404593,0.0,0.0,nan,0.0,0.0,0.09013913,0.0,0.0,0.0,0.0,0.0,0.0,0.0,0.0
137704851,0.09874905,0.098749146,0.21391955,0.27789563,0.27789563,0.0,0.0,0.0,0.0,0.0,0.0,0.0,nan,nan,nan,nan,nan,nan,0.0,12.405073,0.0,0.0,nan,0.0,0.0,0.09013913,0.0,0.0,0.0,0.0,0.0,0.0,0.0,0.0
137904848,0.09874812,0.09874823,0.21396177,0.27789307,0.2778931,0.0,0.0,0.0,0.0,0.0,0.0,0.0,nan,nan,nan,nan,nan,nan,0.0,12.405024,0.0,0.0,nan,0.0,0.0,0.09013912,0.0,0.0,0.0,0.0,0.0,0.0,0.0,0.0
138104848,0.09874426,0.09874433,0.21394551,0.2778914,0.27789143,0.0,0.0,0.0,0.0,0.0,0.0,0.0,nan,nan,nan,nan,nan,nan,0.0,12.405516,0.0,0.0,nan,0.0,0.0,0.09013912,0.0,0.0,0.0,0.0,0.0,0.0,0.0,0.0
138304848,0.098742805,0.09874289,0.2139286,0.27789012,0.27789015,0.0,0.0,0.0,0.0,0.0,0.0,0.0,nan,nan,nan,nan,nan,nan,0.0,12.404739,0.0,0.0,nan,0.0,0.0,0.09013912,0.0,0.0,0.0,0.0,0.0,0.0,0.0,0.0
138504898,0.09874173,0.09874182,0.2139122,0.27788922,0.27788925,0.0,0.0,0.0,0.0,0.0,0.0,0.0,nan,nan,nan,nan,nan,nan,0.0,12.405238,0.0,0.0,nan,0.0,0.0,0.09013913,0.0,0.0,0.0,0.0,0.0,0.0,0.0,0.0
138704851,0.09874175,0.09874183,0.21395473,0.27788848,0.2778885,0.0,0.0,0.0,0.0,0.0,0.0,0.0,nan,nan,nan,nan,nan,nan,0.0,12.405199,0.0,0.0,nan,0.0,0.0,0.09013913,0.0,0.0,0.0,0.0,0.0,0.0,0.0,0.0
138904853,0.09874042,0.0987405,0.21393831,0.277888,0.27788803,0.0,0.0,0.0,0.0,0.0,0.0,0.0,nan,nan,nan,nan,nan,nan,0.0,12.4051695,0.0,0.0,nan,0.0,0.0,0.09013912,0.0,0.0,0.0,0.0,0.0,0.0,0.0,0.0
139104848,0.098738864,0.098738946,0.2139223,0.27788776,0.27788782,0.0,0.0,0.0,0.0,0.0,0.0,0.0,nan,nan,nan,nan,nan,nan,0.0,12.404409,0.0,0.0,nan,0.0,0.0,0.09013912,0.0,0.0,0.0,0.0,0.0,0.0,0.0,0.0
139304848,0.09873851,0.09873858,0.21396537,0.27788758,0.27788764,0.0,0.0,0.0,0.0,0.0,0.0,0.0,nan,nan,nan,nan,nan,nan,0.0,12.40492,0.0,0.0,nan,0.0,0.0,0.09013912,0.0,0.0,0.0,0.0,0.0,0.0,0.0,0.0
139504878,0.09873798,0.09873805,0.21394919,0.27788743,0.27788746,0.0,0.0,0.0,0.0,0.0,0.0,0.0,nan,nan,nan,nan,nan,nan,0.0,12.4049,0.0,0.0,nan,0.0,0.0,0.09013912,0.0,0.0,0.0,0.0,0.0,0.0,0.0,0.0
139704907,0.09873751,0.098737575,0.21393338,0.27788728,0.27788734,0.0,0.0,0.0,0.0,0.0,0.0,0.0,nan,nan,nan,nan,nan,nan,0.0,12.40468,0.0,0.0,nan,0.0,0.0,0.09013912,0.0,0.0,0.0,0.0,0.0,0.0,0.0,0.0
139904848,0.098736875,0.09873694,0.21391688,0.27788717,0.27788723,0.0,0.0,0.0,0.0,0.0,0.0,0.0,nan,nan,nan,nan,nan,nan,0.0,12.404659,0.0,0.0,nan,0.0,0.0,0.09013912,0.0,0.0,0.0,0.0,0.0,0.0,0.0,0.0
140104858,0.098735236,0.09873531,0.21395984,0.27788717,0.27788723,0.0,0.0,0.0,0.0,0.0,0.0,0.0,nan,nan,nan,nan,nan,nan,0.0,12.405182,0.0,0.0,nan,0.0,0.0,0.09013912,0.0,0.0,0.0,0.0,0.0,0.0,0.0,0.0
140504848,0.09873476,0.098734826,0.21392739,0.27788717,0.2778872,0.0,0.0,0.0,0.0,0.0,0.0,0.0,nan,nan,nan,nan,nan,nan,0.0,12.404412,0.0,0.0,nan,0.0,0.0,0.09013911,0.0,0.0,0.0,0.0,0.0,0.0,0.0,0.0
140704851,0.09873473,0.098734796,0.2139703,0.27788705,0.2778871,0.0,0.0,0.0,0.0,0.0,0.0,0.0,nan,nan,nan,nan,nan,nan,0.0,12.405458,0.0,0.0,nan,0.0,0.0,0.09013911,0.0,0.0,0.0,0.0,0.0,0.0,0.0,0.0
140904852,0.09873268,0.09873276,0.21395239,0.27788708,0.2778871,0.0,0.0,0.0,0.0,0.0,0.0,0.0,nan,nan,nan,nan,nan,nan,0.0,12.405416,0.0,0.0,nan,0.0,0.0,0.09013912,0.0,0.0,0.0,0.0,0.0,0.0,0.0,0.0
141104886,0.09873386,0.09873393,0.21393415,0.27788693,0.27788696,0.0,0.0,0.0,0.0,0.0,0.0,0.0,nan,nan,nan,nan,nan,nan,0.0,12.404641,0.0,0.0,nan,0.0,0.0,0.09013911,0.0,0.0,0.0,0.0,0.0,0.0,0.0,0.0
141304868,0.09873375,0.09873381,0.21397553,0.27788678,0.2778868,0.0,0.0,0.0,0.0,0.0,0.0,0.0,nan,nan,nan,nan,nan,nan,0.0,12.40514,0.0,0.0,nan,0.0,0.0,0.09013911,0.0,0.0,0.0,0.0,0.0,0.0,0.0,0.0
141504865,0.098732404,0.098732464,0.21395758,0.2778867,0.27788675,0.0,0.0,0.0,0.0,0.0,0.0,0.0,nan,nan,nan,nan,nan,nan,0.0,12.405107,0.0,0.0,nan,0.0,0.0,0.090139106,0.0,0.0,0.0,0.0,0.0,0.0,0.0,0.0
141704883,0.09873116,0.09873122,0.21394019,0.27788663,0.2778867,0.0,0.0,0.0,0.0,0.0,0.0,0.0,nan,nan,nan,nan,nan,nan,0.0,12.404877,0.0,0.0,nan,0.0,0.0,0.09013911,0.0,0.0,0.0,0.0,0.0,0.0,0.0,0.0
141904848,0.0987305,0.09873056,0.21392238,0.2778866,0.27788666,0.0,0.0,0.0,0.0,0.0,0.0,0.0,nan,nan,nan,nan,nan,nan,0.0,12.404843,0.0,0.0,nan,0.0,0.0,0.090139106,0.0,0.0,0.0,0.0,0.0,0.0,0.0,0.0
142104848,0.09867098,0.09867106,0.21392259,0.27768674,0.27768677,0.0,0.0,0.0,0.0,0.0,0.0,0.0,nan,nan,nan,nan,nan,nan,0.0,12.404825,0.0,0.0,nan,0.0,0.0,0.090139106,0.0,0.0,0.0,0.0,0.0,0.0,0.0,0.0
142304848,0.09874509,0.09874515,0.21395063,0.27791092,0.27791098,0.0,0.0,0.0,0.0,0.0,0.0,0.0,nan,nan,nan,nan,nan,nan,0.0,12.405347,0.0,0.0,nan,0.0,0.0,0.090139106,0.0,0.0,0.0,0.0,0.0,0.0,0.0,0.0
142504875,0.09874256,0.09874262,0.2139337,0.2779084,0.27790844,0.0,0.0,0.0,0.0,0.0,0.0,0.0,nan,nan,nan,nan,nan,nan,0.0,12.404584,0.0,0.0,nan,0.0,0.0,0.090139106,0.0,0.0,0.0,0.0,0.0,0.0,0.0,0.0
144904849,0.09873347,0.098733544,0.2139607,0.27788943,0.2778895,0.0,0.0,0.0,0.0,0.0,0.0,0.0,nan,nan,nan,nan,nan,nan,0.0,12.405264,0.0,0.0,nan,0.0,0.0,0.0901391,0.0,0.0,0.0,0.0,0.0,0.0,0.0,0.0
145104915,0.09873294,0.098733015,0.21394287,0.2778888,0.27788886,0.0,0.0,0.0,0.0,0.0,0.0,0.0,nan,nan,nan,nan,nan,nan,0.0,12.405235,0.0,0.0,nan,0.0,0.0,0.0901391,0.0,0.0,0.0,0.0,0.0,0.0,0.0,0.0
145304976,0.09873259,0.098732665,0.21392561,0.27788824,0.2778883,0.0,0.0,0.0,0.0,0.0,0.0,0.0,nan,nan,nan,nan,nan,nan,0.0,12.405539,0.0,0.0,nan,0.0,0.0,0.0901391,0.0,0.0,0.0,0.0,0.0,0.0,0.0,0.0
145504853,0.098793745,0.09879383,0.21400817,0.27808928,0.27808934,0.0,0.0,0.0,0.0,0.0,0.0,0.0,nan,nan,nan,nan,nan,nan,0.0,12.405471,0.0,0.0,nan,0.0,0.0,0.09013909,0.0,0.0,0.0,0.0,0.0,0.0,0.0,0.0
145704848,0.09878128,0.098781355,0.21398583,0.27806392,0.27806398,0.0,0.0,0.0,0.0,0.0,0.0,0.0,nan,nan,nan,nan,nan,nan,0.0,12.404678,0.0,0.0,nan,0.0,0.0,0.0901391,0.0,0.0,0.0,0.0,0.0,0.0,0.0,0.0
145904880,0.0987703,0.09877038,0.21396399,0.27804103,0.27804106,0.0,0.0,0.0,0.0,0.0,0.0,0.0,nan,nan,nan,nan,nan,nan,0.0,12.405154,0.0,0.0,nan,0.0,0.0,0.09013909,0.0,0.0,0.0,0.0,0.0,0.0,0.0,0.0
146104905,0.09870165,0.09870172,0.21396025,0.27781972,0.27781975,0.0,0.0,0.0,0.0,0.0,0.0,0.0,nan,nan,nan,nan,nan,nan,0.0,12.405105,0.0,0.0,nan,0.0,0.0,0.0901391,0.0,0.0,0.0,0.0,0.0,0.0,0.0,0.0
146304848,0.09870672,0.098706804,0.21394274,0.2778261,0.27782613,0.0,0.0,0.0,0.0,0.0,0.0,0.0,nan,nan,nan,nan,nan,nan,0.0,12.405598,0.0,0.0,nan,0.0,0.0,0.0901391,0.0,0.0,0.0,0.0,0.0,0.0,0.0,0.0
146504848,0.09871159,0.09871166,0.21392487,0.27783212,0.27783215,0.0,0.0,0.0,0.0,0.0,0.0,0.0,nan,nan,nan,nan,nan,nan,0.0,12.404818,0.0,0.0,nan,0.0,0.0,0.0901391,0.0,0.0,0.0,0.0,0.0,0.0,0.0,0.0
146704859,0.098715544,0.09871562,0.21390766,0.27783778,0.27783784,0.0,0.0,0.0,0.0,0.0,0.0,0.0,nan,nan,nan,nan,nan,nan,0.0,12.4047785,0.0,0.0,nan,0.0,0.0,0.0901391,0.0,0.0,0.0,0.0,0.0,0.0,0.0,0.0
146904849,0.09871898,0.098719046,0.21395013,0.27784312,0.27784318,0.0,0.0,0.0,0.0,0.0,0.0,0.0,nan,nan,nan,nan,nan,nan,0.0,12.405819,0.0,0.0,nan,0.0,0.0,0.0901391,0.0,0.0,0.0,0.0,0.0,0.0,0.0,0.0
147104859,0.09872218,0.09872224,0.21393257,0.27784804,0.27784806,0.0,0.0,0.0,0.0,0.0,0.0,0.0,nan,nan,nan,nan,nan,nan,0.0,12.405025,0.0,0.0,nan,0.0,0.0,0.09013909,0.0,0.0,0.0,0.0,0.0,0.0,0.0,0.0
147304855,0.09872487,0.09872493,0.21397345,0.2778526,0.27785262,0.0,0.0,0.0,0.0,0.0,0.0,0.0,nan,nan,nan,nan,nan,nan,0.0,12.405501,0.0,0.0,nan,0.0,0.0,0.0901391,0.0,0.0,0.0,0.0,0.0,0.0,0.0,0.0
147504878,0.098727174,0.09872723,0.21395493,0.27785677,0.2778568,0.0,0.0,0.0,0.0,0.0,0.0,0.0,nan,nan,nan,nan,nan,nan,0.0,12.405439,0.0,0.0,nan,0.0,0.0,0.0901391,0.0,0.0,0.0,0.0,0.0,0.0,0.0,0.0
147704849,0.09872843,0.098728485,0.21393667,0.2778606,0.27786064,0.0,0.0,0.0,0.0,0.0,0.0,0.0,nan,nan,nan,nan,nan,nan,0.0,12.4046545,0.0,0.0,nan,0.0,0.0,0.09013909,0.0,0.0,0.0,0.0,0.0,0.0,0.0,0.0
147904851,0.0987295,0.09872955,0.21391863,0.27786407,0.2778641,0.0,0.0,0.0,0.0,0.0,0.0,0.0,nan,nan,nan,nan,nan,nan,0.0,12.405135,0.0,0.0,nan,0.0,0.0,0.0901391,0.0,0.0,0.0,0.0,0.0,0.0,0.0,0.0
148104848,0.09873034,0.09873039,0.21396011,0.2778672,0.27786723,0.0,0.0,0.0,0.0,0.0,0.0,0.0,nan,nan,nan,nan,nan,nan,0.0,12.4050865,0.0,0.0,nan,0.0,0.0,0.0901391,0.0,0.0,0.0,0.0,0.0,0.0,0.0,0.0
148304848,0.09873085,0.09873091,0.21394292,0.27786994,0.27786997,0.0,0.0,0.0,0.0,0.0,0.0,0.0,nan,nan,nan,nan,nan,nan,0.0,12.405585,0.0,0.0,nan,0.0,0.0,0.0901391,0.0,0.0,0.0,0.0,0.0,0.0,0.0,0.0
148504848,0.09873077,0.09873083,0.21392581,0.27787238,0.27787238,0.0,0.0,0.0,0.0,0.0,0.0,0.0,nan,nan,nan,nan,nan,nan,0.0,12.405327,0.0,0.0,nan,0.0,0.0,0.0901391,0.0,0.0,0.0,0.0,0.0,0.0,0.0,0.0
148704848,0.09873073,0.09873078,0.21396637,0.27787444,0.27787447,0.0,0.0,0.0,0.0,0.0,0.0,0.0,nan,nan,nan,nan,nan,nan,0.0,12.406317,0.0,0.0,nan,0.0,0.0,0.0901391,0.0,0.0,0.0,0.0,0.0,0.0,0.0,0.0
148904857,0.098730616,0.09873068,0.21394537,0.27787626,0.27787626,0.0,0.0,0.0,0.0,0.0,0.0,0.0,nan,nan,nan,nan,nan,nan,0.0,12.40549,0.0,0.0,nan,0.0,0.0,0.0901391,0.0,0.0,0.0,0.0,0.0,0.0,0.0,0.0
149104853,0.09873053,0.098730594,0.21398446,0.27787778,0.2778778,0.0,0.0,0.0,0.0,0.0,0.0,0.0,nan,nan,nan,nan,nan,nan,0.0,12.405932,0.0,0.0,nan,0.0,0.0,0.0901391,0.0,0.0,0.0,0.0,0.0,0.0,0.0,0.0
149304862,0.09873076,0.098730825,0.21396413,0.27787906,0.27787906,0.0,0.0,0.0,0.0,0.0,0.0,0.0,nan,nan,nan,nan,nan,nan,0.0,12.405843,0.0,0.0,nan,0.0,0.0,0.0901391,0.0,0.0,0.0,0.0,0.0,0.0,0.0,0.0
149504854,0.09873062,0.09873069,0.21394476,0.2778802,0.2778802,0.0,0.0,0.0,0.0,0.0,0.0,0.0,nan,nan,nan,nan,nan,nan,0.0,12.405031,0.0,0.0,nan,0.0,0.0,0.0901391,0.0,0.0,0.0,0.0,0.0,0.0,0.0,0.0
149704849,0.09873042,0.09873049,0.21392533,0.27788115,0.27788115,0.0,0.0,0.0,0.0,0.0,0.0,0.0,nan,nan,nan,nan,nan,nan,0.0,12.40549,0.0,0.0,nan,0.0,0.0,0.090139106,0.0,0.0,0.0,0.0,0.0,0.0,0.0,0.0
149904848,0.098731555,0.098731615,0.21396625,0.27788192,0.27788192,0.0,0.0,0.0,0.0,0.0,0.0,0.0,nan,nan,nan,nan,nan,nan,0.0,12.405418,0.0,0.0,nan,0.0,0.0,0.090139106,0.0,0.0,0.0,0.0,0.0,0.0,0.0,0.0
150104880,0.09873128,0.09873133,0.21394846,0.2778826,0.27788264,0.0,0.0,0.0,0.0,0.0,0.0,0.0,nan,nan,nan,nan,nan,nan,0.0,12.405898,0.0,0.0,nan,0.0,0.0,0.090139106,0.0,0.0,0.0,0.0,0.0,0.0,0.0,0.0
150304883,0.09873173,0.09873178,0.21393082,0.27788317,0.2778832,0.0,0.0,0.0,0.0,0.0,0.0,0.0,nan,nan,nan,nan,nan,nan,0.0,12.405104,0.0,0.0,nan,0.0,0.0,0.0901391,0.0,0.0,0.0,0.0,0.0,0.0,0.0,0.0
150504858,0.09873223,0.09873226,0.2139134,0.2778836,0.2778836,0.0,0.0,0.0,0.0,0.0,0.0,0.0,nan,nan,nan,nan,nan,nan,0.0,12.405047,0.0,0.0,nan,0.0,0.0,0.090139106,0.0,0.0,0.0,0.0,0.0,0.0,0.0,0.0
150704855,0.09873175,0.098731786,0.21395576,0.277884,0.277884,0.0,0.0,0.0,0.0,0.0,0.0,0.0,nan,nan,nan,nan,nan,nan,0.0,12.405533,0.0,0.0,nan,0.0,0.0,0.090139106,0.0,0.0,0.0,0.0,0.0,0.0,0.0,0.0
150904848,0.09873147,0.098731525,0.21393858,0.2778843,0.2778843,0.0,0.0,0.0,0.0,0.0,0.0,0.0,nan,nan,nan,nan,nan,nan,0.0,12.405478,0.0,0.0,nan,0.0,0.0,0.090139106,0.0,0.0,0.0,0.0,0.0,0.0,0.0,0.0
151104876,0.09873078,0.098730825,0.21392149,0.27788457,0.27788457,0.0,0.0,0.0,0.0,0.0,0.0,0.0,nan,nan,nan,nan,nan,nan,0.0,12.404697,0.0,0.0,nan,0.0,0.0,0.090139106,0.0,0.0,0.0,0.0,0.0,0.0,0.0,0.0
151304848,0.098731555,0.0987316,0.21396384,0.27788472,0.27788472,0.0,0.0,0.0,0.0,0.0,0.0,0.0,nan,nan,nan,nan,nan,nan,0.0,12.405193,0.0,0.0,nan,0.0,0.0,0.09013911,0.0,0.0,0.0,0.0,0.0,0.0,0.0,0.0
151504875,0.0987312,0.09873125,0.21394739,0.27788493,0.27788493,0.0,0.0,0.0,0.0,0.0,0.0,0.0,nan,nan,nan,nan,nan,nan,0.0,12.40567,0.0,0.0,nan,0.0,0.0,0.090139106,0.0,0.0,0.0,0.0,0.0,0.0,0.0,0.0
151704928,0.09879191,0.098791964,0.21397084,0.27808654,0.27808654,0.0,0.0,0.0,0.0,0.0,0.0,0.0,nan,nan,nan,nan,nan,nan,0.0,12.405406,0.0,0.0,nan,0.0,0.0,0.09013911,0.0,0.0,0.0,0.0,0.0,0.0,0.0,0.0
151904865,0.09871926,0.09871931,0.213967,0.2778604,0.2778604,0.0,0.0,0.0,0.0,0.0,0.0,0.0,nan,nan,nan,nan,nan,nan,0.0,12.405342,0.0,0.0,nan,0.0,0.0,0.090139106,0.0,0.0,0.0,0.0,0.0,0.0,0.0,0.0
152104851,0.09872145,0.098721504,0.21394932,0.27786282,0.27786285,0.0,0.0,0.0,0.0,0.0,0.0,0.0,nan,nan,nan,nan,nan,nan,0.0,12.405821,0.0,0.0,nan,0.0,0.0,0.09013911,0.0,0.0,0.0,0.0,0.0,0.0,0.0,0.0
152304848,0.098723054,0.09872311,0.21393135,0.2778651,0.2778651,0.0,0.0,0.0,0.0,0.0,0.0,0.0,nan,nan,nan,nan,nan,nan,0.0,12.405032,0.0,0.0,nan,0.0,0.0,0.090139106,0.0,0.0,0.0,0.0,0.0,0.0,0.0,0.0
152504882,0.09872443,0.098724484,0.21391402,0.27786726,0.2778673,0.0,0.0,0.0,0.0,0.0,0.0,0.0,nan,nan,nan,nan,nan,nan,0.0,12.404976,0.0,0.0,nan,0.0,0.0,0.09013911,0.0,0.0,0.0,0.0,0.0,0.0,0.0,0.0
152704887,0.09878603,0.09878609,0.21399786,0.27807057,0.27807057,0.0,0.0,0.0,0.0,0.0,0.0,0.0,nan,nan,nan,nan,nan,nan,0.0,12.40546,0.0,0.0,nan,0.0,0.0,0.09013911,0.0,0.0,0.0,0.0,0.0,0.0,0.0,0.0
152904853,0.09871411,0.09871417,0.21393603,0.2778464,0.2778464,0.0,0.0,0.0,0.0,0.0,0.0,0.0,nan,nan,nan,nan,nan,nan,0.0,12.405417,0.0,0.0,nan,0.0,0.0,0.09013911,0.0,0.0,0.0,0.0,0.0,0.0,0.0,0.0
153104880,0.098717466,0.09871754,0.21391971,0.27785036,0.2778504,0.0,0.0,0.0,0.0,0.0,0.0,0.0,nan,nan,nan,nan,nan,nan,0.0,12.405169,0.0,0.0,nan,0.0,0.0,0.09013911,0.0,0.0,0.0,0.0,0.0,0.0,0.0,0.0
153304861,0.098719805,0.09871987,0.21396126,0.2778541,0.27785414,0.0,0.0,0.0,0.0,0.0,0.0,0.0,nan,nan,nan,nan,nan,nan,0.0,12.40564,0.0,0.0,nan,0.0,0.0,0.09013911,0.0,0.0,0.0,0.0,0.0,0.0,0.0,0.0
153504852,0.09872229,0.09872235,0.21394275,0.27785763,0.27785763,0.0,0.0,0.0,0.0,0.0,0.0,0.0,nan,nan,nan,nan,nan,nan,0.0,12.405578,0.0,0.0,nan,0.0,0.0,0.09013911,0.0,0.0,0.0,0.0,0.0,0.0,0.0,0.0
153704852,0.098724626,0.09872469,0.213925,0.27786085,0.27786088,0.0,0.0,0.0,0.0,0.0,0.0,0.0,nan,nan,nan,nan,nan,nan,0.0,12.405326,0.0,0.0,nan,0.0,0.0,0.09013911,0.0,0.0,0.0,0.0,0.0,0.0,0.0,0.0
153904850,0.09872628,0.09872635,0.21396635,0.27786386,0.2778639,0.0,0.0,0.0,0.0,0.0,0.0,0.0,nan,nan,nan,nan,nan,nan,0.0,12.405269,0.0,0.0,nan,0.0,0.0,0.09013911,0.0,0.0,0.0,0.0,0.0,0.0,0.0,0.0
154104848,0.09872768,0.09872775,0.21394897,0.2778666,0.27786663,0.0,0.0,0.0,0.0,0.0,0.0,0.0,nan,nan,nan,nan,nan,nan,0.0,12.40576,0.0,0.0,nan,0.0,0.0,0.09013911,0.0,0.0,0.0,0.0,0.0,0.0,0.0,0.0
154304883,0.098728605,0.09872867,0.2139317,0.27786908,0.2778691,0.0,0.0,0.0,0.0,0.0,0.0,0.0,nan,nan,nan,nan,nan,nan,0.0,12.404975,0.0,0.0,nan,0.0,0.0,0.090139106,0.0,0.0,0.0,0.0,0.0,0.0,0.0,0.0
154504863,0.0986687,0.09866877,0.21393183,0.2776717,0.27767172,0.0,0.0,0.0,0.0,0.0,0.0,0.0,nan,nan,nan,nan,nan,nan,0.0,12.405472,0.0,0.0,nan,0.0,0.0,0.09013911,0.0,0.0,0.0,0.0,0.0,0.0,0.0,0.0
154704848,0.09868139,0.09868145,0.2139177,0.27769804,0.27769807,0.0,0.0,0.0,0.0,0.0,0.0,0.0,nan,nan,nan,nan,nan,nan,0.0,12.405951,0.0,0.0,nan,0.0,0.0,0.09013911,0.0,0.0,0.0,0.0,0.0,0.0,0.0,0.0
154904848,0.09875248,0.098752536,0.21394336,0.27792212,0.27792215,0.0,0.0,0.0,0.0,0.0,0.0,0.0,nan,nan,nan,nan,nan,nan,0.0,12.405148,0.0,0.0,nan,0.0,0.0,0.09013911,0.0,0.0,0.0,0.0,0.0,0.0,0.0,0.0
155104848,0.09874876,0.09874882,0.21392442,0.27791914,0.27791914,0.0,0.0,0.0,0.0,0.0,0.0,0.0,nan,nan,nan,nan,nan,nan,0.0,12.405621,0.0,0.0,nan,0.0,0.0,0.09013911,0.0,0.0,0.0,0.0,0.0,0.0,0.0,0.0
155304892,0.098745674,0.09874573,0.21396504,0.27791613,0.27791613,0.0,0.0,0.0,0.0,0.0,0.0,0.0,nan,nan,nan,nan,nan,nan,0.0,12.405556,0.0,0.0,nan,0.0,0.0,0.090139106,0.0,0.0,0.0,0.0,0.0,0.0,0.0,0.0
155504855,0.09874238,0.09874244,0.21394664,0.2779133,0.2779133,0.0,0.0,0.0,0.0,0.0,0.0,0.0,nan,nan,nan,nan,nan,nan,0.0,12.40477,0.0,0.0,nan,0.0,0.0,0.09013911,0.0,0.0,0.0,0.0,0.0,0.0,0.0,0.0
155704848,0.09880086,0.09880092,0.21397023,0.27811226,0.27811226,0.0,0.0,0.0,0.0,0.0,0.0,0.0,nan,nan,nan,nan,nan,nan,0.0,12.405243,0.0,0.0,nan,0.0,0.0,0.09013911,0.0,0.0,0.0,0.0,0.0,0.0,0.0,0.0
155904849,0.09872542,0.098725475,0.21396688,0.27788305,0.27788305,0.0,0.0,0.0,0.0,0.0,0.0,0.0,nan,nan,nan,nan,nan,nan,0.0,12.405191,0.0,0.0,nan,0.0,0.0,0.09013911,0.0,0.0,0.0,0.0,0.0,0.0,0.0,0.0
156104875,0.09878638,0.09878643,0.21399154,0.27808428,0.2780843,0.0,0.0,0.0,0.0,0.0,0.0,0.0,nan,nan,nan,nan,nan,nan,0.0,12.405144,0.0,0.0,nan,0.0,0.0,0.09013911,0.0,0.0,0.0,0.0,0.0,0.0,0.0,0.0
156304848,0.0987137,0.098713756,0.21393013,0.27785802,0.27785808,0.0,0.0,0.0,0.0,0.0,0.0,0.0,nan,nan,nan,nan,nan,nan,0.0,12.404909,0.0,0.0,nan,0.0,0.0,0.09013911,0.0,0.0,0.0,0.0,0.0,0.0,0.0,0.0
156504848,0.09871612,0.09871617,0.21391317,0.27786025,0.27786028,0.0,0.0,0.0,0.0,0.0,0.0,0.0,nan,nan,nan,nan,nan,nan,0.0,12.404869,0.0,0.0,nan,0.0,0.0,0.0901391,0.0,0.0,0.0,0.0,0.0,0.0,0.0,0.0
156704878,0.098718494,0.09871855,0.2139559,0.27786243,0.27786246,0.0,0.0,0.0,0.0,0.0,0.0,0.0,nan,nan,nan,nan,nan,nan,0.0,12.4053755,0.0,0.0,nan,0.0,0.0,0.090139106,0.0,0.0,0.0,0.0,0.0,0.0,0.0,0.0
156904848,0.09866069,0.09866074,0.21389776,0.27766505,0.27766508,0.0,0.0,0.0,0.0,0.0,0.0,0.0,nan,nan,nan,nan,nan,nan,0.0,12.405347,0.0,0.0,nan,0.0,0.0,0.09013911,0.0,0.0,0.0,0.0,0.0,0.0,0.0,0.0
157104861,0.09873522,0.098735265,0.21392597,0.27789116,0.2778912,0.0,0.0,0.0,0.0,0.0,0.0,0.0,nan,nan,nan,nan,nan,nan,0.0,12.404576,0.0,0.0,nan,0.0,0.0,0.090139106,0.0,0.0,0.0,0.0,0.0,0.0,0.0,0.0
157304848,0.09867446,0.098674506,0.21392642,0.27769095,0.27769098,0.0,0.0,0.0,0.0,0.0,0.0,0.0,nan,nan,nan,nan,nan,nan,0.0,12.40509,0.0,0.0,nan,0.0,0.0,0.090139106,0.0,0.0,0.0,0.0,0.0,0.0,0.0,0.0
157504881,0.09868646,0.098686494,0.21391276,0.277715,0.277715,0.0,0.0,0.0,0.0,0.0,0.0,0.0,nan,nan,nan,nan,nan,nan,0.0,12.40561,0.0,0.0,nan,0.0,0.0,0.090139106,0.0,0.0,0.0,0.0,0.0,0.0,0.0,0.0
157704856,0.098756716,0.09875676,0.21394059,0.2779371,0.2779371,0.0,0.0,0.0,0.0,0.0,0.0,0.0,nan,nan,nan,nan,nan,nan,0.0,12.405359,0.0,0.0,nan,0.0,0.0,0.090139106,0.0,0.0,0.0,0.0,0.0,0.0,0.0,0.0
157904885,0.09875202,0.098752074,0.21398076,0.27793217,0.2779322,0.0,0.0,0.0,0.0,0.0,0.0,0.0,nan,nan,nan,nan,nan,nan,0.0,12.405303,0.0,0.0,nan,0.0,0.0,0.090139106,0.0,0.0,0.0,0.0,0.0,0.0,0.0,0.0
158104938,0.09874773,0.09874778,0.21396212,0.2779275,0.2779275,0.0,0.0,0.0,0.0,0.0,0.0,0.0,nan,nan,nan,nan,nan,nan,0.0,12.405796,0.0,0.0,nan,0.0,0.0,0.0901391,0.0,0.0,0.0,0.0,0.0,0.0,0.0,0.0
158304848,0.09874419,0.098744236,0.21394362,0.27792305,0.27792305,0.0,0.0,0.0,0.0,0.0,0.0,0.0,nan,nan,nan,nan,nan,nan,0.0,12.405011,0.0,0.0,nan,0.0,0.0,0.0901391,0.0,0.0,0.0,0.0,0.0,0.0,0.0,0.0
158504884,0.09874089,0.09874094,0.21392529,0.2779189,0.2779189,0.0,0.0,0.0,0.0,0.0,0.0,0.0,nan,nan,nan,nan,nan,nan,0.0,12.404966,0.0,0.0,nan,0.0,0.0,0.0901391,0.0,0.0,0.0,0.0,0.0,0.0,0.0,0.0
158704848,0.098738715,0.09873876,0.21396688,0.27791497,0.27791497,0.0,0.0,0.0,0.0,0.0,0.0,0.0,nan,nan,nan,nan,nan,nan,0.0,12.405462,0.0,0.0,nan,0.0,0.0,0.090139106,0.0,0.0,0.0,0.0,0.0,0.0,0.0,0.0
158904883,0.09873668,0.098736726,0.21394883,0.27791137,0.2779114,0.0,0.0,0.0,0.0,0.0,0.0,0.0,nan,nan,nan,nan,nan,nan,0.0,12.405424,0.0,0.0,nan,0.0,0.0,0.090139106,0.0,0.0,0.0,0.0,0.0,0.0,0.0,0.0
159104901,0.09873516,0.098735206,0.21393137,0.27790806,0.27790806,0.0,0.0,0.0,0.0,0.0,0.0,0.0,nan,nan,nan,nan,nan,nan,0.0,12.405177,0.0,0.0,nan,0.0,0.0,0.090139106,0.0,0.0,0.0,0.0,0.0,0.0,0.0,0.0
159304848,0.09873369,0.09873374,0.21397199,0.27790505,0.27790505,0.0,0.0,0.0,0.0,0.0,0.0,0.0,nan,nan,nan,nan,nan,nan,0.0,12.405659,0.0,0.0,nan,0.0,0.0,0.090139106,0.0,0.0,0.0,0.0,0.0,0.0,0.0,0.0
159504851,0.09873305,0.0987331,0.21395294,0.2779023,0.27790233,0.0,0.0,0.0,0.0,0.0,0.0,0.0,nan,nan,nan,nan,nan,nan,0.0,12.4056,0.0,0.0,nan,0.0,0.0,0.090139106,0.0,0.0,0.0,0.0,0.0,0.0,0.0,0.0
159704855,0.098732114,0.09873216,0.21393417,0.27789986,0.27789986,0.0,0.0,0.0,0.0,0.0,0.0,0.0,nan,nan,nan,nan,nan,nan,0.0,12.405349,0.0,0.0,nan,0.0,0.0,0.0901391,0.0,0.0,0.0,0.0,0.0,0.0,0.0,0.0
159904848,0.09873171,0.098731756,0.21397468,0.2778977,0.2778977,0.0,0.0,0.0,0.0,0.0,0.0,0.0,nan,nan,nan,nan,nan,nan,0.0,12.4052925,0.0,0.0,nan,0.0,0.0,0.090139106,0.0,0.0,0.0,0.0,0.0,0.0,0.0,0.0
160104848,0.09867092,0.09867096,0.21391466,0.27769604,0.27769607,0.0,0.0,0.0,0.0,0.0,0.0,0.0,nan,nan,nan,nan,nan,nan,0.0,12.405791,0.0,0.0,nan,0.0,0.0,0.090139106,0.0,0.0,0.0,0.0,0.0,0.0,0.0,0.0
160304879,0.09874331,0.09874336,0.21394123,0.27791882,0.27791882,0.0,0.0,0.0,0.0,0.0,0.0,0.0,nan,nan,nan,nan,nan,nan,0.0,12.405005,0.0,0.0,nan,0.0,0.0,0.0901391,0.0,0.0,0.0,0.0,0.0,0.0,0.0,0.0
160504848,0.098740526,0.09874056,0.21392311,0.277915,0.27791503,0.0,0.0,0.0,0.0,0.0,0.0,0.0,nan,nan,nan,nan,nan,nan,0.0,12.404962,0.0,0.0,nan,0.0,0.0,0.0901391,0.0,0.0,0.0,0.0,0.0,0.0,0.0,0.0
160704848,0.09873789,0.09873793,0.21396488,0.2779115,0.2779115,0.0,0.0,0.0,0.0,0.0,0.0,0.0,nan,nan,nan,nan,nan,nan,0.0,12.405777,0.0,0.0,nan,0.0,0.0,0.0901391,0.0,0.0,0.0,0.0,0.0,0.0,0.0,0.0
160904852,0.09873572,0.09873576,0.21394368,0.27790824,0.27790824,0.0,0.0,0.0,0.0,0.0,0.0,0.0,nan,nan,nan,nan,nan,nan,0.0,12.405677,0.0,0.0,nan,0.0,0.0,0.0901391,0.0,0.0,0.0,0.0,0.0,0.0,0.0,0.0
161104877,0.09873457,0.0987346,0.21398236,0.27790523,0.27790523,0.0,0.0,0.0,0.0,0.0,0.0,0.0,nan,nan,nan,nan,nan,nan,0.0,12.406122,0.0,0.0,nan,0.0,0.0,0.090139106,0.0,0.0,0.0,0.0,0.0,0.0,0.0,0.0
161304851,0.09873309,0.09873312,0.21396138,0.2779025,0.27790254,0.0,0.0,0.0,0.0,0.0,0.0,0.0,nan,nan,nan,nan,nan,nan,0.0,12.406027,0.0,0.0,nan,0.0,0.0,0.090139106,0.0,0.0,0.0,0.0,0.0,0.0,0.0,0.0
161504848,0.09867161,0.09867164,0.2138992,0.2777003,0.2777003,0.0,0.0,0.0,0.0,0.0,0.0,0.0,nan,nan,nan,nan,nan,nan,0.0,12.405218,0.0,0.0,nan,0.0,0.0,0.090139106,0.0,0.0,0.0,0.0,0.0,0.0,0.0,0.0
162704880,0.09873453,0.09873454,0.21395022,0.2779046,0.2779046,0.0,0.0,0.0,0.0,0.0,0.0,0.0,nan,nan,nan,nan,nan,nan,0.0,12.4057045,0.0,0.0,nan,0.0,0.0,0.090139106,0.0,0.0,0.0,0.0,0.0,0.0,0.0,0.0
162904848,0.098733805,0.09873382,0.21393265,0.27790195,0.27790195,0.0,0.0,0.0,0.0,0.0,0.0,0.0,nan,nan,nan,nan,nan,nan,0.0,12.404917,0.0,0.0,nan,0.0,0.0,0.0901391,0.0,0.0,0.0,0.0,0.0,0.0,0.0,0.0
163104848,0.09873343,0.09873345,0.21391517,0.2778996,0.2778996,0.0,0.0,0.0,0.0,0.0,0.0,0.0,nan,nan,nan,nan,nan,nan,0.0,12.405405,0.0,0.0,nan,0.0,0.0,0.090139106,0.0,0.0,0.0,0.0,0.0,0.0,0.0,0.0
163304848,0.098746866,0.09874682,0.213957,0.27789664,0.27789664,0.0,0.0,0.0,0.0,0.0,0.0,0.0,nan,nan,nan,nan,nan,nan,0.0,12.405355,0.0,0.0,nan,0.0,0.0,0.090139106,0.0,0.0,0.0,0.0,0.0,0.0,0.0,0.0
163504848,0.098749295,0.098748736,0.21393962,0.2778951,0.2778951,0.0,0.0,0.0,0.0,0.0,0.0,0.0,nan,nan,nan,nan,nan,nan,0.0,12.405314,0.0,0.0,nan,0.0,0.0,0.09013911,0.0,0.0,0.0,0.0,0.0,0.0,0.0,0.0
163704855,0.09873465,0.09873561,0.21392153,0.27789444,0.27789444,0.0,0.0,0.0,0.0,0.0,0.0,0.0,nan,nan,nan,nan,nan,nan,0.0,12.405609,0.0,0.0,nan,0.0,0.0,0.09013912,0.0,0.0,0.0,0.0,0.0,0.0,0.0,0.0
163904899,0.098717935,0.098719135,0.21396165,0.2778924,0.2778924,0.0,0.0,0.0,0.0,0.0,0.0,0.0,nan,nan,nan,nan,nan,nan,0.0,12.405545,0.0,0.0,nan,0.0,0.0,0.09013912,0.0,0.0,0.0,0.0,0.0,0.0,0.0,0.0
164104859,0.098727345,0.098727606,0.21394378,0.27789068,0.2778907,0.0,0.0,0.0,0.0,0.0,0.0,0.0,nan,nan,nan,nan,nan,nan,0.0,12.404753,0.0,0.0,nan,0.0,0.0,0.09013913,0.0,0.0,0.0,0.0,0.0,0.0,0.0,0.0
164304934,0.09873015,0.098730095,0.21392488,0.27788943,0.27788943,0.0,0.0,0.0,0.0,0.0,0.0,0.0,nan,nan,nan,nan,nan,nan,0.0,12.405226,0.0,0.0,nan,0.0,0.0,0.09013912,0.0,0.0,0.0,0.0,0.0,0.0,0.0,0.0
164504865,0.09872633,0.09872632,0.21396588,0.27788877,0.27788877,0.0,0.0,0.0,0.0,0.0,0.0,0.0,nan,nan,nan,nan,nan,nan,0.0,12.4051695,0.0,0.0,nan,0.0,0.0,0.09013912,0.0,0.0,0.0,0.0,0.0,0.0,0.0,0.0
164704861,0.09872866,0.09872869,0.21394826,0.27788806,0.27788806,0.0,0.0,0.0,0.0,0.0,0.0,0.0,nan,nan,nan,nan,nan,nan,0.0,12.405655,0.0,0.0,nan,0.0,0.0,0.09013912,0.0,0.0,0.0,0.0,0.0,0.0,0.0,0.0
164904848,0.09872869,0.09872874,0.21393026,0.27788746,0.27788746,0.0,0.0,0.0,0.0,0.0,0.0,0.0,nan,nan,nan,nan,nan,nan,0.0,12.40487,0.0,0.0,nan,0.0,0.0,0.09013912,0.0,0.0,0.0,0.0,0.0,0.0,0.0,0.0
165104861,0.09872817,0.09872825,0.21391289,0.277887,0.277887,0.0,0.0,0.0,0.0,0.0,0.0,0.0,nan,nan,nan,nan,nan,nan,0.0,12.404827,0.0,0.0,nan,0.0,0.0,0.09013912,0.0,0.0,0.0,0.0,0.0,0.0,0.0,0.0
165304901,0.098728895,0.098728985,0.21395522,0.27788648,0.27788648,0.0,0.0,0.0,0.0,0.0,0.0,0.0,nan,nan,nan,nan,nan,nan,0.0,12.405862,0.0,0.0,nan,0.0,0.0,0.09013912,0.0,0.0,0.0,0.0,0.0,0.0,0.0,0.0
165504849,0.098728575,0.09872869,0.21393755,0.27788603,0.27788603,0.0,0.0,0.0,0.0,0.0,0.0,0.0,nan,nan,nan,nan,nan,nan,0.0,12.405065,0.0,0.0,nan,0.0,0.0,0.09013911,0.0,0.0,0.0,0.0,0.0,0.0,0.0,0.0
165704866,0.09872933,0.09872945,0.21397829,0.2778856,0.2778856,0.0,0.0,0.0,0.0,0.0,0.0,0.0,nan,nan,nan,nan,nan,nan,0.0,12.405537,0.0,0.0,nan,0.0,0.0,0.09013911,0.0,0.0,0.0,0.0,0.0,0.0,0.0,0.0
165904848,0.09878942,0.098789565,0.21400152,0.27808672,0.27808672,0.0,0.0,0.0,0.0,0.0,0.0,0.0,nan,nan,nan,nan,nan,nan,0.0,12.405472,0.0,0.0,nan,0.0,0.0,0.09013912,0.0,0.0,0.0,0.0,0.0,0.0,0.0,0.0
166104883,0.098776616,0.09877676,0.21398067,0.27806142,0.27806145,0.0,0.0,0.0,0.0,0.0,0.0,0.0,nan,nan,nan,nan,nan,nan,0.0,12.404678,0.0,0.0,nan,0.0,0.0,0.09013911,0.0,0.0,0.0,0.0,0.0,0.0,0.0,0.0
166304848,0.09870606,0.0987062,0.21391794,0.2778377,0.2778377,0.0,0.0,0.0,0.0,0.0,0.0,0.0,nan,nan,nan,nan,nan,nan,0.0,12.405155,0.0,0.0,nan,0.0,0.0,0.09013911,0.0,0.0,0.0,0.0,0.0,0.0,0.0,0.0
166504849,0.09876949,0.09876965,0.2139421,0.278043,0.278043,0.0,0.0,0.0,0.0,0.0,0.0,0.0,nan,nan,nan,nan,nan,nan,0.0,12.405097,0.0,0.0,nan,0.0,0.0,0.09013911,0.0,0.0,0.0,0.0,0.0,0.0,0.0,0.0
166704848,0.098760694,0.09876085,0.21398166,0.2780222,0.2780222,0.0,0.0,0.0,0.0,0.0,0.0,0.0,nan,nan,nan,nan,nan,nan,0.0,12.405586,0.0,0.0,nan,0.0,0.0,0.09013911,0.0,0.0,0.0,0.0,0.0,0.0,0.0,0.0
166904882,0.09869248,0.09869264,0.21392027,0.27780303,0.27780303,0.0,0.0,0.0,0.0,0.0,0.0,0.0,nan,nan,nan,nan,nan,nan,0.0,12.405327,0.0,0.0,nan,0.0,0.0,0.090139106,0.0,0.0,0.0,0.0,0.0,0.0,0.0,0.0
167104848,0.0986988,0.09869896,0.21396142,0.27781105,0.27781108,0.0,0.0,0.0,0.0,0.0,0.0,0.0,nan,nan,nan,nan,nan,nan,0.0,12.406314,0.0,0.0,nan,0.0,0.0,0.090139106,0.0,0.0,0.0,0.0,0.0,0.0,0.0,0.0
167304848,0.098704085,0.09870424,0.2139411,0.27781865,0.27781868,0.0,0.0,0.0,0.0,0.0,0.0,0.0,nan,nan,nan,nan,nan,nan,0.0,12.405486,0.0,0.0,nan,0.0,0.0,0.090139106,0.0,0.0,0.0,0.0,0.0,0.0,0.0,0.0
167504878,0.09870876,0.09870892,0.21392134,0.2778257,0.27782574,0.0,0.0,0.0,0.0,0.0,0.0,0.0,nan,nan,nan,nan,nan,nan,0.0,12.405933,0.0,0.0,nan,0.0,0.0,0.090139106,0.0,0.0,0.0,0.0,0.0,0.0,0.0,0.0
167704848,0.09871272,0.09871288,0.21396151,0.27783227,0.2778323,0.0,0.0,0.0,0.0,0.0,0.0,0.0,nan,nan,nan,nan,nan,nan,0.0,12.405843,0.0,0.0,nan,0.0,0.0,0.0901391,0.0,0.0,0.0,0.0,0.0,0.0,0.0,0.0
167904848,0.09871623,0.09871638,0.21394274,0.27783832,0.27783832,0.0,0.0,0.0,0.0,0.0,0.0,0.0,nan,nan,nan,nan,nan,nan,0.0,12.40503,0.0,0.0,nan,0.0,0.0,0.0901391,0.0,0.0,0.0,0.0,0.0,0.0,0.0,0.0
168104863,0.09871796,0.0987181,0.21392384,0.27784383,0.27784383,0.0,0.0,0.0,0.0,0.0,0.0,0.0,nan,nan,nan,nan,nan,nan,0.0,12.405487,0.0,0.0,nan,0.0,0.0,0.0901391,0.0,0.0,0.0,0.0,0.0,0.0,0.0,0.0
168304848,0.098720625,0.09872076,0.21396528,0.27784875,0.27784878,0.0,0.0,0.0,0.0,0.0,0.0,0.0,nan,nan,nan,nan,nan,nan,0.0,12.405415,0.0,0.0,nan,0.0,0.0,0.09013909,0.0,0.0,0.0,0.0,0.0,0.0,0.0,0.0
168504864,0.098731086,0.098731235,0.21394789,0.27785298,0.277853,0.0,0.0,0.0,0.0,0.0,0.0,0.0,nan,nan,nan,nan,nan,nan,0.0,12.405147,0.0,0.0,nan,0.0,0.0,0.09013909,0.0,0.0,0.0,0.0,0.0,0.0,0.0,0.0
168704891,0.09874079,0.09874068,0.21392868,0.27785704,0.2778571,0.0,0.0,0.0,0.0,0.0,0.0,0.0,nan,nan,nan,nan,nan,nan,0.0,12.405589,0.0,0.0,nan,0.0,0.0,0.09013908,0.0,0.0,0.0,0.0,0.0,0.0,0.0,0.0
169704852,0.09878583,0.09878583,0.21399726,0.2780707,0.27807072,0.0,0.0,0.0,0.0,0.0,0.0,0.0,nan,nan,nan,nan,nan,nan,0.0,12.405536,0.0,0.0,nan,0.0,0.0,0.09013909,0.0,0.0,0.0,0.0,0.0,0.0,0.0,0.0
169904854,0.09871574,0.09871572,0.21393551,0.2778467,0.2778467,0.0,0.0,0.0,0.0,0.0,0.0,0.0,nan,nan,nan,nan,nan,nan,0.0,12.405282,0.0,0.0,nan,0.0,0.0,0.09013909,0.0,0.0,0.0,0.0,0.0,0.0,0.0,0.0
170104851,0.098717995,0.09871799,0.21397746,0.27785087,0.27785087,0.0,0.0,0.0,0.0,0.0,0.0,0.0,nan,nan,nan,nan,nan,nan,0.0,12.405735,0.0,0.0,nan,0.0,0.0,0.09013908,0.0,0.0,0.0,0.0,0.0,0.0,0.0,0.0
170304879,0.09872023,0.098720245,0.21395895,0.27785468,0.27785468,0.0,0.0,0.0,0.0,0.0,0.0,0.0,nan,nan,nan,nan,nan,nan,0.0,12.405651,0.0,0.0,nan,0.0,0.0,0.090139076,0.0,0.0,0.0,0.0,0.0,0.0,0.0,0.0
170504848,0.098722205,0.09872222,0.21394081,0.2778582,0.2778582,0.0,0.0,0.0,0.0,0.0,0.0,0.0,nan,nan,nan,nan,nan,nan,0.0,12.405384,0.0,0.0,nan,0.0,0.0,0.090139076,0.0,0.0,0.0,0.0,0.0,0.0,0.0,0.0
170704855,0.098723985,0.09872401,0.21392243,0.2778614,0.27786142,0.0,0.0,0.0,0.0,0.0,0.0,0.0,nan,nan,nan,nan,nan,nan,0.0,12.405306,0.0,0.0,nan,0.0,0.0,0.090139076,0.0,0.0,0.0,0.0,0.0,0.0,0.0,0.0
170904852,0.09872463,0.098724656,0.21396402,0.2778643,0.2778643,0.0,0.0,0.0,0.0,0.0,0.0,0.0,nan,nan,nan,nan,nan,nan,0.0,12.405778,0.0,0.0,nan,0.0,0.0,0.090139076,0.0,0.0,0.0,0.0,0.0,0.0,0.0,0.0
171104915,0.09872523,0.09872525,0.21394654,0.2778669,0.2778669,0.0,0.0,0.0,0.0,0.0,0.0,0.0,nan,nan,nan,nan,nan,nan,0.0,12.40571,0.0,0.0,nan,0.0,0.0,0.09013907,0.0,0.0,0.0,0.0,0.0,0.0,0.0,0.0
171304865,0.09872624,0.098726265,0.21392924,0.27786922,0.27786922,0.0,0.0,0.0,0.0,0.0,0.0,0.0,nan,nan,nan,nan,nan,nan,0.0,12.404921,0.0,0.0,nan,0.0,0.0,0.09013907,0.0,0.0,0.0,0.0,0.0,0.0,0.0,0.0
171504905,0.098726474,0.0987265,0.21397142,0.2778713,0.27787134,0.0,0.0,0.0,0.0,0.0,0.0,0.0,nan,nan,nan,nan,nan,nan,0.0,12.406459,0.0,0.0,nan,0.0,0.0,0.09013906,0.0,0.0,0.0,0.0,0.0,0.0,0.0,0.0
171704850,0.09872763,0.09872766,0.21395187,0.2778731,0.27787313,0.0,0.0,0.0,0.0,0.0,0.0,0.0,nan,nan,nan,nan,nan,nan,0.0,12.405622,0.0,0.0,nan,0.0,0.0,0.09013907,0.0,0.0,0.0,0.0,0.0,0.0,0.0,0.0
171904852,0.098727696,0.09872772,0.21399088,0.27787474,0.27787477,0.0,0.0,0.0,0.0,0.0,0.0,0.0,nan,nan,nan,nan,nan,nan,0.0,12.406052,0.0,0.0,nan,0.0,0.0,0.09013907,0.0,0.0,0.0,0.0,0.0,0.0,0.0,0.0
172104857,0.09872857,0.0987286,0.21397041,0.27787608,0.2778761,0.0,0.0,0.0,0.0,0.0,0.0,0.0,nan,nan,nan,nan,nan,nan,0.0,12.405945,0.0,0.0,nan,0.0,0.0,0.090139054,0.0,0.0,0.0,0.0,0.0,0.0,0.0,0.0
172304848,0.09872868,0.098728724,0.21395043,0.27787733,0.27787736,0.0,0.0,0.0,0.0,0.0,0.0,0.0,nan,nan,nan,nan,nan,nan,0.0,12.405125,0.0,0.0,nan,0.0,0.0,0.09013906,0.0,0.0,0.0,0.0,0.0,0.0,0.0,0.0
172504854,0.09872933,0.098729365,0.21393092,0.27787837,0.2778784,0.0,0.0,0.0,0.0,0.0,0.0,0.0,nan,nan,nan,nan,nan,nan,0.0,12.405568,0.0,0.0,nan,0.0,0.0,0.090139054,0.0,0.0,0.0,0.0,0.0,0.0,0.0,0.0
172704851,0.09872927,0.09872931,0.2139713,0.27787936,0.27787936,0.0,0.0,0.0,0.0,0.0,0.0,0.0,nan,nan,nan,nan,nan,nan,0.0,12.405482,0.0,0.0,nan,0.0,0.0,0.090139054,0.0,0.0,0.0,0.0,0.0,0.0,0.0,0.0
172904850,0.09872988,0.098729916,0.21395297,0.2778802,0.27788022,0.0,0.0,0.0,0.0,0.0,0.0,0.0,nan,nan,nan,nan,nan,nan,0.0,12.405948,0.0,0.0,nan,0.0,0.0,0.09013906,0.0,0.0,0.0,0.0,0.0,0.0,0.0,0.0
173104848,0.09872996,0.09873001,0.2139349,0.2778809,0.27788094,0.0,0.0,0.0,0.0,0.0,0.0,0.0,nan,nan,nan,nan,nan,nan,0.0,12.405665,0.0,0.0,nan,0.0,0.0,0.090139054,0.0,0.0,0.0,0.0,0.0,0.0,0.0,0.0
173304848,0.09873058,0.09873064,0.2139747,0.27788153,0.27788156,0.0,0.0,0.0,0.0,0.0,0.0,0.0,nan,nan,nan,nan,nan,nan,0.0,12.406626,0.0,0.0,nan,0.0,0.0,0.09013905,0.0,0.0,0.0,0.0,0.0,0.0,0.0,0.0
173504848,0.09873062,0.09873069,0.21395293,0.27788213,0.27788213,0.0,0.0,0.0,0.0,0.0,0.0,0.0,nan,nan,nan,nan,nan,nan,0.0,12.405777,0.0,0.0,nan,0.0,0.0,0.09013905,0.0,0.0,0.0,0.0,0.0,0.0,0.0,0.0
173704848,0.09873083,0.0987309,0.21393186,0.27788264,0.27788264,0.0,0.0,0.0,0.0,0.0,0.0,0.0,nan,nan,nan,nan,nan,nan,0.0,12.4062,0.0,0.0,nan,0.0,0.0,0.09013905,0.0,0.0,0.0,0.0,0.0,0.0,0.0,0.0
173904890,0.09879197,0.09879204,0.21401277,0.27808455,0.27808458,0.0,0.0,0.0,0.0,0.0,0.0,0.0,nan,nan,nan,nan,nan,nan,0.0,12.406081,0.0,0.0,nan,0.0,0.0,0.09013905,0.0,0.0,0.0,0.0,0.0,0.0,0.0,0.0
174104868,0.09871912,0.098719195,0.21394803,0.2778587,0.2778587,0.0,0.0,0.0,0.0,0.0,0.0,0.0,nan,nan,nan,nan,nan,nan,0.0,12.4052515,0.0,0.0,nan,0.0,0.0,0.09013904,0.0,0.0,0.0,0.0,0.0,0.0,0.0,0.0
174304861,0.098721325,0.09872141,0.21392824,0.27786136,0.2778614,0.0,0.0,0.0,0.0,0.0,0.0,0.0,nan,nan,nan,nan,nan,nan,0.0,12.405689,0.0,0.0,nan,0.0,0.0,0.09013904,0.0,0.0,0.0,0.0,0.0,0.0,0.0,0.0
174504852,0.09872316,0.098723255,0.21396892,0.27786386,0.2778639,0.0,0.0,0.0,0.0,0.0,0.0,0.0,nan,nan,nan,nan,nan,nan,0.0,12.4056,0.0,0.0,nan,0.0,0.0,0.09013905,0.0,0.0,0.0,0.0,0.0,0.0,0.0,0.0
174704895,0.09872503,0.09872513,0.21395084,0.27786618,0.27786618,0.0,0.0,0.0,0.0,0.0,0.0,0.0,nan,nan,nan,nan,nan,nan,0.0,12.405317,0.0,0.0,nan,0.0,0.0,0.09013905,0.0,0.0,0.0,0.0,0.0,0.0,0.0,0.0
174904849,0.09872616,0.09872628,0.21393111,0.27786836,0.2778684,0.0,0.0,0.0,0.0,0.0,0.0,0.0,nan,nan,nan,nan,nan,nan,0.0,12.405745,0.0,0.0,nan,0.0,0.0,0.09013905,0.0,0.0,0.0,0.0,0.0,0.0,0.0,0.0
175104857,0.09872777,0.098727904,0.21397091,0.2778704,0.2778704,0.0,0.0,0.0,0.0,0.0,0.0,0.0,nan,nan,nan,nan,nan,nan,0.0,12.406182,0.0,0.0,nan,0.0,0.0,0.09013904,0.0,0.0,0.0,0.0,0.0,0.0,0.0,0.0
175304892,0.09872909,0.098729216,0.21395157,0.27787223,0.27787223,0.0,0.0,0.0,0.0,0.0,0.0,0.0,nan,nan,nan,nan,nan,nan,0.0,12.406082,0.0,0.0,nan,0.0,0.0,0.09013904,0.0,0.0,0.0,0.0,0.0,0.0,0.0,0.0
175504854,0.09872964,0.09872978,0.21393263,0.27787396,0.277874,0.0,0.0,0.0,0.0,0.0,0.0,0.0,nan,nan,nan,nan,nan,nan,0.0,12.405268,0.0,0.0,nan,0.0,0.0,0.09013904,0.0,0.0,0.0,0.0,0.0,0.0,0.0,0.0
175704848,0.09873039,0.098730534,0.21397363,0.2778755,0.27787554,0.0,0.0,0.0,0.0,0.0,0.0,0.0,nan,nan,nan,nan,nan,nan,0.0,12.405718,0.0,0.0,nan,0.0,0.0,0.09013903,0.0,0.0,0.0,0.0,0.0,0.0,0.0,0.0
176304855,0.09879259,0.09879274,0.21396096,0.2780808,0.27808082,0.0,0.0,0.0,0.0,0.0,0.0,0.0,nan,nan,nan,nan,nan,nan,0.0,12.405815,0.0,0.0,nan,0.0,0.0,0.09013904,0.0,0.0,0.0,0.0,0.0,0.0,0.0,0.0
176504936,0.09871979,0.09871994,0.21395686,0.2778556,0.27785563,0.0,0.0,0.0,0.0,0.0,0.0,0.0,nan,nan,nan,nan,nan,nan,0.0,12.405723,0.0,0.0,nan,0.0,0.0,0.09013904,0.0,0.0,0.0,0.0,0.0,0.0,0.0,0.0
176704865,0.09872246,0.09872261,0.21393825,0.27785876,0.2778588,0.0,0.0,0.0,0.0,0.0,0.0,0.0,nan,nan,nan,nan,nan,nan,0.0,12.40545,0.0,0.0,nan,0.0,0.0,0.09013904,0.0,0.0,0.0,0.0,0.0,0.0,0.0,0.0
176904848,0.09872489,0.09872503,0.21391942,0.2778617,0.27786177,0.0,0.0,0.0,0.0,0.0,0.0,0.0,nan,nan,nan,nan,nan,nan,0.0,12.405365,0.0,0.0,nan,0.0,0.0,0.09013904,0.0,0.0,0.0,0.0,0.0,0.0,0.0,0.0
177104848,0.09872562,0.098725766,0.21396068,0.27786455,0.27786458,0.0,0.0,0.0,0.0,0.0,0.0,0.0,nan,nan,nan,nan,nan,nan,0.0,12.405829,0.0,0.0,nan,0.0,0.0,0.09013904,0.0,0.0,0.0,0.0,0.0,0.0,0.0,0.0
177304848,0.09872729,0.09872744,0.21394286,0.27786708,0.2778671,0.0,0.0,0.0,0.0,0.0,0.0,0.0,nan,nan,nan,nan,nan,nan,0.0,12.405756,0.0,0.0,nan,0.0,0.0,0.09013904,0.0,0.0,0.0,0.0,0.0,0.0,0.0,0.0
177504885,0.09872851,0.098728664,0.21392521,0.2778694,0.27786946,0.0,0.0,0.0,0.0,0.0,0.0,0.0,nan,nan,nan,nan,nan,nan,0.0,12.4049635,0.0,0.0,nan,0.0,0.0,0.09013904,0.0,0.0,0.0,0.0,0.0,0.0,0.0,0.0
177704848,0.09872918,0.09872933,0.21396713,0.27787155,0.2778716,0.0,0.0,0.0,0.0,0.0,0.0,0.0,nan,nan,nan,nan,nan,nan,0.0,12.406495,0.0,0.0,nan,0.0,0.0,0.09013904,0.0,0.0,0.0,0.0,0.0,0.0,0.0,0.0
177904848,0.09873064,0.09873078,0.21394734,0.27787343,0.2778735,0.0,0.0,0.0,0.0,0.0,0.0,0.0,nan,nan,nan,nan,nan,nan,0.0,12.405655,0.0,0.0,nan,0.0,0.0,0.09013904,0.0,0.0,0.0,0.0,0.0,0.0,0.0,0.0
178104862,0.09873001,0.09873016,0.21398604,0.27787519,0.27787524,0.0,0.0,0.0,0.0,0.0,0.0,0.0,nan,nan,nan,nan,nan,nan,0.0,12.40608,0.0,0.0,nan,0.0,0.0,0.09013905,0.0,0.0,0.0,0.0,0.0,0.0,0.0,0.0
178304857,0.09873087,0.09873101,0.21396537,0.27787668,0.27787673,0.0,0.0,0.0,0.0,0.0,0.0,0.0,nan,nan,nan,nan,nan,nan,0.0,12.405976,0.0,0.0,nan,0.0,0.0,0.09013904,0.0,0.0,0.0,0.0,0.0,0.0,0.0,0.0
178704852,0.09873184,0.09873197,0.21392594,0.2778792,0.27787927,0.0,0.0,0.0,0.0,0.0,0.0,0.0,nan,nan,nan,nan,nan,nan,0.0,12.405593,0.0,0.0,nan,0.0,0.0,0.09013904,0.0,0.0,0.0,0.0,0.0,0.0,0.0,0.0
178904881,0.098732255,0.09873239,0.21396607,0.27788025,0.27788034,0.0,0.0,0.0,0.0,0.0,0.0,0.0,nan,nan,nan,nan,nan,nan,0.0,12.405503,0.0,0.0,nan,0.0,0.0,0.09013905,0.0,0.0,0.0,0.0,0.0,0.0,0.0,0.0
179104849,0.09873237,0.0987325,0.21394758,0.2778812,0.27788126,0.0,0.0,0.0,0.0,0.0,0.0,0.0,nan,nan,nan,nan,nan,nan,0.0,12.405966,0.0,0.0,nan,0.0,0.0,0.09013904,0.0,0.0,0.0,0.0,0.0,0.0,0.0,0.0
179304848,0.09873284,0.09873296,0.21392936,0.277882,0.27788207,0.0,0.0,0.0,0.0,0.0,0.0,0.0,nan,nan,nan,nan,nan,nan,0.0,12.405681,0.0,0.0,nan,0.0,0.0,0.09013905,0.0,0.0,0.0,0.0,0.0,0.0,0.0,0.0
179504882,0.098732345,0.09873249,0.21396899,0.27788273,0.27788278,0.0,0.0,0.0,0.0,0.0,0.0,0.0,nan,nan,nan,nan,nan,nan,0.0,12.406638,0.0,0.0,nan,0.0,0.0,0.09013905,0.0,0.0,0.0,0.0,0.0,0.0,0.0,0.0
179704878,0.09873223,0.098732375,0.21394715,0.27788332,0.27788335,0.0,0.0,0.0,0.0,0.0,0.0,0.0,nan,nan,nan,nan,nan,nan,0.0,12.405788,0.0,0.0,nan,0.0,0.0,0.090139054,0.0,0.0,0.0,0.0,0.0,0.0,0.0,0.0
179904848,0.09873229,0.09873244,0.21392602,0.27788374,0.2778838,0.0,0.0,0.0,0.0,0.0,0.0,0.0,nan,nan,nan,nan,nan,nan,0.0,12.40621,0.0,0.0,nan,0.0,0.0,0.090139054,0.0,0.0,0.0,0.0,0.0,0.0,0.0,0.0
180104848,0.09873216,0.09873232,0.21396497,0.27788416,0.27788422,0.0,0.0,0.0,0.0,0.0,0.0,0.0,nan,nan,nan,nan,nan,nan,0.0,12.406095,0.0,0.0,nan,0.0,0.0,0.09013905,0.0,0.0,0.0,0.0,0.0,0.0,0.0,0.0
180304855,0.09873158,0.098731734,0.21394499,0.2778845,0.27788457,0.0,0.0,0.0,0.0,0.0,0.0,0.0,nan,nan,nan,nan,nan,nan,0.0,12.405264,0.0,0.0,nan,0.0,0.0,0.09013905,0.0,0.0,0.0,0.0,0.0,0.0,0.0,0.0
180504861,0.09873133,0.0987315,0.213925,0.27788475,0.2778848,0.0,0.0,0.0,0.0,0.0,0.0,0.0,nan,nan,nan,nan,nan,nan,0.0,12.4057,0.0,0.0,nan,0.0,0.0,0.090139054,0.0,0.0,0.0,0.0,0.0,0.0,0.0,0.0
180904848,0.09873105,0.09873123,0.21394722,0.27788496,0.27788502,0.0,0.0,0.0,0.0,0.0,0.0,0.0,nan,nan,nan,nan,nan,nan,0.0,12.406068,0.0,0.0,nan,0.0,0.0,0.090139054,0.0,0.0,0.0,0.0,0.0,0.0,0.0,0.0
181904848,0.09871661,0.098716795,0.21391612,0.2778604,0.27786046,0.0,0.0,0.0,0.0,0.0,0.0,0.0,nan,nan,nan,nan,nan,nan,0.0,12.404801,0.0,0.0,nan,0.0,0.0,0.09013906,0.0,0.0,0.0,0.0,0.0,0.0,0.0,0.0
182104857,0.09871891,0.098719105,0.21395826,0.2778626,0.2778627,0.0,0.0,0.0,0.0,0.0,0.0,0.0,nan,nan,nan,nan,nan,nan,0.0,12.405285,0.0,0.0,nan,0.0,0.0,0.09013906,0.0,0.0,0.0,0.0,0.0,0.0,0.0,0.0
182304870,0.09872122,0.098721415,0.21394168,0.27786475,0.2778648,0.0,0.0,0.0,0.0,0.0,0.0,0.0,nan,nan,nan,nan,nan,nan,0.0,12.405777,0.0,0.0,nan,0.0,0.0,0.09013906,0.0,0.0,0.0,0.0,0.0,0.0,0.0,0.0
182504906,0.098723315,0.098723516,0.21392506,0.2778668,0.27786687,0.0,0.0,0.0,0.0,0.0,0.0,0.0,nan,nan,nan,nan,nan,nan,0.0,12.405511,0.0,0.0,nan,0.0,0.0,0.09013906,0.0,0.0,0.0,0.0,0.0,0.0,0.0,0.0
182704848,0.09872486,0.09872506,0.21396558,0.27786878,0.27786887,0.0,0.0,0.0,0.0,0.0,0.0,0.0,nan,nan,nan,nan,nan,nan,0.0,12.4054365,0.0,0.0,nan,0.0,0.0,0.09013906,0.0,0.0,0.0,0.0,0.0,0.0,0.0,0.0
182904852,0.098726936,0.098727144,0.21394739,0.2778706,0.27787068,0.0,0.0,0.0,0.0,0.0,0.0,0.0,nan,nan,nan,nan,nan,nan,0.0,12.405912,0.0,0.0,nan,0.0,0.0,0.09013906,0.0,0.0,0.0,0.0,0.0,0.0,0.0,0.0
183104848,0.09872734,0.098727554,0.21392937,0.27787232,0.2778724,0.0,0.0,0.0,0.0,0.0,0.0,0.0,nan,nan,nan,nan,nan,nan,0.0,12.405117,0.0,0.0,nan,0.0,0.0,0.09013906,0.0,0.0,0.0,0.0,0.0,0.0,0.0,0.0
183304845,0.09878778,0.09878798,0.21395327,0.27807528,0.27807537,0.0,0.0,0.0,0.0,0.0,0.0,0.0,nan,nan,nan,nan,nan,nan,0.0,12.405052,0.0,0.0,nan,0.0,0.0,0.09013907,0.0,0.0,0.0,0.0,0.0,0.0,0.0,0.0
183504873,0.098775454,0.098775655,0.21399236,0.27805164,0.27805173,0.0,0.0,0.0,0.0,0.0,0.0,0.0,nan,nan,nan,nan,nan,nan,0.0,12.405528,0.0,0.0,nan,0.0,0.0,0.09013907,0.0,0.0,0.0,0.0,0.0,0.0,0.0,0.0
183704881,0.09876557,0.09876577,0.213972,0.27803028,0.27803037,0.0,0.0,0.0,0.0,0.0,0.0,0.0,nan,nan,nan,nan,nan,nan,0.0,12.405472,0.0,0.0,nan,0.0,0.0,0.09013907,0.0,0.0,0.0,0.0,0.0,0.0,0.0,0.0
183904894,0.09875738,0.098757565,0.21395242,0.27801102,0.2780111,0.0,0.0,0.0,0.0,0.0,0.0,0.0,nan,nan,nan,nan,nan,nan,0.0,12.405748,0.0,0.0,nan,0.0,0.0,0.09013907,0.0,0.0,0.0,0.0,0.0,0.0,0.0,0.0
184104886,0.098690405,0.09869059,0.2139487,0.27779338,0.27779344,0.0,0.0,0.0,0.0,0.0,0.0,0.0,nan,nan,nan,nan,nan,nan,0.0,12.406182,0.0,0.0,nan,0.0,0.0,0.090139076,0.0,0.0,0.0,0.0,0.0,0.0,0.0,0.0
184304848,0.098697856,0.09869804,0.21392801,0.2778027,0.2778028,0.0,0.0,0.0,0.0,0.0,0.0,0.0,nan,nan,nan,nan,nan,nan,0.0,12.405355,0.0,0.0,nan,0.0,0.0,0.09013907,0.0,0.0,0.0,0.0,0.0,0.0,0.0,0.0
184504852,0.09870432,0.09870452,0.21396762,0.2778115,0.2778116,0.0,0.0,0.0,0.0,0.0,0.0,0.0,nan,nan,nan,nan,nan,nan,0.0,12.405794,0.0,0.0,nan,0.0,0.0,0.090139076,0.0,0.0,0.0,0.0,0.0,0.0,0.0,0.0
184704876,0.09876923,0.098769374,0.21398985,0.27802044,0.27802053,0.0,0.0,0.0,0.0,0.0,0.0,0.0,nan,nan,nan,nan,nan,nan,0.0,12.405698,0.0,0.0,nan,0.0,0.0,0.090139076,0.0,0.0,0.0,0.0,0.0,0.0,0.0,0.0
184904848,0.09870247,0.09870273,0.21392642,0.27780265,0.2778027,0.0,0.0,0.0,0.0,0.0,0.0,0.0,nan,nan,nan,nan,nan,nan,0.0,12.405427,0.0,0.0,nan,0.0,0.0,0.09013908,0.0,0.0,0.0,0.0,0.0,0.0,0.0,0.0
185104858,0.09876734,0.09876754,0.21394952,0.27801287,0.27801293,0.0,0.0,0.0,0.0,0.0,0.0,0.0,nan,nan,nan,nan,nan,nan,0.0,12.405337,0.0,0.0,nan,0.0,0.0,0.09013908,0.0,0.0,0.0,0.0,0.0,0.0,0.0,0.0
185304848,0.09876225,0.09876244,0.21392874,0.2779965,0.2779966,0.0,0.0,0.0,0.0,0.0,0.0,0.0,nan,nan,nan,nan,nan,nan,0.0,12.405259,0.0,0.0,nan,0.0,0.0,0.090139076,0.0,0.0,0.0,0.0,0.0,0.0,0.0,0.0
185504848,0.09875844,0.09875864,0.2139683,0.27798143,0.27798152,0.0,0.0,0.0,0.0,0.0,0.0,0.0,nan,nan,nan,nan,nan,nan,0.0,12.405526,0.0,0.0,nan,0.0,0.0,0.090139076,0.0,0.0,0.0,0.0,0.0,0.0,0.0,0.0
185704848,0.098747335,0.09874753,0.2139469,0.27796862,0.2779687,0.0,0.0,0.0,0.0,0.0,0.0,0.0,nan,nan,nan,nan,nan,nan,0.0,12.405422,0.0,0.0,nan,0.0,0.0,0.09013908,0.0,0.0,0.0,0.0,0.0,0.0,0.0,0.0
185904848,0.09868212,0.09868227,0.2139433,0.27775714,0.2777572,0.0,0.0,0.0,0.0,0.0,0.0,0.0,nan,nan,nan,nan,nan,nan,0.0,12.405873,0.0,0.0,nan,0.0,0.0,0.09013908,0.0,0.0,0.0,0.0,0.0,0.0,0.0,0.0
186104875,0.0987524,0.09875256,0.21396723,0.27797207,0.27797213,0.0,0.0,0.0,0.0,0.0,0.0,0.0,nan,nan,nan,nan,nan,nan,0.0,12.405782,0.0,0.0,nan,0.0,0.0,0.090139076,0.0,0.0,0.0,0.0,0.0,0.0,0.0,0.0
186304848,0.09881093,0.0988111,0.21398857,0.27816278,0.27816284,0.0,0.0,0.0,0.0,0.0,0.0,0.0,nan,nan,nan,nan,nan,nan,0.0,12.404967,0.0,0.0,nan,0.0,0.0,0.09013908,0.0,0.0,0.0,0.0,0.0,0.0,0.0,0.0
186504848,0.098735385,0.09873562,0.21392381,0.2779259,0.27792597,0.0,0.0,0.0,0.0,0.0,0.0,0.0,nan,nan,nan,nan,nan,nan,0.0,12.405422,0.0,0.0,nan,0.0,0.0,0.09013909,0.0,0.0,0.0,0.0,0.0,0.0,0.0,0.0
186704856,0.09873392,0.0987341,0.2139638,0.27791917,0.27791926,0.0,0.0,0.0,0.0,0.0,0.0,0.0,nan,nan,nan,nan,nan,nan,0.0,12.405349,0.0,0.0,nan,0.0,0.0,0.09013909,0.0,0.0,0.0,0.0,0.0,0.0,0.0,0.0
186904859,0.09867521,0.09867542,0.21390346,0.2777135,0.2777136,0.0,0.0,0.0,0.0,0.0,0.0,0.0,nan,nan,nan,nan,nan,nan,0.0,12.405097,0.0,0.0,nan,0.0,0.0,0.09013908,0.0,0.0,0.0,0.0,0.0,0.0,0.0,0.0
187104852,0.09868216,0.098682284,0.21394658,0.27773318,0.27773324,0.0,0.0,0.0,0.0,0.0,0.0,0.0,nan,nan,nan,nan,nan,nan,0.0,12.406602,0.0,0.0,nan,0.0,0.0,0.09013908,0.0,0.0,0.0,0.0,0.0,0.0,0.0,0.0
187304848,0.09875172,0.09875184,0.21396835,0.2779514,0.27795148,0.0,0.0,0.0,0.0,0.0,0.0,0.0,nan,nan,nan,nan,nan,nan,0.0,12.405754,0.0,0.0,nan,0.0,0.0,0.09013908,0.0,0.0,0.0,0.0,0.0,0.0,0.0,0.0
187504857,0.098689325,0.098689504,0.21390428,0.27774337,0.27774343,0.0,0.0,0.0,0.0,0.0,0.0,0.0,nan,nan,nan,nan,nan,nan,0.0,12.405643,0.0,0.0,nan,0.0,0.0,0.09013908,0.0,0.0,0.0,0.0,0.0,0.0,0.0,0.0
187704852,0.09876019,0.09876038,0.21398723,0.27796113,0.2779612,0.0,0.0,0.0,0.0,0.0,0.0,0.0,nan,nan,nan,nan,nan,nan,0.0,12.406072,0.0,0.0,nan,0.0,0.0,0.09013908,0.0,0.0,0.0,0.0,0.0,0.0,0.0,0.0
187904880,0.09869782,0.098698005,0.21392432,0.27775168,0.27775174,0.0,0.0,0.0,0.0,0.0,0.0,0.0,nan,nan,nan,nan,nan,nan,0.0,12.405969,0.0,0.0,nan,0.0,0.0,0.09013908,0.0,0.0,0.0,0.0,0.0,0.0,0.0,0.0
188104849,0.0987028,0.09870296,0.21390672,0.27776816,0.27776822,0.0,0.0,0.0,0.0,0.0,0.0,0.0,nan,nan,nan,nan,nan,nan,0.0,12.405153,0.0,0.0,nan,0.0,0.0,0.09013908,0.0,0.0,0.0,0.0,0.0,0.0,0.0,0.0
188304868,0.09871032,0.098710485,0.21394874,0.2777833,0.27778336,0.0,0.0,0.0,0.0,0.0,0.0,0.0,nan,nan,nan,nan,nan,nan,0.0,12.405607,0.0,0.0,nan,0.0,0.0,0.09013908,0.0,0.0,0.0,0.0,0.0,0.0,0.0,0.0
188504908,0.09877385,0.098774016,0.2139739,0.2779978,0.27799785,0.0,0.0,0.0,0.0,0.0,0.0,0.0,nan,nan,nan,nan,nan,nan,0.0,12.405852,0.0,0.0,nan,0.0,0.0,0.09013909,0.0,0.0,0.0,0.0,0.0,0.0,0.0,0.0
188704852,0.0987676,0.09876776,0.21395117,0.27798495,0.277985,0.0,0.0,0.0,0.0,0.0,0.0,0.0,nan,nan,nan,nan,nan,nan,0.0,12.406245,0.0,0.0,nan,0.0,0.0,0.0901391,0.0,0.0,0.0,0.0,0.0,0.0,0.0,0.0
188904880,0.09875871,0.09875886,0.21398777,0.2779735,0.27797356,0.0,0.0,0.0,0.0,0.0,0.0,0.0,nan,nan,nan,nan,nan,nan,0.0,12.406111,0.0,0.0,nan,0.0,0.0,0.09013909,0.0,0.0,0.0,0.0,0.0,0.0,0.0,0.0
189104848,0.098753475,0.098753616,0.21396565,0.27796277,0.27796286,0.0,0.0,0.0,0.0,0.0,0.0,0.0,nan,nan,nan,nan,nan,nan,0.0,12.405805,0.0,0.0,nan,0.0,0.0,0.09013909,0.0,0.0,0.0,0.0,0.0,0.0,0.0,0.0
189304876,0.09874821,0.09874835,0.2139438,0.27795312,0.27795318,0.0,0.0,0.0,0.0,0.0,0.0,0.0,nan,nan,nan,nan,nan,nan,0.0,12.405682,0.0,0.0,nan,0.0,0.0,0.09013909,0.0,0.0,0.0,0.0,0.0,0.0,0.0,0.0
189504903,0.098744,0.09874413,0.21392308,0.27794448,0.27794454,0.0,0.0,0.0,0.0,0.0,0.0,0.0,nan,nan,nan,nan,nan,nan,0.0,12.40611,0.0,0.0,nan,0.0,0.0,0.09013909,0.0,0.0,0.0,0.0,0.0,0.0,0.0,0.0
189704876,0.09868235,0.09868248,0.2139206,0.27773646,0.2777365,0.0,0.0,0.0,0.0,0.0,0.0,0.0,nan,nan,nan,nan,nan,nan,0.0,12.406008,0.0,0.0,nan,0.0,0.0,0.0901391,0.0,0.0,0.0,0.0,0.0,0.0,0.0,0.0
189904858,0.098752886,0.09875301,0.21394554,0.27795422,0.27795428,0.0,0.0,0.0,0.0,0.0,0.0,0.0,nan,nan,nan,nan,nan,nan,0.0,12.40519,0.0,0.0,nan,0.0,0.0,0.0901391,0.0,0.0,0.0,0.0,0.0,0.0,0.0,0.0
190104859,0.09874779,0.09874791,0.21392609,0.27794564,0.27794567,0.0,0.0,0.0,0.0,0.0,0.0,0.0,nan,nan,nan,nan,nan,nan,0.0,12.40669,0.0,0.0,nan,0.0,0.0,0.0901391,0.0,0.0,0.0,0.0,0.0,0.0,0.0,0.0
190304848,0.0987446,0.09874472,0.21396407,0.27793786,0.2779379,0.0,0.0,0.0,0.0,0.0,0.0,0.0,nan,nan,nan,nan,nan,nan,0.0,12.405828,0.0,0.0,nan,0.0,0.0,0.090139106,0.0,0.0,0.0,0.0,0.0,0.0,0.0,0.0
190504848,0.09874098,0.098741114,0.21394137,0.27793095,0.277931,0.0,0.0,0.0,0.0,0.0,0.0,0.0,nan,nan,nan,nan,nan,nan,0.0,12.406225,0.0,0.0,nan,0.0,0.0,0.0901391,0.0,0.0,0.0,0.0,0.0,0.0,0.0,0.0
190704848,0.09874052,0.09874065,0.21397938,0.27792457,0.27792463,0.0,0.0,0.0,0.0,0.0,0.0,0.0,nan,nan,nan,nan,nan,nan,0.0,12.406088,0.0,0.0,nan,0.0,0.0,0.0901391,0.0,0.0,0.0,0.0,0.0,0.0,0.0,0.0
190904848,0.09873854,0.09873867,0.21395823,0.27791896,0.27791902,0.0,0.0,0.0,0.0,0.0,0.0,0.0,nan,nan,nan,nan,nan,nan,0.0,12.405249,0.0,0.0,nan,0.0,0.0,0.0901391,0.0,0.0,0.0,0.0,0.0,0.0,0.0,0.0
191104953,0.09873498,0.098735124,0.21393766,0.2779141,0.27791417,0.0,0.0,0.0,0.0,0.0,0.0,0.0,nan,nan,nan,nan,nan,nan,0.0,12.405664,0.0,0.0,nan,0.0,0.0,0.0901391,0.0,0.0,0.0,0.0,0.0,0.0,0.0,0.0
191304852,0.098733366,0.09873349,0.21391767,0.27790993,0.27791,0.0,0.0,0.0,0.0,0.0,0.0,0.0,nan,nan,nan,nan,nan,nan,0.0,12.405554,0.0,0.0,nan,0.0,0.0,0.090139106,0.0,0.0,0.0,0.0,0.0,0.0,0.0,0.0
191504849,0.09873452,0.09873465,0.21395807,0.27790603,0.2779061,0.0,0.0,0.0,0.0,0.0,0.0,0.0,nan,nan,nan,nan,nan,nan,0.0,12.405995,0.0,0.0,nan,0.0,0.0,0.090139106,0.0,0.0,0.0,0.0,0.0,0.0,0.0,0.0
191704849,0.09873192,0.09873207,0.21393938,0.2779028,0.27790287,0.0,0.0,0.0,0.0,0.0,0.0,0.0,nan,nan,nan,nan,nan,nan,0.0,12.405698,0.0,0.0,nan,0.0,0.0,0.090139106,0.0,0.0,0.0,0.0,0.0,0.0,0.0,0.0
191904848,0.09873334,0.09873349,0.21397854,0.2778998,0.27789986,0.0,0.0,0.0,0.0,0.0,0.0,0.0,nan,nan,nan,nan,nan,nan,0.0,12.406116,0.0,0.0,nan,0.0,0.0,0.090139106,0.0,0.0,0.0,0.0,0.0,0.0,0.0,0.0
192104880,0.098732255,0.0987324,0.21395843,0.27789727,0.27789733,0.0,0.0,0.0,0.0,0.0,0.0,0.0,nan,nan,nan,nan,nan,nan,0.0,12.406005,0.0,0.0,nan,0.0,0.0,0.0901391,0.0,0.0,0.0,0.0,0.0,0.0,0.0,0.0
192304848,0.0986724,0.098672554,0.21389756,0.27769536,0.27769542,0.0,0.0,0.0,0.0,0.0,0.0,0.0,nan,nan,nan,nan,nan,nan,0.0,12.405185,0.0,0.0,nan,0.0,0.0,0.090139106,0.0,0.0,0.0,0.0,0.0,0.0,0.0,0.0
193504855,0.09873721,0.098737404,0.21394652,0.27790222,0.27790228,0.0,0.0,0.0,0.0,0.0,0.0,0.0,nan,nan,nan,nan,nan,nan,0.0,12.405815,0.0,0.0,nan,0.0,0.0,0.0901391,0.0,0.0,0.0,0.0,0.0,0.0,0.0,0.0
193704848,0.0987343,0.09873456,0.21392551,0.27789995,0.2779,0.0,0.0,0.0,0.0,0.0,0.0,0.0,nan,nan,nan,nan,nan,nan,0.0,12.406233,0.0,0.0,nan,0.0,0.0,0.0901391,0.0,0.0,0.0,0.0,0.0,0.0,0.0,0.0
193904871,0.09867387,0.09867406,0.2139228,0.27769804,0.2776981,0.0,0.0,0.0,0.0,0.0,0.0,0.0,nan,nan,nan,nan,nan,nan,0.0,12.40612,0.0,0.0,nan,0.0,0.0,0.09013911,0.0,0.0,0.0,0.0,0.0,0.0,0.0,0.0
194104878,0.09868529,0.09868549,0.21390583,0.27772066,0.27772072,0.0,0.0,0.0,0.0,0.0,0.0,0.0,nan,nan,nan,nan,nan,nan,0.0,12.4053,0.0,0.0,nan,0.0,0.0,0.0901391,0.0,0.0,0.0,0.0,0.0,0.0,0.0,0.0
194304892,0.09869616,0.09869639,0.21394858,0.2777411,0.2777412,0.0,0.0,0.0,0.0,0.0,0.0,0.0,nan,nan,nan,nan,nan,nan,0.0,12.40574,0.0,0.0,nan,0.0,0.0,0.090139106,0.0,0.0,0.0,0.0,0.0,0.0,0.0,0.0
194504849,0.098704144,0.09870433,0.21393219,0.27775964,0.27775973,0.0,0.0,0.0,0.0,0.0,0.0,0.0,nan,nan,nan,nan,nan,nan,0.0,12.406191,0.0,0.0,nan,0.0,0.0,0.090139106,0.0,0.0,0.0,0.0,0.0,0.0,0.0,0.0
194704875,0.098710865,0.098711066,0.21391599,0.27777636,0.27777642,0.0,0.0,0.0,0.0,0.0,0.0,0.0,nan,nan,nan,nan,nan,nan,0.0,12.406426,0.0,0.0,nan,0.0,0.0,0.0901391,0.0,0.0,0.0,0.0,0.0,0.0,0.0,0.0
194904849,0.09871473,0.09871492,0.21395606,0.27779138,0.27779147,0.0,0.0,0.0,0.0,0.0,0.0,0.0,nan,nan,nan,nan,nan,nan,0.0,12.406282,0.0,0.0,nan,0.0,0.0,0.0901391,0.0,0.0,0.0,0.0,0.0,0.0,0.0,0.0
195104849,0.09871943,0.09871965,0.21393631,0.2778047,0.2778048,0.0,0.0,0.0,0.0,0.0,0.0,0.0,nan,nan,nan,nan,nan,nan,0.0,12.405438,0.0,0.0,nan,0.0,0.0,0.090139106,0.0,0.0,0.0,0.0,0.0,0.0,0.0,0.0
195304890,0.098722674,0.098722875,0.21391715,0.27781653,0.27781662,0.0,0.0,0.0,0.0,0.0,0.0,0.0,nan,nan,nan,nan,nan,nan,0.0,12.405849,0.0,0.0,nan,0.0,0.0,0.090139106,0.0,0.0,0.0,0.0,0.0,0.0,0.0,0.0
195504852,0.098724775,0.09872498,0.21395792,0.27782696,0.27782705,0.0,0.0,0.0,0.0,0.0,0.0,0.0,nan,nan,nan,nan,nan,nan,0.0,12.405735,0.0,0.0,nan,0.0,0.0,0.090139106,0.0,0.0,0.0,0.0,0.0,0.0,0.0,0.0
195704899,0.09872424,0.0987244,0.21394011,0.27783614,0.27783626,0.0,0.0,0.0,0.0,0.0,0.0,0.0,nan,nan,nan,nan,nan,nan,0.0,12.406167,0.0,0.0,nan,0.0,0.0,0.0901391,0.0,0.0,0.0,0.0,0.0,0.0,0.0,0.0
195904862,0.098725304,0.09872547,0.2139222,0.27784416,0.27784425,0.0,0.0,0.0,0.0,0.0,0.0,0.0,nan,nan,nan,nan,nan,nan,0.0,12.405345,0.0,0.0,nan,0.0,0.0,0.0901391,0.0,0.0,0.0,0.0,0.0,0.0,0.0,0.0
196104879,0.098730326,0.0987305,0.21390504,0.27785063,0.27785072,0.0,0.0,0.0,0.0,0.0,0.0,0.0,nan,nan,nan,nan,nan,nan,0.0,12.405255,0.0,0.0,nan,0.0,0.0,0.0901391,0.0,0.0,0.0,0.0,0.0,0.0,0.0,0.0
196304885,0.09879018,0.098790415,0.21398944,0.2780577,0.27805778,0.0,0.0,0.0,0.0,0.0,0.0,0.0,nan,nan,nan,nan,nan,nan,0.0,12.405708,0.0,0.0,nan,0.0,0.0,0.0901391,0.0,0.0,0.0,0.0,0.0,0.0,0.0,0.0
196504851,0.098778345,0.098778605,0.21397026,0.2780376,0.2780377,0.0,0.0,0.0,0.0,0.0,0.0,0.0,nan,nan,nan,nan,nan,nan,0.0,12.405625,0.0,0.0,nan,0.0,0.0,0.0901391,0.0,0.0,0.0,0.0,0.0,0.0,0.0,0.0
196704848,0.098701075,0.09870121,0.21390933,0.27781892,0.277819,0.0,0.0,0.0,0.0,0.0,0.0,0.0,nan,nan,nan,nan,nan,nan,0.0,12.404832,0.0,0.0,nan,0.0,0.0,0.0901391,0.0,0.0,0.0,0.0,0.0,0.0,0.0,0.0
196904858,0.09876861,0.09876875,0.21393523,0.2780279,0.278028,0.0,0.0,0.0,0.0,0.0,0.0,0.0,nan,nan,nan,nan,nan,nan,0.0,12.405295,0.0,0.0,nan,0.0,0.0,0.0901391,0.0,0.0,0.0,0.0,0.0,0.0,0.0,0.0
