timestamp,indicated_airspeed_m_s,equivalent_airspeed_m_s,true_airspeed_m_s,equivalent_ground_minus_wind_m_s,true_ground_minus_wind_m_s,airspeed_sensor_measurement_valid,selected_airspeed_index
128088396,-2.911211,-2.911211,-2.987661,0.009592658,0.010185677,1,1
128188360,-2.9069955,-2.9069955,-2.9833581,0.010445335,0.011091244,1,1
129088360,-2.9105086,-2.9105086,-2.9869463,0.004494967,0.004773008,1,1
130088378,-2.8971097,-2.8971097,-2.9733403,0.0050643426,0.005377676,1,1
131088360,-2.897267,-2.897267,-2.973089,0.008982503,0.009538791,1,1
132088360,-2.8972669,-2.8972669,-2.9732425,0.020782152,0.022069737,1,1
133088407,-2.8972628,-2.8972628,-2.973442,0.03009548,0.031961646,1,1
134088362,-2.9113722,-2.9113722,-2.9876893,0.025607495,0.027196107,1,1
135088365,-2.9086192,-2.9086192,-2.984974,0.029176332,0.030987892,1,1
136088363,-2.9113204,-2.9113204,-2.9878595,0.04176573,0.044361237,1,1
137088363,-2.910766,-2.910766,-2.9870698,0.04595849,0.048815276,1,1
138088418,-2.8874686,-2.8874686,-2.9631603,0.045592964,0.048430048,1,1
139088365,-2.8992248,-2.8992248,-2.9756129,0.041401163,0.043979008,1,1
140088369,-2.907447,-2.907447,-2.9838305,0.032937206,0.034989122,1,1
141088522,-2.8773656,-2.8773656,-2.9528437,0.022680506,0.024094626,1,1
142088360,-2.8720553,-2.8720553,-2.9474282,0.00921014,0.009784793,1,1
145088360,-2.894355,-2.894355,-2.970412,0.014814852,0.01574139,1,1
146088360,-2.9063933,-2.9063933,-2.982682,0.021634437,0.02298865,1,1
147088360,-2.9193776,-2.9193776,-2.9962409,0.021628387,0.02298337,1,1
148088397,-2.890107,-2.890107,-2.9660907,0.024508456,0.026044976,1,1
149088363,-2.8934317,-2.8934317,-2.9696255,0.024282351,0.025805889,1,1
150088374,-2.8801425,-2.8801425,-2.956074,0.022648707,0.024070976,1,1
151088360,-2.8675911,-2.8675911,-2.9429588,0.021704188,0.023068452,1,1
152088363,-2.9346364,-2.9346364,-3.0116765,0.024327446,0.025857668,1,1
153088495,-2.9225686,-2.9225686,-2.999672,0.022014217,0.023400638,1,1
154088409,-2.8490665,-2.8490665,-2.9239676,0.020515645,0.021808533,1,1
155088366,-2.8165214,-2.8165214,-2.890985,0.014722341,0.015650813,1,1
156088364,-2.7974043,-2.7974043,-2.8709226,0.0075906017,0.008069634,1,1
157088360,-2.789631,-2.789631,-2.8629375,0.012154702,0.0129223345,1,1
158088377,-2.8790638,-2.8790638,-2.9548147,0.014323976,0.015229292,1,1
159088363,-2.8992605,-2.8992605,-2.9757614,0.013031363,0.013855725,1,1
160088360,-2.880387,-2.880387,-2.9561985,0.018445956,0.019614076,1,1
161088360,-2.9257581,-2.9257581,-3.0029569,0.027781183,0.029542275,1,1
163088368,-2.959792,-2.959792,-3.0378876,0.040640518,0.043220397,1,1
164088363,-2.8890493,-2.8890493,-2.96532,0.034484033,0.0366747,1,1
165088405,-2.912827,-2.912827,-2.9895055,0.0182845,0.019446813,1,1
166088360,-2.9410372,-2.9410372,-3.0184884,0.014738779,0.015676575,1,1
167088360,-2.93812,-2.93812,-3.0155253,0.03589118,0.03817638,1,1
168088364,-2.9368525,-2.9368525,-3.014196,0.030862564,0.03282907,1,1
170088360,-2.911277,-2.911277,-2.9880927,0.038776007,0.041250847,1,1
171088360,-2.9371762,-2.9371762,-3.014619,0.037440382,0.03983108,1,1
172088360,-2.932872,-2.932872,-3.0101602,0.031320315,0.033322133,1,1
173088379,-2.8958795,-2.8958795,-2.9722066,0.022575619,0.024019541,1,1
174088360,-2.9782596,-2.9782596,-3.0569057,0.009880546,0.01051297,1,1
175088360,-2.959971,-2.959971,-3.0379133,0.014451219,0.015377061,1,1
177088360,-2.9158905,-2.9158905,-2.9927933,0.028284373,0.030098256,1,1
178088425,-2.8719904,-2.8719904,-2.9476209,0.027927462,0.029719897,1,1
179088363,-2.8445575,-2.8445575,-2.9196317,0.024887837,0.026486602,1,1
180088360,-2.880715,-2.880715,-2.9567852,0.020389229,0.021699954,1,1
182088363,-2.8971655,-2.8971655,-2.973707,0.019616278,0.020879176,1,1
183088373,-2.8739688,-2.8739688,-2.949822,0.025942849,0.027613847,1,1
184088361,-2.9075122,-2.9075122,-2.9842863,0.020678911,0.022011949,1,1
185088363,-2.9168303,-2.9168303,-2.9938123,0.024313232,0.025882084,1,1
186088503,-2.9485762,-2.9485762,-3.026331,0.017602682,0.01873883,1,1
187088361,-2.9039655,-2.9039655,-2.9806855,0.014669974,0.01561765,1,1
188088364,-2.8560586,-2.8560586,-2.9311316,0.020300198,0.021612113,1,1
189088360,-2.8223977,-2.8223977,-2.8969421,0.01298384,0.013823671,1,1
190088363,-2.8291914,-2.8291914,-2.903847,0.008607172,0.009164341,1,1
191088548,-2.9490273,-2.9490273,-3.0269852,0.016421553,0.017485194,1,1
192088360,-2.883214,-2.883214,-2.9596043,0.017721435,0.018870013,1,1
194088369,-2.910251,-2.910251,-2.9871516,0.016908757,0.018006122,1,1
195088363,-2.8056405,-2.8056405,-2.8796105,0.017361475,0.018488329,1,1
196088413,-2.8652241,-2.8652241,-2.940742,0.042212684,0.044954978,1,1
197088399,-2.912469,-2.912469,-2.9894886,0.037573658,0.040016603,1,1
198088360,-2.8817782,-2.8817782,-2.9579232,0.010606616,0.011296695,1,1
199088360,-2.9537103,-2.9537103,-3.0317569,0.014408254,0.015346276,1,1
200088372,-2.964929,-2.964929,-3.043203,0.0179967,0.019169105,1,1
201088410,0.7018411,0.7018411,0.72037834,4.7955346,5.1079917,1,1
202188356,7.139105,7.139105,7.327525,10.773114,11.475545,1,1
204088376,13.659424,13.659424,14.026094,16.375254,17.450396,1,1
205088360,15.605055,15.605055,16.024721,18.663591,19.891172,1,1
206088396,16.22398,16.22398,16.66238,19.30089,20.57479,1,1
207088400,16.020128,16.020128,16.458921,18.530413,19.760986,1,1
209088379,16.577047,16.577047,17.04019,17.834433,19.03103,1,1
210088369,14.292615,14.292615,14.697352,17.783087,18.982882,1,1
211088407,16.783546,16.783546,17.261803,18.453848,19.702578,1,1
212088360,17.210741,17.210741,17.70345,18.737516,20.008963,1,1
213088361,17.039738,17.039738,17.530998,19.200214,20.50738,1,1
214088360,16.9294,16.9294,17.42179,19.32612,20.64811,1,1
216088402,14.823455,14.823455,15.266784,19.353453,20.694592,1,1
217088363,15.082943,15.082943,15.53921,20.264416,21.675518,1,1
218088423,15.062589,15.062589,15.521146,21.183285,22.66478,1,1
219088360,15.16622,15.16622,15.632209,22.094604,23.645885,1,1
221088416,14.641365,14.641365,15.102172,21.332455,22.848207,1,1
222088364,14.321586,14.321586,14.777919,21.36394,22.891668,1,1
223088372,15.563834,15.563834,16.062765,22.52559,24.141264,1,1
224088400,nan,nan,nan,nan,nan,0,-1
226088504,nan,nan,nan,nan,nan,0,-1
227088360,nan,nan,nan,nan,nan,0,-1
228088406,nan,nan,nan,nan,nan,0,-1
229088363,nan,nan,nan,nan,nan,0,-1
230088360,nan,nan,nan,nan,nan,0,-1
231088459,nan,nan,nan,nan,nan,0,-1
234088363,nan,nan,nan,nan,nan,0,-1
235088400,nan,nan,nan,nan,nan,0,-1
236088488,nan,nan,nan,nan,nan,0,-1
237088397,nan,nan,nan,nan,nan,0,-1
238088360,nan,nan,nan,nan,nan,0,-1
239088360,nan,nan,nan,nan,nan,0,-1
240088380,nan,nan,nan,nan,nan,0,-1
241088458,nan,nan,nan,nan,nan,0,-1
242088363,nan,nan,nan,nan,nan,0,-1
243088360,nan,nan,nan,nan,nan,0,-1
244088360,nan,nan,nan,nan,nan,0,-1
245088363,nan,nan,nan,nan,nan,0,-1
246088407,nan,nan,nan,nan,nan,0,-1
249088400,nan,nan,nan,nan,nan,0,-1
250088360,nan,nan,nan,nan,nan,0,-1
251088400,nan,nan,nan,nan,nan,0,-1
252088371,nan,nan,nan,nan,nan,0,-1
253088360,nan,nan,nan,nan,nan,0,-1
254088363,nan,nan,nan,nan,nan,0,-1
255088372,nan,nan,nan,nan,nan,0,-1
256088411,nan,nan,nan,nan,nan,0,-1
257088384,nan,nan,nan,nan,nan,0,-1
258088425,nan,nan,nan,nan,nan,0,-1
259088360,nan,nan,nan,nan,nan,0,-1
260088362,nan,nan,nan,nan,nan,0,-1
261088460,nan,nan,nan,nan,nan,0,-1
263088363,nan,nan,nan,nan,nan,0,-1
264088367,nan,nan,nan,nan,nan,0,-1
265088363,nan,nan,nan,nan,nan,0,-1
266088461,nan,nan,nan,nan,nan,0,-1
267088361,nan,nan,nan,nan,nan,0,-1
268088360,nan,nan,nan,nan,nan,0,-1
269088373,nan,nan,nan,nan,nan,0,-1
270088400,nan,nan,nan,nan,nan,0,-1
271088360,nan,nan,nan,nan,nan,0,-1
272088360,nan,nan,nan,nan,nan,0,-1
274088360,nan,nan,nan,nan,nan,0,-1
275088365,nan,nan,nan,nan,nan,0,-1
276088360,nan,nan,nan,nan,nan,0,-1
277088363,nan,nan,nan,nan,nan,0,-1
278088370,nan,nan,nan,nan,nan,0,-1
279088360,nan,nan,nan,nan,nan,0,-1
280088374,nan,nan,nan,nan,nan,0,-1
281088360,nan,nan,nan,nan,nan,0,-1
282088362,nan,nan,nan,nan,nan,0,-1
283088360,nan,nan,nan,nan,nan,0,-1
284088363,nan,nan,nan,nan,nan,0,-1
285088360,nan,nan,nan,nan,nan,0,-1
286088374,nan,nan,nan,nan,nan,0,-1
287088360,nan,nan,nan,nan,nan,0,-1
288088363,nan,nan,nan,nan,nan,0,-1
289088360,nan,nan,nan,nan,nan,0,-1
290088362,nan,nan,nan,nan,nan,0,-1
291088412,nan,nan,nan,nan,nan,0,-1
294088368,nan,nan,nan,nan,nan,0,-1
295088363,nan,nan,nan,nan,nan,0,-1
296088376,nan,nan,nan,nan,nan,0,-1
297088360,nan,nan,nan,nan,nan,0,-1
298088362,nan,nan,nan,nan,nan,0,-1
299088362,nan,nan,nan,nan,nan,0,-1
300088360,nan,nan,nan,nan,nan,0,-1
301088413,nan,nan,nan,nan,nan,0,-1
303088363,nan,nan,nan,nan,nan,0,-1
304088360,nan,nan,nan,nan,nan,0,-1
305088360,nan,nan,nan,nan,nan,0,-1
306088380,nan,nan,nan,nan,nan,0,-1
307088363,nan,nan,nan,nan,nan,0,-1
310088371,nan,nan,nan,nan,nan,0,-1
311088381,nan,nan,nan,nan,nan,0,-1
312088400,nan,nan,nan,nan,nan,0,-1
313088361,nan,nan,nan,nan,nan,0,-1
314088360,nan,nan,nan,nan,nan,0,-1
315088369,nan,nan,nan,nan,nan,0,-1
316088374,nan,nan,nan,nan,nan,0,-1
317088392,nan,nan,nan,nan,nan,0,-1
318088360,nan,nan,nan,nan,nan,0,-1
319088413,nan,nan,nan,nan,nan,0,-1
320088361,nan,nan,nan,nan,nan,0,-1
321088369,nan,nan,nan,nan,nan,0,-1
322088360,nan,nan,nan,nan,nan,0,-1
323088363,nan,nan,nan,nan,nan,0,-1
324088419,nan,nan,nan,nan,nan,0,-1
327088363,nan,nan,nan,nan,nan,0,-1
328088360,nan,nan,nan,nan,nan,0,-1
329088414,nan,nan,nan,nan,nan,0,-1
330088360,nan,nan,nan,nan,nan,0,-1
331088369,nan,nan,nan,nan,nan,0,-1
332088360,nan,nan,nan,nan,nan,0,-1
333088488,nan,nan,nan,nan,nan,0,-1
334088467,nan,nan,nan,nan,nan,0,-1
335088363,nan,nan,nan,nan,nan,0,-1
336088373,nan,nan,nan,nan,nan,0,-1
337088360,nan,nan,nan,nan,nan,0,-1
338088360,nan,nan,nan,nan,nan,0,-1
339088431,nan,nan,nan,nan,nan,0,-1
340088360,nan,nan,nan,nan,nan,0,-1
341088360,nan,nan,nan,nan,nan,0,-1
342088360,nan,nan,nan,nan,nan,0,-1
343088363,nan,nan,nan,nan,nan,0,-1
344088397,nan,nan,nan,nan,nan,0,-1
345088360,nan,nan,nan,nan,nan,0,-1
347088364,nan,nan,nan,nan,nan,0,-1
348088360,nan,nan,nan,nan,nan,0,-1
349088462,nan,nan,nan,nan,nan,0,-1
350088360,nan,nan,nan,nan,nan,0,-1
351088368,nan,nan,nan,nan,nan,0,-1
352088360,nan,nan,nan,nan,nan,0,-1
354088432,nan,nan,nan,nan,nan,0,-1
355088363,nan,nan,nan,nan,nan,0,-1
357088362,nan,nan,nan,nan,nan,0,-1
358088363,nan,nan,nan,nan,nan,0,-1
359088407,nan,nan,nan,nan,nan,0,-1
360088360,nan,nan,nan,nan,nan,0,-1
361088360,nan,nan,nan,nan,nan,0,-1
362088360,nan,nan,nan,nan,nan,0,-1
364088408,nan,nan,nan,nan,nan,0,-1
365088428,nan,nan,nan,nan,nan,0,-1
