timestamp,timestamp_last_signal,rssi,rc_lost_frame_count,rc_total_frame_count,rc_ppm_frame_length,values[0],values[1],values[2],values[3],values[4],values[5],values[6],values[7],values[8],values[9],values[10],values[11],values[12],values[13],values[14],values[15],values[16],values[17],channel_count,rc_failsafe,rc_lost,input_source
128108074,128108074,45,0,0,0,1514,1444,1934,1538,1934,1094,1514,1094,1514,1514,1514,1514,1514,1514,1514,1514,1998,1998,18,0,0,4
128607969,128607969,45,0,0,0,1514,1444,1934,1538,1934,1094,1514,1094,1514,1514,1514,1514,1514,1514,1514,1514,1998,1998,18,0,0,4
129102325,129102325,45,0,0,0,1514,1444,1934,1538,1934,1094,1514,1094,1514,1514,1514,1514,1514,1514,1514,1514,1998,1998,18,0,0,4
129598522,129598522,45,0,0,0,1514,1444,1934,1538,1934,1094,1514,1094,1514,1514,1514,1514,1514,1514,1514,1514,1998,1998,18,0,0,4
130092155,130092155,45,0,0,0,1514,1444,1934,1538,1934,1094,1514,1094,1514,1514,1514,1514,1514,1514,1514,1514,1998,1998,18,0,0,4
130592325,130592325,45,0,0,0,1514,1444,1934,1538,1934,1094,1514,1094,1514,1514,1514,1514,1514,1514,1514,1514,1998,1998,18,0,0,4
131092253,131092253,45,0,0,0,1514,1444,1934,1538,1934,1094,1514,1094,1514,1514,1514,1514,1514,1514,1514,1514,1998,1998,18,0,0,4
131608088,131608088,45,0,0,0,1514,1444,1934,1538,1934,1094,1514,1094,1514,1514,1514,1514,1514,1514,1514,1514,1998,1998,18,0,0,4
132098632,132098632,45,0,0,0,1514,1444,1934,1538,1934,1094,1514,1094,1514,1514,1514,1514,1514,1514,1514,1514,1998,1998,18,0,0,4
132588245,132588245,45,0,0,0,1514,1444,1833,1538,1934,1094,1514,1094,1514,1514,1514,1514,1514,1514,1514,1514,1998,1998,18,0,0,4
133088210,133088210,45,0,0,0,1514,1444,1728,1538,1934,1094,1514,1094,1514,1514,1514,1514,1514,1514,1514,1514,1998,1998,18,0,0,4
133602281,133602281,45,0,0,0,1514,1444,1607,1537,1934,1094,1514,1094,1514,1514,1514,1514,1514,1514,1514,1514,1998,1998,18,0,0,4
134108520,134108520,45,0,0,0,1514,1444,1607,1538,1934,1094,1514,1094,1514,1514,1514,1514,1514,1514,1514,1514,1998,1998,18,0,0,4
134592409,134592409,45,0,0,0,1514,1444,1607,1538,1934,1094,1514,1094,1514,1514,1514,1514,1514,1514,1514,1514,1998,1998,18,0,0,4
135088310,135088310,45,0,0,0,1514,1444,1607,1538,1934,1094,1514,1094,1514,1514,1514,1514,1514,1514,1514,1514,1998,1998,18,0,0,4
135592432,135592432,45,0,0,0,1514,1444,1607,1538,1934,1094,1514,1094,1514,1514,1514,1514,1514,1514,1514,1514,1998,1998,18,0,0,4
136108139,136108139,45,0,0,0,1514,1444,1553,1539,1934,1094,1514,1094,1514,1514,1514,1514,1514,1514,1514,1514,1998,1998,18,0,0,4
136592330,136592330,45,0,0,0,1514,1444,1548,1539,1934,1094,1514,1094,1514,1514,1514,1514,1514,1514,1514,1514,1998,1998,18,0,0,4
137098652,137098652,45,0,0,0,1514,1444,1548,1538,1934,1094,1514,1094,1514,1514,1514,1514,1514,1514,1514,1514,1998,1998,18,0,0,4
137598254,137598254,45,0,0,0,1514,1444,1581,1538,1934,1094,1514,1094,1514,1514,1514,1514,1514,1514,1514,1514,1998,1998,18,0,0,4
138108116,138108116,45,0,0,0,1514,1444,1589,1538,1934,1094,1514,1094,1514,1514,1514,1514,1514,1514,1514,1514,1998,1998,18,0,0,4
138598330,138598330,45,0,0,0,1514,1444,1588,1538,1934,1094,1514,1094,1514,1514,1514,1514,1514,1514,1514,1514,1998,1998,18,0,0,4
139108013,139108013,45,0,0,0,1514,1444,1581,1538,1934,1094,1514,1094,1514,1514,1514,1514,1514,1514,1514,1514,1998,1998,18,0,0,4
139608151,139608151,45,0,0,0,1514,1444,1582,1538,1934,1094,1514,1094,1514,1514,1514,1514,1514,1514,1514,1514,1998,1998,18,0,0,4
140097131,140097131,45,0,0,0,1514,1444,1582,1538,1934,1094,1514,1094,1514,1514,1514,1514,1514,1514,1514,1514,1998,1998,18,0,0,4
140602293,140602293,45,0,0,0,1514,1444,1581,1538,1934,1094,1514,1094,1514,1514,1514,1514,1514,1514,1514,1514,1998,1998,18,0,0,4
141092470,141092470,45,0,0,0,1514,1444,1581,1538,1934,1094,1514,1094,1514,1514,1514,1514,1514,1514,1514,1514,1998,1998,18,0,0,4
141598272,141598272,45,0,0,0,1514,1444,1581,1538,1934,1094,1514,1094,1514,1514,1514,1514,1514,1514,1514,1514,1998,1998,18,0,0,4
142092410,142092410,45,0,0,0,1514,1444,1581,1538,1934,1094,1514,1094,1514,1514,1514,1514,1514,1514,1514,1514,1998,1998,18,0,0,4
142607979,142607979,45,0,0,0,1514,1444,1581,1538,1934,1094,1514,1094,1514,1514,1514,1514,1514,1514,1514,1514,1998,1998,18,0,0,4
145092234,145092234,45,0,0,0,1514,1444,1934,1538,1934,1094,1514,1094,1514,1514,1514,1514,1514,1514,1514,1514,1998,1998,18,0,0,4
145592406,145592406,45,0,0,0,1514,1444,1934,1538,1934,1094,1514,1094,1514,1514,1514,1514,1514,1514,1514,1514,1998,1998,18,0,0,4
146102175,146102175,45,0,0,0,1514,1444,1934,1538,1934,1094,1514,1094,1514,1514,1514,1514,1514,1514,1514,1514,1998,1998,18,0,0,4
146602405,146602405,45,0,0,0,1514,1444,1934,1538,1934,1094,1514,1094,1514,1514,1514,1514,1514,1514,1514,1514,1998,1998,18,0,0,4
147092342,147092342,45,0,0,0,1514,1444,1934,1538,1934,1094,1514,1094,1514,1514,1514,1514,1514,1514,1514,1514,1998,1998,18,0,0,4
147592613,147592613,45,0,0,0,1514,1444,1934,1538,1934,1094,1514,1094,1514,1514,1514,1514,1514,1514,1514,1514,1998,1998,18,0,0,4
148108102,148108102,45,0,0,0,1514,1444,1934,1538,1934,1094,1514,1094,1514,1514,1514,1514,1514,1514,1514,1514,1998,1998,18,0,0,4
148598886,148598886,45,0,0,0,1514,1444,1934,1538,1934,1094,1514,1094,1514,1514,1514,1514,1514,1514,1514,1514,1998,1998,18,0,0,4
149088310,149088310,45,0,0,0,1514,1444,1934,1538,1934,1094,1514,1094,1514,1514,1514,1514,1514,1514,1514,1514,1998,1998,18,0,0,4
149602410,149602410,45,0,0,0,1514,1444,1934,1538,1934,1094,1514,1094,1514,1514,1514,1514,1514,1514,1514,1514,1998,1998,18,0,0,4
150092180,150092180,45,0,0,0,1514,1444,1934,1538,1934,1094,1514,1094,1514,1514,1514,1514,1514,1514,1514,1514,1998,1998,18,0,0,4
150598517,150598517,45,0,0,0,1514,1444,1934,1538,1934,1094,1514,1094,1514,1514,1514,1514,1514,1514,1514,1514,1998,1998,18,0,0,4
151102255,151102255,45,0,0,0,1514,1444,1934,1538,1934,1094,1514,1094,1514,1514,1514,1514,1514,1514,1514,1514,1998,1998,18,0,0,4
151592257,151592257,45,0,0,0,1514,1444,1934,1538,1934,1094,1514,1094,1514,1514,1514,1514,1514,1514,1514,1514,1998,1998,18,0,0,4
152102149,152102149,45,0,0,0,1514,1444,1934,1538,1934,1094,1514,1094,1514,1514,1514,1514,1514,1514,1514,1514,1998,1998,18,0,0,4
152588220,152588220,45,0,0,0,1514,1444,1934,1538,1934,1094,1514,1094,1514,1514,1514,1514,1514,1514,1514,1514,1998,1998,18,0,0,4
153108136,153108136,45,0,0,0,1514,1444,1934,1538,1934,1094,1514,1094,1514,1514,1514,1514,1514,1514,1514,1514,1998,1998,18,0,0,4
153602280,153602280,45,0,0,0,1514,1444,1934,1538,1934,1094,1514,1094,1514,1514,1514,1514,1514,1514,1514,1514,1998,1998,18,0,0,4
154098676,154098676,45,0,0,0,1514,1444,1934,1538,1934,1094,1514,1094,1514,1514,1514,1514,1514,1514,1514,1514,1998,1998,18,0,0,4
154598965,154598965,45,0,0,0,1514,1444,1934,1538,1934,1094,1514,1094,1514,1514,1514,1514,1514,1514,1514,1514,1998,1998,18,0,0,4
155088242,155088242,45,0,0,0,1514,1444,1934,1538,1934,1094,1514,1094,1514,1514,1514,1514,1514,1514,1514,1514,1998,1998,18,0,0,4
155598539,155598539,45,0,0,0,1514,1444,1934,1538,1934,1094,1514,1094,1514,1514,1514,1514,1514,1514,1514,1514,1998,1998,18,0,0,4
156098831,156098831,45,0,0,0,1514,1444,1934,1538,1934,1094,1514,1094,1514,1514,1514,1514,1514,1514,1514,1514,1998,1998,18,0,0,4
156598338,156598338,45,0,0,0,1514,1444,1934,1538,1934,1094,1514,1094,1514,1514,1514,1514,1514,1514,1514,1514,1998,1998,18,0,0,4
157102324,157102324,45,0,0,0,1514,1444,1934,1538,1934,1094,1514,1094,1514,1514,1514,1514,1514,1514,1514,1514,1998,1998,18,0,0,4
157608010,157608010,45,0,0,0,1514,1444,1934,1538,1934,1094,1514,1094,1514,1514,1514,1514,1514,1514,1514,1514,1998,1998,18,0,0,4
158098651,158098651,45,0,0,0,1514,1444,1934,1538,1934,1094,1514,1094,1514,1514,1514,1514,1514,1514,1514,1514,1998,1998,18,0,0,4
158602117,158602117,45,0,0,0,1514,1444,1934,1538,1934,1094,1514,1094,1514,1514,1514,1514,1514,1514,1514,1514,1998,1998,18,0,0,4
159088173,159088173,45,0,0,0,1514,1444,1934,1538,1934,1094,1514,1094,1514,1514,1514,1514,1514,1514,1514,1514,1998,1998,18,0,0,4
159592436,159592436,45,0,0,0,1514,1444,1934,1538,1934,1094,1514,1094,1514,1514,1514,1514,1514,1514,1514,1514,1998,1998,18,0,0,4
160108319,160108319,45,0,0,0,1514,1444,1934,1538,1934,1094,1514,1094,1514,1514,1514,1514,1514,1514,1514,1514,1998,1998,18,0,0,4
160592422,160592422,45,0,0,0,1514,1444,1934,1538,1934,1094,1514,1094,1514,1514,1514,1514,1514,1514,1514,1514,1998,1998,18,0,0,4
161098786,161098786,45,0,0,0,1514,1444,1934,1538,1934,1094,1514,1094,1514,1514,1514,1514,1514,1514,1514,1514,1998,1998,18,0,0,4
162598690,162598690,45,0,0,0,1514,1444,1934,1538,1934,1094,1514,1094,1514,1514,1514,1514,1514,1514,1514,1514,1998,1998,18,0,0,4
163102254,163102254,45,0,0,0,1514,1444,1934,1538,1934,1094,1514,1094,1514,1514,1514,1514,1514,1514,1514,1514,1998,1998,18,0,0,4
163602204,163602204,45,0,0,0,1514,1444,1934,1538,1934,1094,1514,1094,1514,1514,1514,1514,1514,1514,1514,1514,1998,1998,18,0,0,4
164092461,164092461,45,0,0,0,1514,1444,1934,1538,1934,1094,1514,1094,1514,1514,1514,1514,1514,1514,1514,1514,1998,1998,18,0,0,4
164600843,164600843,45,0,0,0,1514,1444,1934,1538,1934,1094,1514,1094,1514,1514,1514,1514,1514,1514,1514,1514,1998,1998,18,0,0,4
165108033,165108033,45,0,0,0,1514,1444,1934,1538,1934,1094,1514,1094,1514,1514,1514,1514,1514,1514,1514,1514,1998,1998,18,0,0,4
165578729,165578729,45,0,0,0,1514,1444,1934,1538,1934,1094,1514,1094,1514,1514,1514,1514,1514,1514,1514,1514,1998,1998,18,0,0,4
166098208,166098208,45,0,0,0,1514,1444,1934,1538,1934,1094,1514,1094,1514,1514,1514,1514,1514,1514,1514,1514,1998,1998,18,0,0,4
166599040,166599040,45,0,0,0,1514,1444,1934,1538,1934,1094,1514,1094,1514,1514,1514,1514,1514,1514,1514,1514,1998,1998,18,0,0,4
167092420,167092420,45,0,0,0,1533,1863,1934,1538,1934,1094,1514,1094,1514,1514,1514,1514,1514,1514,1514,1514,1998,1998,18,0,0,4
167588202,167588202,45,0,0,0,1514,1826,1934,1538,1934,1094,1514,1094,1514,1514,1514,1514,1514,1514,1514,1514,1998,1998,18,0,0,4
168098768,168098768,45,0,0,0,1481,1655,1934,1538,1934,1094,1514,1094,1514,1514,1514,1514,1514,1514,1514,1514,1998,1998,18,0,0,4
168607905,168607905,45,0,0,0,1478,1647,1934,1538,1934,1094,1514,1094,1514,1514,1514,1514,1514,1514,1514,1514,1998,1998,18,0,0,4
170088034,170088034,45,0,0,0,1578,1341,1934,1538,1934,1094,1514,1094,1514,1514,1514,1514,1514,1514,1514,1514,1998,1998,18,0,0,4
170592251,170592251,45,0,0,0,1514,1444,1934,1538,1934,1094,1514,1094,1514,1514,1514,1514,1514,1514,1514,1514,1998,1998,18,0,0,4
171108250,171108250,45,0,0,0,1514,1445,1934,1538,1934,1094,1514,1094,1514,1514,1514,1514,1514,1514,1514,1514,1998,1998,18,0,0,4
171588214,171588214,45,0,0,0,1514,1445,1934,1538,1934,1094,1514,1094,1514,1514,1514,1514,1514,1514,1514,1514,1998,1998,18,0,0,4
172108225,172108225,45,0,0,0,1514,1445,1934,1538,1934,1094,1514,1094,1514,1514,1514,1514,1514,1514,1514,1514,1998,1998,18,0,0,4
172588619,172588619,45,0,0,0,1514,1445,1934,1538,1934,1094,1514,1094,1514,1514,1514,1514,1514,1514,1514,1514,1998,1998,18,0,0,4
173107994,173107994,45,0,0,0,1514,1445,1934,1538,1934,1094,1514,1094,1514,1514,1514,1514,1514,1514,1514,1514,1998,1998,18,0,0,4
173602526,173602526,45,0,0,0,1514,1445,1934,1538,1934,1094,1514,1094,1514,1514,1514,1514,1514,1514,1514,1514,1998,1998,18,0,0,4
174108131,174108131,45,0,0,0,1514,1445,1934,1538,1934,1094,1514,1094,1514,1514,1514,1514,1514,1514,1514,1514,1998,1998,18,0,0,4
174598552,174598552,45,0,0,0,1514,1445,1934,1538,1934,1094,1514,1094,1514,1514,1514,1514,1514,1514,1514,1514,1998,1998,18,0,0,4
175098933,175098933,45,0,0,0,1514,1445,1934,1538,1934,1934,1514,1094,1514,1514,1514,1514,1514,1514,1514,1514,1998,1998,18,0,0,4
175602385,175602385,45,0,0,0,1514,1445,1934,1530,1934,1934,1514,1094,1514,1514,1514,1514,1514,1514,1514,1514,1998,1998,18,0,0,4
176592542,176592542,45,0,0,0,1514,1445,1934,1672,1934,1934,1514,1094,1514,1514,1514,1514,1514,1514,1514,1514,1998,1998,18,0,0,4
177098469,177098469,45,0,0,0,1514,1445,1934,1536,1934,1934,1514,1094,1514,1514,1514,1514,1514,1514,1514,1514,1998,1998,18,0,0,4
177588305,177588305,45,0,0,0,1514,1445,1934,1346,1934,1934,1514,1094,1514,1514,1514,1514,1514,1514,1514,1514,1998,1998,18,0,0,4
178088297,178088297,45,0,0,0,1514,1445,1934,1538,1934,1934,1514,1094,1514,1514,1514,1514,1514,1514,1514,1514,1998,1998,18,0,0,4
178592456,178592456,45,0,0,0,1514,1445,1934,1538,1934,1094,1514,1094,1514,1514,1514,1514,1514,1514,1514,1514,1998,1998,18,0,0,4
179098659,179098659,45,0,0,0,1514,1445,1934,1538,1934,1094,1514,1094,1514,1514,1514,1514,1514,1514,1514,1514,1998,1998,18,0,0,4
179602246,179602246,45,0,0,0,1514,1445,1934,1538,1934,1094,1514,1094,1514,1514,1514,1514,1514,1514,1514,1514,1998,1998,18,0,0,4
180098600,180098600,45,0,0,0,1514,1445,1934,1276,1934,1094,1514,1094,1514,1514,1514,1514,1514,1514,1514,1514,1998,1998,18,0,0,4
180601496,180601496,45,0,0,0,1514,1445,1934,1550,1934,1094,1514,1094,1514,1514,1514,1514,1514,1514,1514,1514,1998,1998,18,0,0,4
182098582,182098582,45,0,0,0,1514,1444,1934,1538,1934,1094,1514,1094,1514,1514,1514,1514,1514,1514,1514,1514,1998,1998,18,0,0,4
182592475,182592475,45,0,0,0,1539,1580,1934,1538,1934,1094,1514,1094,1514,1514,1514,1514,1514,1514,1514,1514,1998,1998,18,0,0,4
183108042,183108042,45,0,0,0,1514,1348,1934,1538,1934,1094,1514,1094,1514,1514,1514,1514,1514,1514,1514,1514,1998,1998,18,0,0,4
183608204,183608204,45,0,0,0,1514,1444,1934,1538,1934,1094,1514,1094,1514,1514,1514,1514,1514,1514,1514,1514,1998,1998,18,0,0,4
184108287,184108287,45,0,0,0,1514,1444,1934,1538,1934,1094,1514,1094,1514,1514,1514,1514,1514,1514,1514,1514,1998,1998,18,0,0,4
184598801,184598801,45,0,0,0,1514,1444,1934,1538,1934,1094,1514,1094,1514,1514,1514,1514,1514,1514,1514,1514,1998,1998,18,0,0,4
185092522,185092522,45,0,0,0,1514,1444,1934,1538,1934,1094,1514,1094,1514,1514,1514,1514,1514,1514,1514,1514,1998,1998,18,0,0,4
185592399,185592399,45,0,0,0,1514,1444,1934,1538,1934,1094,1514,1094,1514,1514,1514,1514,1514,1514,1514,1514,1998,1998,18,0,0,4
186102505,186102505,45,0,0,0,1514,1444,1898,1539,1934,1094,1514,1094,1514,1514,1514,1514,1514,1514,1514,1514,1998,1998,18,0,0,4
186608216,186608216,45,0,0,0,1514,1444,1773,1539,1934,1094,1514,1094,1514,1514,1514,1514,1514,1514,1514,1514,1998,1998,18,0,0,4
187108570,187108570,45,0,0,0,1514,1444,1708,1539,1934,1094,1514,1094,1514,1514,1514,1514,1514,1514,1514,1514,1998,1998,18,0,0,4
187592276,187592276,45,0,0,0,1514,1444,1629,1539,1934,1094,1514,1094,1514,1514,1514,1514,1514,1514,1514,1514,1998,1998,18,0,0,4
188092421,188092421,45,0,0,0,1514,1444,1629,1538,1934,1094,1514,1094,1514,1514,1514,1514,1514,1514,1514,1514,1998,1998,18,0,0,4
188602553,188602553,45,0,0,0,1514,1444,1613,1538,1934,1094,1514,1094,1514,1514,1514,1514,1514,1514,1514,1514,1998,1998,18,0,0,4
189098313,189098313,45,0,0,0,1514,1444,1612,1538,1934,1094,1514,1094,1514,1514,1514,1514,1514,1514,1514,1514,1998,1998,18,0,0,4
189598856,189598856,45,0,0,0,1514,1444,1612,1538,1934,1094,1514,1094,1514,1514,1514,1514,1514,1514,1514,1514,1998,1998,18,0,0,4
190098528,190098528,45,0,0,0,1514,1444,1567,1538,1934,1094,1514,1094,1514,1514,1514,1514,1514,1514,1514,1514,1998,1998,18,0,0,4
190608560,190608560,45,0,0,0,1514,1444,1548,1538,1934,1094,1514,1094,1514,1514,1514,1514,1514,1514,1514,1514,1998,1998,18,0,0,4
191108168,191108168,45,0,0,0,1514,1444,1518,1538,1934,1094,1514,1094,1514,1514,1514,1514,1514,1514,1514,1514,1998,1998,18,0,0,4
191608097,191608097,45,0,0,0,1514,1444,1518,1538,1934,1094,1514,1094,1514,1514,1514,1514,1514,1514,1514,1514,1998,1998,18,0,0,4
192102399,192102399,45,0,0,0,1514,1444,1477,1539,1934,1094,1514,1094,1514,1514,1514,1514,1514,1514,1514,1514,1998,1998,18,0,0,4
193598560,193598560,45,0,0,0,1514,1444,1387,1540,1934,1094,1514,1094,1514,1514,1514,1514,1514,1514,1514,1514,1998,1998,18,0,0,4
194108039,194108039,45,0,0,0,1514,1444,1365,1540,1934,1094,1514,1094,1514,1514,1514,1514,1514,1514,1514,1514,1998,1998,18,0,0,4
194592245,194592245,45,0,0,0,1514,1444,1342,1544,1934,1094,1514,1094,1514,1514,1514,1514,1514,1514,1514,1514,1998,1998,18,0,0,4
195098306,195098306,45,0,0,0,1514,1444,1293,1548,1934,1094,1514,1094,1514,1514,1514,1514,1514,1514,1514,1514,1998,1998,18,0,0,4
195599026,195599026,45,0,0,0,1514,1444,1257,1562,1934,1094,1514,1094,1514,1514,1514,1514,1514,1514,1514,1514,1998,1998,18,0,0,4
196102402,196102402,45,0,0,0,1514,1444,1120,1590,1934,1094,1514,1094,1514,1514,1514,1514,1514,1514,1514,1514,1998,1998,18,0,0,4
196592487,196592487,45,0,0,0,1514,1444,1094,1563,1934,1094,1514,1094,1514,1514,1514,1514,1514,1514,1514,1514,1998,1998,18,0,0,4
197102490,197102490,45,0,0,0,1514,1444,1094,1538,1934,1094,1514,1094,1514,1514,1514,1514,1514,1514,1514,1514,1998,1998,18,0,0,4
197588246,197588246,45,0,0,0,1514,1444,1094,1538,1934,1094,1514,1094,1514,1514,1514,1514,1514,1514,1514,1514,1998,1998,18,0,0,4
198098591,198098591,45,0,0,0,1514,1444,1094,1538,1934,1094,1514,1094,1514,1514,1514,1514,1514,1514,1514,1514,1998,1998,18,0,0,4
198592438,198592438,45,0,0,0,1514,1444,1094,1538,1934,1094,1514,1094,1514,1514,1514,1514,1514,1514,1514,1514,1998,1998,18,0,0,4
199108212,199108212,45,0,0,0,1524,1572,1094,1538,1934,1094,1514,1094,1514,1514,1514,1514,1514,1514,1514,1514,1998,1998,18,0,0,4
199588495,199588495,45,0,0,0,1525,1547,1094,1538,1934,1094,1514,1094,1514,1514,1514,1514,1514,1514,1514,1514,1998,1998,18,0,0,4
200108139,200108139,45,0,0,0,1523,1548,1094,1538,1934,1094,1514,1094,1514,1514,1514,1514,1514,1514,1514,1514,1998,1998,18,0,0,4
200602256,200602256,45,0,0,0,1534,1655,1094,1538,1934,1094,1514,1094,1514,1514,1514,1514,1514,1514,1514,1514,1998,1998,18,0,0,4
201108062,201108062,45,0,0,0,1591,1732,1094,1538,1934,1094,1514,1094,1514,1514,1514,1514,1514,1514,1514,1514,1998,1998,18,0,0,4
201608233,201608233,45,0,0,0,1586,1327,1094,1538,1934,1094,1514,1094,1514,1514,1514,1514,1514,1514,1514,1514,1998,1998,18,0,0,4
202272439,202272439,45,0,0,0,1594,1466,1094,1538,1934,1094,1514,1094,1514,1514,1514,1514,1514,1514,1514,1514,1998,1998,18,0,0,4
203592478,203592478,45,0,0,0,1519,1485,1094,1601,1934,1094,1514,1094,1514,1514,1514,1514,1514,1514,1514,1514,1998,1998,18,0,0,4
204092289,204092289,45,0,0,0,1524,1488,1094,1605,1934,1094,1514,1094,1514,1514,1514,1514,1514,1514,1514,1514,1998,1998,18,0,0,4
204592232,204592232,45,0,0,0,1562,1482,1094,1568,1934,1094,1514,1094,1514,1514,1514,1514,1514,1514,1514,1514,1998,1998,18,0,0,4
205100811,205100811,45,0,0,0,1560,1488,1094,1550,1934,1094,1514,1094,1514,1514,1514,1514,1514,1514,1514,1514,1998,1998,18,0,0,4
205592287,205592287,45,0,0,0,1556,1491,1094,1545,1934,1094,1514,1094,1514,1514,1514,1514,1514,1514,1514,1514,1998,1998,18,0,0,4
206108232,206108232,45,0,0,0,1550,1497,1094,1580,1934,1094,1514,1094,1514,1514,1514,1514,1514,1514,1514,1514,1998,1998,18,0,0,4
206592152,206592152,45,0,0,0,1528,1475,1094,1580,1934,1094,1514,1094,1514,1514,1514,1514,1514,1514,1514,1514,1998,1998,18,0,0,4
207109600,207109600,45,0,0,0,1520,1474,1094,1562,1934,1094,1514,1094,1514,1514,1514,1514,1514,1514,1514,1514,1998,1998,18,0,0,4
207588502,207588502,45,0,0,0,1530,1469,1094,1539,1934,1094,1514,1094,1514,1514,1514,1514,1514,1514,1514,1514,1998,1998,18,0,0,4
208600894,208600894,45,0,0,0,1530,1475,1094,1538,1934,1094,1514,1094,1514,1514,1514,1514,1514,1514,1514,1514,1998,1998,18,0,0,4
209108197,209108197,45,0,0,0,1527,1474,1094,1538,1934,1094,1514,1094,1514,1514,1514,1514,1514,1514,1514,1514,1998,1998,18,0,0,4
209608610,209608610,45,0,0,0,1528,1472,1094,1547,1934,1094,1514,1094,1514,1514,1514,1514,1514,1514,1514,1514,1998,1998,18,0,0,4
210088864,210088864,45,0,0,0,1532,1482,1094,1587,1934,1094,1514,1094,1514,1514,1514,1514,1514,1514,1514,1514,1998,1998,18,0,0,4
210602406,210602406,45,0,0,0,1551,1475,1094,1562,1934,1094,1514,1094,1514,1514,1514,1514,1514,1514,1514,1514,1998,1998,18,0,0,4
211099949,211099949,45,0,0,0,1547,1471,1094,1539,1934,1094,1514,1094,1514,1514,1514,1514,1514,1514,1514,1514,1998,1998,18,0,0,4
211588432,211588432,45,0,0,0,1538,1467,1094,1539,1934,1094,1514,1094,1514,1514,1514,1514,1514,1514,1514,1514,1998,1998,18,0,0,4
212108027,212108027,45,0,0,0,1542,1470,1094,1539,1934,1094,1514,1094,1514,1514,1514,1514,1514,1514,1514,1514,1998,1998,18,0,0,4
212599647,212599647,45,0,0,0,1542,1470,1094,1539,1934,1094,1514,1094,1514,1514,1514,1514,1514,1514,1514,1514,1998,1998,18,0,0,4
213098591,213098591,45,0,0,0,1547,1462,1094,1514,1934,1094,1514,1094,1514,1514,1514,1514,1514,1514,1514,1514,1998,1998,18,0,0,4
213588142,213588142,45,0,0,0,1542,1473,1094,1461,1934,1094,1514,1094,1514,1514,1514,1514,1514,1514,1514,1514,1998,1998,18,0,0,4
214092448,214092448,45,0,0,0,1527,1459,1094,1427,1934,1094,1514,1094,1514,1514,1514,1514,1514,1514,1514,1514,1998,1998,18,0,0,4
214608605,214608605,45,0,0,0,1528,1457,1094,1419,1934,1094,1514,1094,1514,1514,1514,1514,1514,1514,1514,1514,1998,1998,18,0,0,4
216098650,216098650,45,0,0,0,1537,1455,1094,1427,1934,1094,1514,1094,1514,1514,1514,1514,1514,1514,1514,1514,1998,1998,18,0,0,4
216598272,216598272,45,0,0,0,1547,1458,1094,1538,1934,1094,1514,1094,1514,1514,1514,1514,1514,1514,1514,1514,1998,1998,18,0,0,4
217108131,217108131,45,0,0,0,1537,1450,1094,1538,1934,1094,1514,1094,1514,1514,1514,1514,1514,1514,1514,1514,1998,1998,18,0,0,4
217592286,217592286,45,0,0,0,1532,1444,1094,1447,1934,1094,1514,1094,1514,1514,1514,1514,1514,1514,1514,1514,1998,1998,18,0,0,4
218108814,218108814,45,0,0,0,1545,1423,1094,1422,1934,1094,1514,1094,1514,1514,1514,1514,1514,1514,1514,1514,1998,1998,18,0,0,4
218608176,218608176,45,0,0,0,1558,1440,1094,1417,1934,1094,1514,1094,1514,1514,1514,1514,1514,1514,1514,1514,1998,1998,18,0,0,4
219092555,219092555,45,0,0,0,1556,1439,1094,1421,1934,1094,1514,1094,1514,1514,1514,1514,1514,1514,1514,1514,1998,1998,18,0,0,4
219598905,219598905,45,0,0,0,1558,1428,1094,1400,1934,1094,1514,1094,1514,1514,1514,1514,1514,1514,1514,1514,1998,1998,18,0,0,4
220608187,220608187,45,0,0,0,1553,1425,1094,1380,1934,1094,1514,1094,1514,1514,1514,1514,1514,1514,1514,1514,1998,1998,18,0,0,4
221108540,221108540,45,0,0,0,1523,1365,1094,1358,1934,1094,1514,1094,1514,1514,1514,1514,1514,1514,1514,1514,1998,1998,18,0,0,4
221598488,221598488,45,0,0,0,1543,1370,1094,1337,1934,1094,1514,1094,1514,1514,1514,1514,1514,1514,1514,1514,1998,1998,18,0,0,4
222098737,222098737,45,0,0,0,1580,1391,1094,1397,1934,1094,1514,1094,1514,1514,1514,1514,1514,1514,1514,1514,1998,1998,18,0,0,4
222599029,222599029,45,0,0,0,1587,1392,1094,1429,1934,1094,1514,1094,1514,1514,1514,1514,1514,1514,1514,1514,1998,1998,18,0,0,4
223108286,223108286,45,0,0,0,1596,1402,1094,1490,1934,1094,1514,1094,1514,1514,1514,1514,1514,1514,1514,1514,1998,1998,18,0,0,4
223598583,223598583,45,0,0,0,1582,1365,1094,1566,1934,1094,1514,1094,1514,1514,1514,1514,1514,1514,1514,1514,1998,1998,18,0,0,4
224099138,224099138,45,0,0,0,1580,1362,1094,1581,1934,1094,1514,1094,1514,1514,1514,1514,1514,1514,1514,1514,1998,1998,18,0,0,4
225608471,225608471,45,0,0,0,1539,1432,1094,1572,1934,1094,1514,1094,1514,1514,1514,1514,1514,1514,1514,1514,1998,1998,18,0,0,4
226102410,226102410,45,0,0,0,1523,1444,1094,1692,1934,1094,1514,1094,1514,1514,1514,1514,1514,1514,1514,1514,1998,1998,18,0,0,4
226598327,226598327,45,0,0,0,1508,1444,1094,1638,1934,1094,1514,1094,1514,1514,1514,1514,1514,1514,1514,1514,1998,1998,18,0,0,4
227098501,227098501,45,0,0,0,1514,1443,1094,1538,1934,1094,1514,1094,1514,1514,1514,1514,1514,1514,1514,1514,1998,1998,18,0,0,4
227602252,227602252,45,0,0,0,1514,1444,1094,1538,1934,1094,1514,1094,1514,1514,1514,1514,1514,1514,1514,1514,1998,1998,18,0,0,4
228092408,228092408,45,0,0,0,1514,1450,1094,1538,1934,1094,1514,1094,1514,1514,1514,1514,1514,1514,1514,1514,1998,1998,18,0,0,4
228598872,228598872,45,0,0,0,1515,1443,1094,1612,1934,1094,1514,1094,1514,1514,1514,1514,1514,1514,1514,1514,1998,1998,18,0,0,4
229108044,229108044,45,0,0,0,1514,1448,1094,1617,1934,1094,1514,1094,1514,1514,1514,1514,1514,1514,1514,1514,1998,1998,18,0,0,4
229602314,229602314,45,0,0,0,1513,1457,1094,1522,1934,1094,1514,1094,1514,1514,1514,1514,1514,1514,1514,1514,1998,1998,18,0,0,4
230098365,230098365,45,0,0,0,1514,1447,1094,1493,1934,1094,1514,1094,1514,1514,1514,1514,1514,1514,1514,1514,1998,1998,18,0,0,4
230599901,230599901,45,0,0,0,1514,1444,1094,1539,1934,1094,1514,1094,1514,1514,1514,1514,1514,1514,1514,1514,1998,1998,18,0,0,4
231100966,231100966,45,0,0,0,1514,1444,1094,1539,1934,1094,1514,1094,1514,1514,1514,1514,1514,1514,1514,1514,1998,1998,18,0,0,4
231602315,231602315,45,0,0,0,1506,1448,1094,1621,1934,1094,1514,1094,1514,1514,1514,1514,1514,1514,1514,1514,1998,1998,18,0,0,4
233608241,233608241,45,0,0,0,1514,1444,1322,1577,1934,1094,1514,1094,1514,1514,1514,1514,1514,1514,1514,1514,1998,1998,18,0,0,4
234092655,234092655,45,0,0,0,1514,1444,1322,1552,1934,1094,1514,1094,1514,1514,1514,1514,1514,1514,1514,1514,1998,1998,18,0,0,4
234598124,234598124,45,0,0,0,1514,1444,1322,1538,1934,1094,1514,1094,1514,1514,1514,1514,1514,1514,1514,1514,1998,1998,18,0,0,4
235108157,235108157,45,0,0,0,1514,1444,1322,1538,1934,1094,1514,1094,1514,1514,1514,1514,1514,1514,1514,1514,1998,1998,18,0,0,4
235607386,235607386,45,0,0,0,1514,1444,1322,1538,1934,1094,1514,1094,1514,1514,1514,1514,1514,1514,1514,1514,1998,1998,18,0,0,4
236582300,236582300,45,0,0,0,1514,1444,1258,1538,1934,1094,1514,1094,1514,1514,1514,1514,1514,1514,1514,1514,1998,1998,18,0,0,4
237092415,237092415,45,0,0,0,1517,1444,1258,1492,1934,1094,1514,1094,1514,1514,1514,1514,1514,1514,1514,1514,1998,1998,18,0,0,4
237598474,237598474,45,0,0,0,1538,1444,1258,1460,1934,1094,1514,1094,1514,1514,1514,1514,1514,1514,1514,1514,1998,1998,18,0,0,4
238099093,238099093,45,0,0,0,1552,1444,1258,1479,1934,1094,1514,1094,1514,1514,1514,1514,1514,1514,1514,1514,1998,1998,18,0,0,4
238592425,238592425,45,0,0,0,1552,1444,1258,1520,1934,1094,1514,1094,1514,1514,1514,1514,1514,1514,1514,1514,1998,1998,18,0,0,4
239107990,239107990,45,0,0,0,1537,1444,1258,1502,1934,1094,1514,1094,1514,1514,1514,1514,1514,1514,1514,1514,1998,1998,18,0,0,4
239592313,239592313,45,0,0,0,1530,1444,1258,1499,1934,1094,1514,1094,1514,1514,1514,1514,1514,1514,1514,1514,1998,1998,18,0,0,4
240108000,240108000,45,0,0,0,1528,1444,1257,1476,1934,1094,1514,1094,1514,1514,1514,1514,1514,1514,1514,1514,1998,1998,18,0,0,4
240608080,240608080,45,0,0,0,1535,1444,1258,1448,1934,1094,1514,1094,1514,1514,1514,1514,1514,1514,1514,1514,1998,1998,18,0,0,4
241092318,241092318,45,0,0,0,1535,1444,1258,1392,1934,1094,1514,1094,1514,1514,1514,1514,1514,1514,1514,1514,1998,1998,18,0,0,4
241588475,241588475,45,0,0,0,1533,1444,1257,1363,1934,1094,1514,1094,1514,1514,1514,1514,1514,1514,1514,1514,1998,1998,18,0,0,4
242098753,242098753,45,0,0,0,1547,1444,1252,1289,1934,1094,1514,1094,1514,1514,1514,1514,1514,1514,1514,1514,1998,1998,18,0,0,4
242599962,242599962,45,0,0,0,1557,1444,1252,1344,1934,1094,1514,1094,1514,1514,1514,1514,1514,1514,1514,1514,1998,1998,18,0,0,4
243092210,243092210,45,0,0,0,1588,1444,1252,1538,1934,1094,1514,1094,1514,1514,1514,1514,1514,1514,1514,1514,1998,1998,18,0,0,4
243600011,243600011,45,0,0,0,1580,1444,1252,1538,1934,1094,1514,1094,1514,1514,1514,1514,1514,1514,1514,1514,1998,1998,18,0,0,4
244108252,244108252,45,0,0,0,1552,1444,1252,1538,1934,1094,1514,1094,1514,1514,1514,1514,1514,1514,1514,1514,1998,1998,18,0,0,4
244608522,244608522,45,0,0,0,1533,1444,1252,1472,1934,1094,1514,1094,1514,1514,1514,1514,1514,1514,1514,1514,1998,1998,18,0,0,4
245088302,245088302,45,0,0,0,1514,1444,1257,1428,1934,1094,1514,1094,1514,1514,1514,1514,1514,1514,1514,1514,1998,1998,18,0,0,4
245602279,245602279,45,0,0,0,1514,1444,1257,1427,1934,1094,1514,1094,1514,1514,1514,1514,1514,1514,1514,1514,1998,1998,18,0,0,4
246088160,246088160,45,0,0,0,1514,1444,1257,1500,1934,1094,1514,1094,1514,1514,1514,1514,1514,1514,1514,1514,1998,1998,18,0,0,4
248592404,248592404,45,0,0,0,1514,1445,1192,1539,1934,1094,1514,1094,1514,1514,1514,1514,1514,1514,1514,1514,1998,1998,18,0,0,4
249100119,249100119,45,0,0,0,1521,1444,1192,1539,1934,1094,1514,1094,1514,1514,1514,1514,1514,1514,1514,1514,1998,1998,18,0,0,4
249592372,249592372,45,0,0,0,1516,1444,1191,1539,1934,1094,1514,1094,1514,1514,1514,1514,1514,1514,1514,1514,1998,1998,18,0,0,4
250099915,250099915,45,0,0,0,1523,1446,1177,1553,1934,1094,1514,1094,1514,1514,1514,1514,1514,1514,1514,1514,1998,1998,18,0,0,4
250588676,250588676,45,0,0,0,1523,1445,1163,1570,1934,1094,1514,1094,1514,1514,1514,1514,1514,1514,1514,1514,1998,1998,18,0,0,4
251100071,251100071,45,0,0,0,1515,1445,1160,1567,1934,1094,1514,1094,1514,1514,1514,1514,1514,1514,1514,1514,1998,1998,18,0,0,4
251600014,251600014,45,0,0,0,1515,1445,1160,1552,1934,1094,1514,1094,1514,1514,1514,1514,1514,1514,1514,1514,1998,1998,18,0,0,4
252092446,252092446,45,0,0,0,1514,1445,1155,1555,1934,1094,1514,1094,1514,1514,1514,1514,1514,1514,1514,1514,1998,1998,18,0,0,4
252601138,252601138,45,0,0,0,1514,1445,1154,1565,1934,1094,1514,1094,1514,1514,1514,1514,1514,1514,1514,1514,1998,1998,18,0,0,4
253100897,253100897,45,0,0,0,1553,1446,1155,1595,1934,1094,1514,1094,1514,1514,1514,1514,1514,1514,1514,1514,1998,1998,18,0,0,4
253602482,253602482,45,0,0,0,1591,1445,1155,1641,1934,1094,1514,1094,1514,1514,1514,1514,1514,1514,1514,1514,1998,1998,18,0,0,4
254099776,254099776,45,0,0,0,1435,1451,1155,1622,1934,1094,1514,1094,1514,1514,1514,1514,1514,1514,1514,1514,1998,1998,18,0,0,4
254598893,254598893,45,0,0,0,1445,1465,1155,1612,1934,1094,1514,1094,1514,1514,1514,1514,1514,1514,1514,1514,1998,1998,18,0,0,4
255108981,255108981,45,0,0,0,1601,1463,1155,1600,1934,1094,1514,1094,1514,1514,1514,1514,1514,1514,1514,1514,1998,1998,18,0,0,4
255608247,255608247,45,0,0,0,1582,1463,1155,1539,1934,1094,1514,1094,1514,1514,1514,1514,1514,1514,1514,1514,1998,1998,18,0,0,4
256102165,256102165,45,0,0,0,1454,1445,1155,1539,1934,1094,1514,1094,1514,1514,1514,1514,1514,1514,1514,1514,1998,1998,18,0,0,4
256598597,256598597,45,0,0,0,1388,1465,1155,1539,1934,1094,1514,1094,1514,1514,1514,1514,1514,1514,1514,1514,1998,1998,18,0,0,4
257092286,257092286,45,0,0,0,1585,1444,1155,1539,1934,1094,1514,1094,1514,1514,1514,1514,1514,1514,1514,1514,1998,1998,18,0,0,4
257608287,257608287,45,0,0,0,1562,1444,1155,1527,1934,1094,1514,1094,1514,1514,1514,1514,1514,1514,1514,1514,1998,1998,18,0,0,4
258092256,258092256,45,0,0,0,1514,1444,1154,1439,1934,1094,1514,1094,1514,1514,1514,1514,1514,1514,1514,1514,1998,1998,18,0,0,4
258598296,258598296,45,0,0,0,1559,1444,1153,1467,1934,1094,1514,1094,1514,1514,1514,1514,1514,1514,1514,1514,1998,1998,18,0,0,4
259102289,259102289,45,0,0,0,1560,1444,1153,1492,1934,1094,1514,1094,1514,1514,1514,1514,1514,1514,1514,1514,1998,1998,18,0,0,4
259588155,259588155,45,0,0,0,1548,1444,1137,1439,1934,1094,1514,1094,1514,1514,1514,1514,1514,1514,1514,1514,1998,1998,18,0,0,4
260092208,260092208,45,0,0,0,1575,1444,1137,1499,1934,1094,1514,1094,1514,1514,1514,1514,1514,1514,1514,1514,1998,1998,18,0,0,4
260592227,260592227,45,0,0,0,1582,1444,1137,1538,1934,1094,1514,1094,1514,1514,1514,1514,1514,1514,1514,1514,1998,1998,18,0,0,4
261088140,261088140,45,0,0,0,1581,1444,1137,1538,1934,1094,1514,1094,1514,1514,1514,1514,1514,1514,1514,1514,1998,1998,18,0,0,4
261598883,261598883,45,0,0,0,1572,1444,1145,1538,1934,1094,1514,1094,1514,1514,1514,1514,1514,1514,1514,1514,1998,1998,18,0,0,4
263101288,263101288,45,0,0,0,1523,1444,1191,1476,1934,1094,1514,1094,1514,1514,1514,1514,1514,1514,1514,1514,1998,1998,18,0,0,4
263592613,263592613,45,0,0,0,1535,1442,1188,1446,1934,1094,1514,1094,1514,1514,1514,1514,1514,1514,1514,1514,1998,1998,18,0,0,4
264102687,264102687,45,0,0,0,1539,1442,1193,1351,1934,1094,1514,1094,1514,1514,1514,1514,1514,1514,1514,1514,1998,1998,18,0,0,4
264588272,264588272,45,0,0,0,1553,1444,1192,1357,1934,1094,1514,1094,1514,1514,1514,1514,1514,1514,1514,1514,1998,1998,18,0,0,4
265080238,265080238,45,0,0,0,1553,1444,1191,1349,1934,1094,1514,1094,1514,1514,1514,1514,1514,1514,1514,1514,1998,1998,18,0,0,4
265602297,265602297,45,0,0,0,1561,1444,1190,1344,1934,1094,1514,1094,1514,1514,1514,1514,1514,1514,1514,1514,1998,1998,18,0,0,4
266092268,266092268,45,0,0,0,1573,1444,1190,1356,1934,1094,1514,1094,1514,1514,1514,1514,1514,1514,1514,1514,1998,1998,18,0,0,4
266592471,266592471,45,0,0,0,1584,1444,1191,1421,1934,1094,1514,1094,1514,1514,1514,1514,1514,1514,1514,1514,1998,1998,18,0,0,4
267102269,267102269,45,0,0,0,1558,1444,1191,1395,1934,1094,1514,1094,1514,1514,1514,1514,1514,1514,1514,1514,1998,1998,18,0,0,4
268108219,268108219,45,0,0,0,1567,1444,1190,1482,1934,1094,1514,1094,1514,1514,1514,1514,1514,1514,1514,1514,1998,1998,18,0,0,4
268588608,268588608,45,0,0,0,1564,1444,1190,1539,1934,1094,1514,1094,1514,1514,1514,1514,1514,1514,1514,1514,1998,1998,18,0,0,4
269108171,269108171,45,0,0,0,1568,1444,1190,1539,1934,1094,1514,1094,1514,1514,1514,1514,1514,1514,1514,1514,1998,1998,18,0,0,4
269599954,269599954,45,0,0,0,1514,1444,1190,1539,1934,1094,1514,1094,1514,1514,1514,1514,1514,1514,1514,1514,1998,1998,18,0,0,4
270108155,270108155,45,0,0,0,1514,1444,1190,1594,1934,1094,1514,1094,1514,1514,1514,1514,1514,1514,1514,1514,1998,1998,18,0,0,4
270602321,270602321,45,0,0,0,1514,1444,1190,1578,1934,1094,1514,1094,1514,1514,1514,1514,1514,1514,1514,1514,1998,1998,18,0,0,4
271108129,271108129,45,0,0,0,1514,1444,1190,1538,1934,1094,1514,1094,1514,1514,1514,1514,1514,1514,1514,1514,1998,1998,18,0,0,4
271587992,271587992,45,0,0,0,1515,1389,1190,1538,1934,1094,1514,1094,1514,1514,1514,1514,1514,1514,1514,1514,1998,1998,18,0,0,4
272102318,272102318,45,0,0,0,1514,1438,1190,1538,1934,1094,1514,1094,1514,1514,1514,1514,1514,1514,1514,1514,1998,1998,18,0,0,4
272592208,272592208,45,0,0,0,1514,1613,1190,1538,1934,1094,1514,1094,1514,1514,1514,1514,1514,1514,1514,1514,1998,1998,18,0,0,4
274102446,274102446,45,0,0,0,1517,1617,1190,1538,1934,1094,1514,1094,1514,1514,1514,1514,1514,1514,1514,1514,1998,1998,18,0,0,4
274608661,274608661,45,0,0,0,1525,1289,1190,1538,1934,1094,1514,1094,1514,1514,1514,1514,1514,1514,1514,1514,1998,1998,18,0,0,4
275102388,275102388,45,0,0,0,1522,1458,1190,1539,1934,1094,1514,1094,1514,1514,1514,1514,1514,1514,1514,1514,1998,1998,18,0,0,4
275602373,275602373,45,0,0,0,1532,1445,1190,1538,1934,1094,1514,1094,1514,1514,1514,1514,1514,1514,1514,1514,1998,1998,18,0,0,4
276100127,276100127,45,0,0,0,1534,1444,1190,1537,1934,1094,1514,1094,1514,1514,1514,1514,1514,1514,1514,1514,1998,1998,18,0,0,4
276588155,276588155,45,0,0,0,1514,1444,1191,1466,1934,1094,1514,1094,1514,1514,1514,1514,1514,1514,1514,1514,1998,1998,18,0,0,4
277102454,277102454,45,0,0,0,1514,1444,1174,1690,1934,1094,1514,1094,1514,1514,1514,1514,1514,1514,1514,1514,1998,1998,18,0,0,4
277592549,277592549,45,0,0,0,1514,1444,1162,1400,1934,1094,1514,1094,1514,1514,1514,1514,1514,1514,1514,1514,1998,1998,18,0,0,4
278099770,278099770,45,0,0,0,1514,1444,1145,1403,1934,1094,1514,1094,1514,1514,1514,1514,1514,1514,1514,1514,1998,1998,18,0,0,4
278602397,278602397,45,0,0,0,1514,1444,1120,1697,1934,1094,1514,1094,1514,1514,1514,1514,1514,1514,1514,1514,1998,1998,18,0,0,4
279098230,279098230,45,0,0,0,1514,1444,1119,1685,1934,1094,1514,1094,1514,1514,1514,1514,1514,1514,1514,1514,1998,1998,18,0,0,4
279598506,279598506,45,0,0,0,1514,1444,1115,1398,1934,1094,1514,1094,1514,1514,1514,1514,1514,1514,1514,1514,1998,1998,18,0,0,4
280088782,280088782,45,0,0,0,1514,1444,1098,1591,1934,1094,1514,1094,1514,1514,1514,1514,1514,1514,1514,1514,1998,1998,18,0,0,4
280599740,280599740,45,0,0,0,1514,1444,1120,1763,1934,1094,1514,1094,1514,1514,1514,1514,1514,1514,1514,1514,1998,1998,18,0,0,4
281099966,281099966,45,0,0,0,1514,1444,1103,1767,1934,1094,1514,1094,1514,1514,1514,1514,1514,1514,1514,1514,1998,1998,18,0,0,4
281608025,281608025,45,0,0,0,1514,1444,1094,1411,1934,1094,1514,1094,1514,1514,1514,1514,1514,1514,1514,1514,1998,1998,18,0,0,4
282108166,282108166,45,0,0,0,1540,1444,1094,1410,1934,1094,1514,1094,1514,1514,1514,1514,1514,1514,1514,1514,1998,1998,18,0,0,4
282608214,282608214,45,0,0,0,1539,1444,1094,1424,1934,1094,1514,1094,1514,1514,1514,1514,1514,1514,1514,1514,1998,1998,18,0,0,4
283102143,283102143,45,0,0,0,1514,1444,1094,1352,1934,1094,1514,1094,1514,1514,1514,1514,1514,1514,1514,1514,1998,1998,18,0,0,4
283592394,283592394,45,0,0,0,1531,1444,1094,1374,1934,1094,1514,1094,1514,1514,1514,1514,1514,1514,1514,1514,1998,1998,18,0,0,4
284108040,284108040,45,0,0,0,1547,1444,1094,1538,1934,1094,1514,1094,1514,1514,1514,1514,1514,1514,1514,1514,1998,1998,18,0,0,4
284592408,284592408,45,0,0,0,1517,1444,1094,1538,1934,1094,1514,1094,1514,1514,1514,1514,1514,1514,1514,1514,1998,1998,18,0,0,4
285088755,285088755,45,0,0,0,1522,1444,1094,1538,1934,1094,1514,1094,1514,1514,1514,1514,1514,1514,1514,1514,1998,1998,18,0,0,4
285599813,285599813,45,0,0,0,1537,1445,1094,1538,1934,1094,1514,1094,1514,1514,1514,1514,1514,1514,1514,1514,1998,1998,18,0,0,4
286102394,286102394,45,0,0,0,1535,1444,1155,1538,1934,1094,1514,1094,1514,1514,1514,1514,1514,1514,1514,1514,1998,1998,18,0,0,4
286599020,286599020,45,0,0,0,1536,1444,1155,1538,1934,1094,1514,1094,1514,1514,1514,1514,1514,1514,1514,1514,1998,1998,18,0,0,4
287102343,287102343,45,0,0,0,1537,1445,1155,1538,1934,1094,1514,1094,1514,1514,1514,1514,1514,1514,1514,1514,1998,1998,18,0,0,4
287592319,287592319,45,0,0,0,1529,1444,1155,1538,1934,1094,1514,1094,1514,1514,1514,1514,1514,1514,1514,1514,1998,1998,18,0,0,4
288092481,288092481,45,0,0,0,1527,1447,1133,1503,1934,1094,1514,1094,1514,1514,1514,1514,1514,1514,1514,1514,1998,1998,18,0,0,4
288592414,288592414,45,0,0,0,1514,1445,1120,1500,1934,1094,1514,1094,1514,1514,1514,1514,1514,1514,1514,1514,1998,1998,18,0,0,4
289099965,289099965,45,0,0,0,1515,1444,1202,1526,1934,1094,1514,1094,1514,1514,1514,1514,1514,1514,1514,1514,1998,1998,18,0,0,4
289588710,289588710,45,0,0,0,1514,1444,1230,1467,1934,1094,1514,1094,1514,1514,1514,1514,1514,1514,1514,1514,1998,1998,18,0,0,4
290108166,290108166,45,0,0,0,1515,1444,1257,1379,1934,1094,1514,1094,1514,1514,1514,1514,1514,1514,1514,1514,1998,1998,18,0,0,4
290592415,290592415,45,0,0,0,1530,1444,1257,1370,1934,1094,1514,1094,1514,1514,1514,1514,1514,1514,1514,1514,1998,1998,18,0,0,4
291092309,291092309,45,0,0,0,1538,1443,1257,1538,1934,1094,1514,1094,1514,1514,1514,1514,1514,1514,1514,1514,1998,1998,18,0,0,4
291608249,291608249,45,0,0,0,1530,1444,1257,1538,1934,1094,1514,1094,1514,1514,1514,1514,1514,1514,1514,1514,1998,1998,18,0,0,4
293592453,293592453,45,0,0,0,1537,1445,1258,1482,1934,1094,1514,1094,1514,1514,1514,1514,1514,1514,1514,1514,1998,1998,18,0,0,4
294098738,294098738,45,0,0,0,1514,1445,1258,1441,1934,1094,1514,1094,1514,1514,1514,1514,1514,1514,1514,1514,1998,1998,18,0,0,4
294588147,294588147,45,0,0,0,1527,1445,1258,1423,1934,1094,1514,1094,1514,1514,1514,1514,1514,1514,1514,1514,1998,1998,18,0,0,4
295108152,295108152,45,0,0,0,1535,1444,1258,1466,1934,1094,1514,1094,1514,1514,1514,1514,1514,1514,1514,1514,1998,1998,18,0,0,4
295608209,295608209,45,0,0,0,1525,1444,1258,1459,1934,1094,1514,1094,1514,1514,1514,1514,1514,1514,1514,1514,1998,1998,18,0,0,4
296092606,296092606,45,0,0,0,1545,1445,1258,1434,1934,1094,1514,1094,1514,1514,1514,1514,1514,1514,1514,1514,1998,1998,18,0,0,4
296609021,296609021,45,0,0,0,1549,1445,1258,1538,1934,1094,1514,1094,1514,1514,1514,1514,1514,1514,1514,1514,1998,1998,18,0,0,4
297098768,297098768,45,0,0,0,1540,1444,1258,1520,1934,1094,1514,1094,1514,1514,1514,1514,1514,1514,1514,1514,1998,1998,18,0,0,4
297602257,297602257,45,0,0,0,1525,1444,1258,1500,1934,1094,1514,1094,1514,1514,1514,1514,1514,1514,1514,1514,1998,1998,18,0,0,4
298108572,298108572,45,0,0,0,1527,1445,1258,1538,1934,1094,1514,1094,1514,1514,1514,1514,1514,1514,1514,1514,1998,1998,18,0,0,4
298592409,298592409,45,0,0,0,1518,1445,1258,1538,1934,1094,1514,1094,1514,1514,1514,1514,1514,1514,1514,1514,1998,1998,18,0,0,4
299099029,299099029,45,0,0,0,1523,1445,1197,1539,1934,1094,1514,1094,1514,1514,1514,1514,1514,1514,1514,1514,1998,1998,18,0,0,4
299602209,299602209,45,0,0,0,1525,1445,1191,1539,1934,1094,1514,1094,1514,1514,1514,1514,1514,1514,1514,1514,1998,1998,18,0,0,4
300102363,300102363,45,0,0,0,1527,1445,1191,1539,1934,1094,1514,1094,1514,1514,1514,1514,1514,1514,1514,1514,1998,1998,18,0,0,4
300592407,300592407,45,0,0,0,1543,1445,1191,1400,1934,1094,1514,1094,1514,1514,1514,1514,1514,1514,1514,1514,1998,1998,18,0,0,4
301099962,301099962,45,0,0,0,1532,1444,1191,1538,1934,1094,1514,1094,1514,1514,1514,1514,1514,1514,1514,1514,1998,1998,18,0,0,4
301588809,301588809,45,0,0,0,1514,1445,1187,1684,1934,1094,1514,1094,1514,1514,1514,1514,1514,1514,1514,1514,1998,1998,18,0,0,4
303600235,303600235,45,0,0,0,1517,1445,1118,1705,1934,1094,1514,1094,1514,1514,1514,1514,1514,1514,1514,1514,1998,1998,18,0,0,4
304092332,304092332,45,0,0,0,1549,1447,1119,1497,1934,1094,1514,1094,1514,1514,1514,1514,1514,1514,1514,1514,1998,1998,18,0,0,4
304592176,304592176,45,0,0,0,1535,1445,1118,1376,1934,1094,1514,1094,1514,1514,1514,1514,1514,1514,1514,1514,1998,1998,18,0,0,4
305092423,305092423,45,0,0,0,1532,1445,1118,1600,1934,1094,1514,1094,1514,1514,1514,1514,1514,1514,1514,1514,1998,1998,18,0,0,4
305592497,305592497,45,0,0,0,1520,1445,1120,1697,1934,1094,1514,1094,1514,1514,1514,1514,1514,1514,1514,1514,1998,1998,18,0,0,4
306102428,306102428,45,0,0,0,1525,1445,1094,1495,1934,1094,1514,1094,1514,1514,1514,1514,1514,1514,1514,1514,1998,1998,18,0,0,4
306592481,306592481,45,0,0,0,1532,1447,1094,1405,1934,1094,1514,1094,1514,1514,1514,1514,1514,1514,1514,1514,1998,1998,18,0,0,4
307102551,307102551,45,0,0,0,1542,1445,1100,1721,1934,1094,1514,1094,1514,1514,1514,1514,1514,1514,1514,1514,1998,1998,18,0,0,4
307608151,307608151,45,0,0,0,1529,1444,1115,1745,1934,1094,1514,1094,1514,1514,1514,1514,1514,1514,1514,1514,1998,1998,18,0,0,4
309592216,309592216,45,0,0,0,1660,1462,1094,1538,1934,1094,1514,1094,1514,1514,1514,1514,1514,1514,1514,1514,1998,1998,18,0,0,4
310108290,310108290,45,0,0,0,1486,1447,1094,1538,1934,1094,1514,1094,1514,1514,1514,1514,1514,1514,1514,1514,1998,1998,18,0,0,4
310608096,310608096,45,0,0,0,1298,1470,1094,1538,1934,1094,1514,1094,1514,1514,1514,1514,1514,1514,1514,1514,1998,1998,18,0,0,4
311078730,311078730,45,0,0,0,1598,1444,1094,1538,1934,1094,1514,1094,1514,1514,1514,1514,1514,1514,1514,1514,1998,1998,18,0,0,4
311592471,311592471,45,0,0,0,1658,1445,1094,1538,1934,1094,1514,1094,1514,1514,1514,1514,1514,1514,1514,1514,1998,1998,18,0,0,4
312108226,312108226,45,0,0,0,1495,1445,1094,1538,1934,1094,1514,1094,1514,1514,1514,1514,1514,1514,1514,1514,1998,1998,18,0,0,4
312608165,312608165,45,0,0,0,1405,1469,1094,1538,1934,1094,1514,1094,1514,1514,1514,1514,1514,1514,1514,1514,1998,1998,18,0,0,4
313098173,313098173,45,0,0,0,1561,1444,1094,1430,1934,1094,1514,1094,1514,1514,1514,1514,1514,1514,1514,1514,1998,1998,18,0,0,4
313608155,313608155,45,0,0,0,1547,1444,1094,1396,1934,1094,1514,1094,1514,1514,1514,1514,1514,1514,1514,1514,1998,1998,18,0,0,4
314102398,314102398,45,0,0,0,1548,1441,1094,1366,1934,1094,1514,1094,1514,1514,1514,1514,1514,1514,1514,1514,1998,1998,18,0,0,4
314602222,314602222,45,0,0,0,1545,1426,1094,1346,1934,1094,1514,1094,1514,1514,1514,1514,1514,1514,1514,1514,1998,1998,18,0,0,4
315108387,315108387,45,0,0,0,1561,1421,1094,1346,1934,1094,1514,1094,1514,1514,1514,1514,1514,1514,1514,1514,1998,1998,18,0,0,4
315592286,315592286,45,0,0,0,1595,1444,1094,1438,1934,1094,1514,1094,1514,1514,1514,1514,1514,1514,1514,1514,1998,1998,18,0,0,4
316102297,316102297,45,0,0,0,1585,1441,1094,1538,1934,1094,1514,1094,1514,1514,1514,1514,1514,1514,1514,1514,1998,1998,18,0,0,4
316588528,316588528,45,0,0,0,1548,1411,1094,1476,1934,1094,1514,1094,1514,1514,1514,1514,1514,1514,1514,1514,1998,1998,18,0,0,4
317108219,317108219,45,0,0,0,1570,1390,1094,1462,1934,1094,1514,1094,1514,1514,1514,1514,1514,1514,1514,1514,1998,1998,18,0,0,4
317608252,317608252,45,0,0,0,1570,1412,1094,1539,1934,1094,1514,1094,1514,1514,1514,1514,1514,1514,1514,1514,1998,1998,18,0,0,4
318108035,318108035,45,0,0,0,1563,1444,1094,1539,1934,1094,1514,1094,1514,1514,1514,1514,1514,1514,1514,1514,1998,1998,18,0,0,4
318600028,318600028,45,0,0,0,1532,1441,1094,1539,1934,1094,1514,1094,1514,1514,1514,1514,1514,1514,1514,1514,1998,1998,18,0,0,4
319088533,319088533,45,0,0,0,1526,1445,1934,1509,1934,1094,1514,1094,1514,1514,1514,1514,1514,1514,1514,1514,1998,1998,18,0,0,4
319592275,319592275,45,0,0,0,1525,1445,1934,1538,1934,1094,1514,1094,1514,1514,1514,1514,1514,1514,1514,1514,1998,1998,18,0,0,4
320088632,320088632,45,0,0,0,1515,1445,1934,1538,1934,1094,1514,1094,1514,1514,1514,1514,1514,1514,1514,1514,1998,1998,18,0,0,4
320598781,320598781,45,0,0,0,1514,1445,1934,1538,1934,1094,1514,1094,1514,1514,1514,1514,1514,1514,1514,1514,1998,1998,18,0,0,4
321092197,321092197,45,0,0,0,1530,1444,1934,1361,1934,1094,1514,1094,1514,1514,1514,1514,1514,1514,1514,1514,1998,1998,18,0,0,4
321608190,321608190,45,0,0,0,1551,1444,1934,1357,1934,1094,1514,1094,1514,1514,1514,1514,1514,1514,1514,1514,1998,1998,18,0,0,4
322098340,322098340,45,0,0,0,1539,1444,1934,1472,1934,1094,1514,1094,1514,1514,1514,1514,1514,1514,1514,1514,1998,1998,18,0,0,4
322602515,322602515,45,0,0,0,1537,1444,1934,1538,1934,1094,1514,1094,1514,1514,1514,1514,1514,1514,1514,1514,1998,1998,18,0,0,4
323108202,323108202,45,0,0,0,1530,1444,1934,1538,1934,1094,1514,1094,1514,1514,1514,1514,1514,1514,1514,1514,1998,1998,18,0,0,4
323598538,323598538,45,0,0,0,1525,1444,1934,1538,1934,1094,1514,1094,1514,1514,1514,1514,1514,1514,1514,1514,1998,1998,18,0,0,4
324102467,324102467,45,0,0,0,1516,1444,1934,1538,1934,1094,1514,1094,1514,1514,1514,1514,1514,1514,1514,1514,1998,1998,18,0,0,4
324602125,324602125,45,0,0,0,1514,1444,1934,1646,1934,1094,1514,1094,1514,1514,1514,1514,1514,1514,1514,1514,1998,1998,18,0,0,4
327108573,327108573,45,0,0,0,1518,1444,1934,1465,1934,1094,1514,1094,1514,1514,1514,1514,1514,1514,1514,1514,1998,1998,18,0,0,4
327598995,327598995,45,0,0,0,1520,1445,1934,1457,1934,1094,1514,1094,1514,1514,1514,1514,1514,1514,1514,1514,1998,1998,18,0,0,4
328108237,328108237,45,0,0,0,1517,1444,1934,1473,1934,1094,1514,1094,1514,1514,1514,1514,1514,1514,1514,1514,1998,1998,18,0,0,4
328602461,328602461,45,0,0,0,1514,1444,1934,1538,1934,1094,1514,1094,1514,1514,1514,1514,1514,1514,1514,1514,1998,1998,18,0,0,4
329098320,329098320,45,0,0,0,1517,1445,1934,1538,1934,1094,1514,1094,1514,1514,1514,1514,1514,1514,1514,1514,1998,1998,18,0,0,4
329602140,329602140,45,0,0,0,1523,1445,1934,1537,1934,1094,1514,1094,1514,1514,1514,1514,1514,1514,1514,1514,1998,1998,18,0,0,4
330108152,330108152,45,0,0,0,1527,1451,1934,1457,1934,1094,1514,1094,1514,1514,1514,1514,1514,1514,1514,1514,1998,1998,18,0,0,4
330592300,330592300,45,0,0,0,1518,1445,1934,1425,1934,1094,1514,1094,1514,1514,1514,1514,1514,1514,1514,1514,1998,1998,18,0,0,4
331088430,331088430,45,0,0,0,1521,1445,1934,1428,1934,1094,1514,1094,1514,1514,1514,1514,1514,1514,1514,1514,1998,1998,18,0,0,4
331588046,331588046,45,0,0,0,1523,1444,1934,1424,1934,1094,1514,1094,1514,1514,1514,1514,1514,1514,1514,1514,1998,1998,18,0,0,4
332098617,332098617,45,0,0,0,1548,1444,1934,1412,1934,1094,1514,1094,1514,1514,1514,1514,1514,1514,1514,1514,1998,1998,18,0,0,4
332588809,332588809,45,0,0,0,1572,1444,1934,1458,1934,1094,1514,1094,1514,1514,1514,1514,1514,1514,1514,1514,1998,1998,18,0,0,4
333098575,333098575,45,0,0,0,1570,1444,1934,1538,1934,1094,1514,1094,1514,1514,1514,1514,1514,1514,1514,1514,1998,1998,18,0,0,4
333608219,333608219,45,0,0,0,1563,1444,1934,1538,1934,1094,1514,1094,1514,1514,1514,1514,1514,1514,1514,1514,1998,1998,18,0,0,4
334098615,334098615,45,0,0,0,1562,1444,1934,1538,1934,1094,1514,1094,1514,1514,1514,1514,1514,1514,1514,1514,1998,1998,18,0,0,4
334588207,334588207,45,0,0,0,1554,1444,1934,1538,1934,1094,1514,1094,1514,1514,1514,1514,1514,1514,1514,1514,1998,1998,18,0,0,4
335102420,335102420,45,0,0,0,1542,1444,1934,1598,1934,1094,1514,1094,1514,1514,1514,1514,1514,1514,1514,1514,1998,1998,18,0,0,4
335602197,335602197,45,0,0,0,1531,1444,1934,1572,1934,1094,1514,1094,1514,1514,1514,1514,1514,1514,1514,1514,1998,1998,18,0,0,4
336102225,336102225,45,0,0,0,1526,1444,1934,1538,1934,1094,1514,1094,1514,1514,1514,1514,1514,1514,1514,1514,1998,1998,18,0,0,4
336597369,336597369,45,0,0,0,1515,1444,1934,1538,1934,1094,1514,1094,1514,1514,1514,1514,1514,1514,1514,1514,1998,1998,18,0,0,4
337102236,337102236,45,0,0,0,1524,1444,1934,1602,1934,1094,1514,1094,1514,1514,1514,1514,1514,1514,1514,1514,1998,1998,18,0,0,4
337588161,337588161,45,0,0,0,1526,1444,1934,1539,1934,1094,1514,1094,1514,1514,1514,1514,1514,1514,1514,1514,1998,1998,18,0,0,4
338098715,338098715,45,0,0,0,1523,1444,1934,1539,1934,1094,1514,1094,1514,1514,1514,1514,1514,1514,1514,1514,1998,1998,18,0,0,4
338598687,338598687,45,0,0,0,1519,1444,1934,1460,1934,1094,1514,1094,1514,1514,1514,1514,1514,1514,1514,1514,1998,1998,18,0,0,4
339098585,339098585,45,0,0,0,1520,1444,1934,1502,1934,1094,1514,1094,1514,1514,1514,1514,1514,1514,1514,1514,1998,1998,18,0,0,4
339592316,339592316,45,0,0,0,1524,1445,1934,1538,1934,1094,1514,1094,1514,1514,1514,1514,1514,1514,1514,1514,1998,1998,18,0,0,4
340108794,340108794,45,0,0,0,1522,1445,1934,1635,1934,1094,1514,1094,1514,1514,1514,1514,1514,1514,1514,1514,1998,1998,18,0,0,4
340592394,340592394,45,0,0,0,1518,1446,1934,1647,1934,1094,1514,1094,1514,1514,1514,1514,1514,1514,1514,1514,1998,1998,18,0,0,4
341108007,341108007,45,0,0,0,1514,1444,1934,1531,1934,1094,1514,1094,1514,1514,1514,1514,1514,1514,1514,1514,1998,1998,18,0,0,4
341598328,341598328,45,0,0,0,1514,1444,1934,1663,1934,1094,1514,1094,1514,1514,1514,1514,1514,1514,1514,1514,1998,1998,18,0,0,4
342102328,342102328,45,0,0,0,1542,1444,1934,1577,1934,1094,1514,1094,1514,1514,1514,1514,1514,1514,1514,1514,1998,1998,18,0,0,4
342598809,342598809,45,0,0,0,1536,1444,1934,1538,1934,1094,1514,1094,1514,1514,1514,1514,1514,1514,1514,1514,1998,1998,18,0,0,4
343102294,343102294,45,0,0,0,1537,1444,1934,1486,1934,1094,1514,1094,1514,1514,1514,1514,1514,1514,1514,1514,1998,1998,18,0,0,4
343598407,343598407,45,0,0,0,1518,1444,1934,1538,1934,1094,1514,1094,1514,1514,1514,1514,1514,1514,1514,1514,1998,1998,18,0,0,4
344092238,344092238,45,0,0,0,1514,1444,1934,1538,1934,1094,1514,1094,1514,1514,1514,1514,1514,1514,1514,1514,1998,1998,18,0,0,4
344592249,344592249,45,0,0,0,1528,1444,1934,1537,1934,1094,1514,1094,1514,1514,1514,1514,1514,1514,1514,1514,1998,1998,18,0,0,4
345102398,345102398,45,0,0,0,1517,1445,1934,1538,1934,1094,1514,1094,1514,1514,1514,1514,1514,1514,1514,1514,1998,1998,18,0,0,4
345598706,345598706,45,0,0,0,1528,1445,1934,1523,1934,1094,1514,1094,1514,1514,1514,1514,1514,1514,1514,1514,1998,1998,18,0,0,4
346602445,346602445,45,0,0,0,1530,1445,1934,1600,1934,1094,1514,1094,1514,1514,1514,1514,1514,1514,1514,1514,1998,1998,18,0,0,4
347108200,347108200,45,0,0,0,1517,1445,1934,1539,1934,1094,1514,1094,1514,1514,1514,1514,1514,1514,1514,1514,1998,1998,18,0,0,4
347592122,347592122,45,0,0,0,1525,1445,1934,1589,1934,1094,1514,1094,1514,1514,1514,1514,1514,1514,1514,1514,1998,1998,18,0,0,4
348088246,348088246,45,0,0,0,1531,1445,1934,1539,1934,1094,1514,1094,1514,1514,1514,1514,1514,1514,1514,1514,1998,1998,18,0,0,4
348588176,348588176,45,0,0,0,1536,1445,1934,1539,1934,1094,1514,1094,1514,1514,1514,1514,1514,1514,1514,1514,1998,1998,18,0,0,4
349108642,349108642,45,0,0,0,1523,1447,1934,1632,1934,1094,1514,1094,1514,1514,1514,1514,1514,1514,1514,1514,1998,1998,18,0,0,4
349592331,349592331,45,0,0,0,1525,1445,1934,1575,1934,1094,1514,1094,1514,1514,1514,1514,1514,1514,1514,1514,1998,1998,18,0,0,4
350108212,350108212,45,0,0,0,1558,1445,1934,1547,1934,1094,1514,1094,1514,1514,1514,1514,1514,1514,1514,1514,1998,1998,18,0,0,4
351108025,351108025,45,0,0,0,1548,1445,1934,1403,1934,1094,1514,1094,1514,1514,1514,1514,1514,1514,1514,1514,1998,1998,18,0,0,4
351598685,351598685,45,0,0,0,1552,1445,1934,1538,1934,1094,1514,1094,1514,1514,1514,1514,1514,1514,1514,1514,1998,1998,18,0,0,4
352098292,352098292,45,0,0,0,1514,1447,1934,1538,1934,1094,1514,1094,1514,1514,1514,1514,1514,1514,1514,1514,1998,1998,18,0,0,4
352588689,352588689,45,0,0,0,1542,1445,1934,1618,1934,1094,1514,1094,1514,1514,1514,1514,1514,1514,1514,1514,1998,1998,18,0,0,4
353598497,353598497,45,0,0,0,1557,1445,1934,1669,1934,1094,1514,1094,1514,1514,1514,1514,1514,1514,1514,1514,1998,1998,18,0,0,4
354102398,354102398,45,0,0,0,1565,1445,1934,1799,1934,1094,1514,1094,1514,1514,1514,1514,1514,1514,1514,1514,1998,1998,18,0,0,4
354592158,354592158,45,0,0,0,1602,1445,1931,1539,1934,1094,1514,1094,1514,1514,1514,1514,1514,1514,1514,1514,1998,1998,18,0,0,4
355108185,355108185,45,0,0,0,1665,1452,1932,1533,1934,1094,1514,1094,1514,1514,1514,1514,1514,1514,1514,1514,1998,1998,18,0,0,4
356602231,356602231,45,0,0,0,1514,1444,1934,1320,1934,1094,1514,1094,1514,1514,1514,1514,1514,1514,1514,1514,1998,1998,18,0,0,4
357089093,357089093,45,0,0,0,1609,1444,1934,1539,1934,1094,1514,1094,1514,1514,1514,1514,1514,1514,1514,1514,1998,1998,18,0,0,4
357592300,357592300,45,0,0,0,1514,1445,1934,1682,1934,1094,1514,1094,1514,1514,1514,1514,1514,1514,1514,1514,1998,1998,18,0,0,4
358088306,358088306,45,0,0,0,1515,1445,1934,1539,1934,1094,1514,1094,1514,1514,1514,1514,1514,1514,1514,1514,1998,1998,18,0,0,4
358592468,358592468,45,0,0,0,1607,1444,1932,1290,1934,1094,1514,1094,1514,1514,1514,1514,1514,1514,1514,1514,1998,1998,18,0,0,4
359108135,359108135,45,0,0,0,1934,1430,1934,1244,1934,1094,1514,1094,1514,1514,1514,1514,1514,1514,1514,1514,1998,1998,18,0,0,4
359592404,359592404,45,0,0,0,1934,1445,1934,1268,1934,1094,1514,1094,1514,1514,1514,1514,1514,1514,1514,1514,1998,1998,18,0,0,4
360102495,360102495,45,0,0,0,1934,1443,1934,1313,1934,1094,1514,1094,1514,1514,1514,1514,1514,1514,1514,1514,1998,1998,18,0,0,4
360608008,360608008,45,0,0,0,1934,1514,1934,1407,1934,1094,1514,1094,1514,1514,1514,1514,1514,1514,1514,1514,1998,1998,18,0,0,4
361102425,361102425,45,0,0,0,1934,1760,1934,1538,1934,1094,1514,1094,1514,1514,1514,1514,1514,1514,1514,1514,1998,1998,18,0,0,4
361602576,361602576,45,0,0,0,1934,1863,1934,1538,1934,1094,1514,1094,1514,1514,1514,1514,1514,1514,1514,1514,1998,1998,18,0,0,4
362102326,362102326,45,0,0,0,1934,1863,1934,1538,1934,1094,1514,1094,1514,1514,1514,1514,1514,1514,1514,1514,1998,1998,18,0,0,4
362598694,362598694,45,0,0,0,1934,1863,1934,1538,1934,1094,1514,1094,1514,1514,1514,1514,1514,1514,1514,1514,1998,1998,18,0,0,4
364108074,364108074,45,0,0,0,1514,1444,1934,1538,1934,1094,1514,1094,1514,1514,1514,1514,1514,1514,1514,1514,1998,1998,18,0,0,4
364592315,364592315,45,0,0,0,1514,1444,1934,1538,1934,1094,1514,1094,1514,1514,1514,1514,1514,1514,1514,1514,1998,1998,18,0,0,4
365102405,365102405,45,0,0,0,1514,1444,1934,1538,1934,1094,1514,1094,1514,1514,1514,1514,1514,1514,1514,1514,1998,1998,18,0,0,4
