timestamp,timestamp_sample,device_id,error_count,pressure,temperature
129093396,129093385,3997706,0,1010.51996,50.82
130100175,130100164,3997706,0,1010.51996,50.85
131106521,131106510,3997706,0,1010.57996,50.87
132103254,132103240,3997706,0,1010.51996,50.899998
133109525,133109514,3997706,0,1010.52997,50.92
134106218,134106207,3997706,0,1010.54,50.94
135092295,135092284,3997706,0,1010.56,50.969997
136099147,136099136,3997706,0,1010.54,51.0
137105605,137105594,3997706,0,1010.50995,51.02
138111688,138111677,3997706,0,1010.48,51.039997
139108431,139108421,3997706,0,1010.54,51.079998
140104528,140104517,3997706,0,1010.52997,51.1
141111064,141111053,3997706,0,1010.54,51.129997
142097361,142097350,3997706,0,1010.52997,51.16
145106566,145106552,3997706,0,1010.49,51.25
146103313,146103302,3997706,0,1010.58997,51.289997
147109523,147109512,3997706,0,1010.6,51.32
148096265,148096254,3997706,0,1010.51996,51.34
149102516,149102505,3997706,0,1010.50995,51.379997
150109404,150109393,3997706,0,1010.54,51.41
151105741,151105730,3997706,0,1010.56,51.44
152111891,152111880,3997706,0,1010.54,51.469997
153108433,153108422,3997706,0,1010.57,51.51
154094583,154094572,3997706,0,1010.5,51.53
155101561,155101550,3997706,0,1010.54,51.57
156108086,156108075,3997706,0,1010.52997,51.6
157105034,157105023,3997706,0,1010.55,51.64
158101434,158101423,3997706,0,1010.61,51.67
159107983,159107970,3997706,0,1010.54,51.699997
160094044,160094033,3997706,0,1010.54,51.73
161100435,161100424,3997706,0,1010.54,51.76
163103662,163103651,3997706,0,1010.49,51.82
164110474,164110460,3997706,0,1010.57996,51.85
165106667,165106656,3997706,0,1010.56,51.879997
166093307,166093296,3997706,0,1010.49,51.91
167099664,167099653,3997706,0,1010.56,51.94
168105988,168105964,3997706,0,1010.54,51.969997
170108901,170108887,3997706,0,1010.57996,52.039997
171105698,171105687,3997706,0,1010.51996,52.07
172091817,172091806,3997706,0,1010.56,52.09
173098529,173098518,3997706,0,1010.57,52.12
174104749,174104738,3997706,0,1010.6,52.149998
175111045,175111034,3997706,0,1010.55,52.17
177104150,177104137,3997706,0,1010.57,52.239998
178110830,178110819,3997706,0,1010.55,52.26
179097057,179097046,3997706,0,1010.6,52.289997
180103989,180103978,3997706,0,1010.56,52.32
182106469,182106458,3997706,0,1010.55,52.379997
183103148,183103134,3997706,0,1010.5,52.399998
184109530,184109520,3997706,0,1010.6,52.43
185096152,185096141,3997706,0,1010.54,52.449997
186102426,186102414,3997706,0,1010.57996,52.48
187109317,187109306,3997706,0,1010.55,52.51
188105674,188105660,3997706,0,1010.58997,52.539997
189101789,189101778,3997706,0,1010.58997,52.559998
190108545,190108521,3997706,0,1010.57,52.59
191094751,191094740,3997706,0,1010.57,52.61
192101493,192101482,3997706,0,1010.50995,52.64
194104303,194104292,3997706,0,1010.52997,52.69
195111097,195111086,3997706,0,1010.57996,52.71
196107272,196107261,3997706,0,1010.63995,52.739998
197094128,197094117,3997706,0,1010.54,52.77
198100300,198100290,3997706,0,1010.58997,52.789997
199106955,199106937,3997706,0,1010.52997,52.809998
200103554,200103540,3997706,0,1010.64996,52.84
201109699,201109688,3997706,0,1010.64996,52.86
202277155,202277142,3997706,0,1010.50995,52.89
204098492,204098481,3997706,0,1009.74,52.93
205105365,205105354,3997706,0,1009.64996,52.96
206101684,206101666,3997706,0,1009.38,52.98
207108163,207108152,3997706,0,1008.57,53.0
209110492,209110481,3997706,0,1007.47,53.05
210097072,210097061,3997706,0,1006.8,53.07
211103425,211103414,3997706,0,1006.49,53.09
212109617,212109606,3997706,0,1006.19,53.11
213106247,213106236,3997706,0,1005.91,53.129997
214102467,214102456,3997706,0,1005.32996,53.149998
216095376,216095365,3997706,0,1003.74,53.19
217101800,217101789,3997706,0,1003.14996,53.199997
218108447,218108436,3997706,0,1002.66,53.219997
219104625,219104611,3997706,0,1002.19995,53.239998
221107624,221107613,3997706,0,1000.68,53.27
222093887,222093876,3997706,0,1000.02997,53.289997
223100582,223100571,3997706,0,999.56,53.309998
224106818,224106807,3997706,0,999.38995,53.32
226109920,226109909,3997706,0,998.13995,53.35
227106110,227106097,3997706,0,997.47,53.36
228092793,228092775,3997706,0,996.87,53.379997
229099126,229099115,3997706,0,996.26996,53.39
230105779,230105768,3997706,0,995.68,53.41
231102037,231102026,3997706,0,995.24,53.42
234111027,234111016,3997706,0,993.76996,53.469997
235097240,235097229,3997706,0,993.39996,53.469997
237110361,237110350,3997706,0,993.06,53.5
238107111,238107098,3997706,0,993.04,53.51
239103490,239103479,3997706,0,992.93,53.53
240110271,240110260,3997706,0,992.86,53.539997
241096441,241096430,3997706,0,992.73,53.55
242102877,242102866,3997706,0,992.70996,53.559998
243109559,243109548,3997706,0,993.18,53.57
244106026,244106012,3997706,0,993.32,53.579998
245102626,245102615,3997706,0,993.51996,53.6
246108878,246108863,3997706,0,993.58997,53.61
249107988,249107977,3997706,0,995.08997,53.64
250104275,250104259,3997706,0,995.3,53.649998
251110738,251110727,3997706,0,995.54,53.66
252107011,252107000,3997706,0,995.69995,53.67
253093743,253093732,3997706,0,995.72,53.69
254099827,254099816,3997706,0,995.47,53.699997
255106166,255106155,3997706,0,995.6,53.699997
256102990,256102979,3997706,0,995.63995,53.71
257109260,257109249,3997706,0,995.91,53.73
258106141,258106130,3997706,0,996.36,53.739998
259092088,259092077,3997706,0,996.38,53.739998
260098478,260098467,3997706,0,996.19,53.75
261105367,261105356,3997706,0,995.75995,53.76
263107760,263107736,3997706,0,994.77997,53.78
264104446,264104435,3997706,0,994.49,53.789997
265110562,265110551,3997706,0,994.25,53.8
266096645,266096634,3997706,0,994.38995,53.8
267103451,267103441,3997706,0,994.64996,53.809998
268109389,268109379,3997706,0,995.17,53.809998
269106090,269106079,3997706,0,995.69995,53.82
270102242,270102228,3997706,0,996.05,53.829998
271108568,271108557,3997706,0,996.33997,53.829998
272095469,272095458,3997706,0,996.70996,53.84
274107691,274107680,3997706,0,997.44995,53.85
275104443,275104432,3997706,0,997.75995,53.86
276110767,276110756,3997706,0,997.85,53.86
277107561,277107550,3997706,0,997.73,53.87
278093784,278093773,3997706,0,997.45996,53.87
279100130,279100119,3997706,0,997.11,53.87
280106927,280106916,3997706,0,996.93,53.879997
281103152,281103141,3997706,0,996.67,53.89
283106256,283106245,3997706,0,997.1,53.899998
284092339,284092328,3997706,0,997.0,53.91
285098960,285098946,3997706,0,997.04,53.91
286105686,286105675,3997706,0,997.33997,53.91
287102238,287102227,3997706,0,997.62,53.92
288108736,288108722,3997706,0,997.93,53.93
289105471,289105460,3997706,0,997.89996,53.93
290111692,290111681,3997706,0,997.93,53.94
291098130,291098116,3997706,0,997.86,53.93
294107848,294107837,3997706,0,998.04,53.949997
295104120,295104106,3997706,0,998.41,53.949997
296110609,296110598,3997706,0,998.86,53.949997
297097200,297097189,3997706,0,999.3,53.949997
298103632,298103621,3997706,0,999.67,53.949997
299110657,299110646,3997706,0,1000.17,53.96
300106840,300106826,3997706,0,1000.41,53.96
301103486,301103475,3997706,0,1000.91,53.96
304102588,304102577,3997706,0,1001.57,53.969997
305108663,305108652,3997706,0,1001.6,53.98
306104874,306104863,3997706,0,1001.41,53.98
307101676,307101665,3997706,0,1001.57,53.98
310100786,310100775,3997706,0,1000.48,53.989998
311107082,311107071,3997706,0,999.98,53.98
312103926,312103915,3997706,0,999.68,53.989998
313110221,313110210,3997706,0,998.95996,53.989998
314106387,314106373,3997706,0,998.79,54.0
315093016,315093006,3997706,0,998.24,54.0
316099199,316099185,3997706,0,998.04,54.0
317106132,317106121,3997706,0,997.72,54.0
318102340,318102329,3997706,0,997.38,54.0
319108706,319108695,3997706,0,997.3,54.0
320105583,320105572,3997706,0,997.44,54.0
321091873,321091862,3997706,0,997.75995,54.01
322098480,322098469,3997706,0,998.12,54.01
323105021,323105010,3997706,0,998.76996,54.01
324111681,324111670,3997706,0,999.26996,54.01
327110834,327110823,3997706,0,1000.57996,54.01
328096981,328096970,3997706,0,1001.04,54.01
329103459,329103448,3997706,0,1001.47,54.01
330110198,330110187,3997706,0,1001.88995,54.01
331106642,331106631,3997706,0,1002.14996,54.01
332103496,332103485,3997706,0,1002.75,54.01
333109883,333109872,3997706,0,1003.38995,54.02
334096615,334096604,3997706,0,1003.94,54.02
335103125,335103114,3997706,0,1004.31,54.02
336109987,336109976,3997706,0,1004.67,54.02
337106207,337106196,3997706,0,1005.06,54.02
338102656,338102645,3997706,0,1005.44995,54.02
339109546,339109535,3997706,0,1005.82996,54.03
340095727,340095716,3997706,0,1006.06,54.03
341102487,341102467,3997706,0,1006.29,54.03
342108904,342108893,3997706,0,1006.81,54.03
343105125,343105114,3997706,0,1007.18,54.03
344101683,344101672,3997706,0,1007.44995,54.03
345108223,345108212,3997706,0,1007.73,54.03
347101286,347101276,3997706,0,1008.29,54.039997
348107426,348107415,3997706,0,1008.57,54.039997
349104340,349104329,3997706,0,1008.88,54.05
350110684,350110673,3997706,0,1009.22,54.05
351107517,351107506,3997706,0,1009.57996,54.05
352093876,352093865,3997706,0,1009.72,54.05
354106639,354106628,3997706,0,1009.8,54.05
355102897,355102886,3997706,0,1010.18,54.05
357106235,357106224,3997706,0,1010.16,54.05
358092910,358092899,3997706,0,1010.16,54.05
359099170,359099160,3997706,0,1010.43,54.059998
360105587,360105576,3997706,0,1010.47,54.05
361102240,361102229,3997706,0,1010.5,54.059998
362108744,362108733,3997706,0,1010.52997,54.05
364091639,364091628,3997706,0,1010.55,54.059998
365097902,365097891,3997706,0,1010.51996,54.05
