timestamp,voltage_v,voltage_filtered_v,current_a,current_filtered_a,average_current_a,discharged_mah,remaining,scale,temperature,cell_count,voltage_cell_v[0],voltage_cell_v[1],voltage_cell_v[2],voltage_cell_v[3],voltage_cell_v[4],voltage_cell_v[5],voltage_cell_v[6],voltage_cell_v[7],voltage_cell_v[8],voltage_cell_v[9],max_cell_voltage_delta,capacity,cycle_count,run_time_to_empty,average_time_to_empty,serial_number,state_of_health,max_error,connected,source,priority,id,is_powering_off,warning
128405219,24.993599,25.043102,0.0,0.0,0.0,0.0,0.9477013,1.006265,nan,6,4.1738505,4.1738505,4.1738505,4.1738505,4.1738505,4.1738505,0.0,0.0,0.0,0.0,0.0,0,0,0,0,0,0,0,1,0,0,1,0,0
128705237,25.0428,25.036875,0.0,0.0,0.0,0.0,0.9456251,1.0065154,nan,6,4.1728125,4.1728125,4.1728125,4.1728125,4.1728125,4.1728125,0.0,0.0,0.0,0.0,0.0,0,0,0,0,0,0,0,1,0,0,1,0,0
129005238,25.051,25.033,0.0,0.0,0.0,0.0,0.94433385,1.0066711,nan,6,4.172167,4.172167,4.172167,4.172167,4.172167,4.172167,0.0,0.0,0.0,0.0,0.0,0,0,0,0,0,0,0,1,0,0,1,0,0
129305219,25.0264,25.027964,0.0,0.0,0.0,0.0,0.94265443,1.0068737,nan,6,4.171327,4.171327,4.171327,4.171327,4.171327,4.171327,0.0,0.0,0.0,0.0,0.0,0,0,0,0,0,0,0,1,0,0,1,0,0
129605220,25.0592,25.027212,0.0,0.0,0.0,0.0,0.94240457,1.0069039,nan,6,4.171202,4.171202,4.171202,4.171202,4.171202,4.171202,0.0,0.0,0.0,0.0,0.0,0,0,0,0,0,0,0,1,0,0,1,0,0
129905234,25.0346,25.024942,0.0,0.0,0.0,0.0,0.94164735,1.0069953,nan,6,4.1708236,4.1708236,4.1708236,4.1708236,4.1708236,4.1708236,0.0,0.0,0.0,0.0,0.0,0,0,0,0,0,0,0,1,0,0,1,0,0
130205222,25.0264,25.023142,0.0,0.0,0.0,0.0,0.9410475,1.0070677,nan,6,4.1705236,4.1705236,4.1705236,4.1705236,4.1705236,4.1705236,0.0,0.0,0.0,0.0,0.0,0,0,0,0,0,0,0,1,0,0,1,0,0
130505218,24.952599,25.022177,0.0,0.0,0.0,0.0,0.9407261,1.0071065,nan,6,4.170363,4.170363,4.170363,4.170363,4.170363,4.170363,0.0,0.0,0.0,0.0,0.0,0,0,0,0,0,0,0,1,0,0,1,0,0
130805226,25.0592,25.021801,0.0,0.0,0.0,0.0,0.9406002,1.0071218,nan,6,4.1703,4.1703,4.1703,4.1703,4.1703,4.1703,0.0,0.0,0.0,0.0,0.0,0,0,0,0,0,0,0,1,0,0,1,0,0
131105225,25.0182,25.022547,0.0,0.0,0.0,0.0,0.9408491,1.0070916,nan,6,4.1704245,4.1704245,4.1704245,4.1704245,4.1704245,4.1704245,0.0,0.0,0.0,0.0,0.0,0,0,0,0,0,0,0,1,0,0,1,0,0
131405227,25.0428,25.024805,0.0,0.0,0.0,0.0,0.9416016,1.0070008,nan,6,4.1708007,4.1708007,4.1708007,4.1708007,4.1708007,4.1708007,0.0,0.0,0.0,0.0,0.0,0,0,0,0,0,0,0,1,0,0,1,0,0
131705237,25.0428,25.024649,0.0,0.0,0.0,0.0,0.9415501,1.007007,nan,6,4.170775,4.170775,4.170775,4.170775,4.170775,4.170775,0.0,0.0,0.0,0.0,0.0,0,0,0,0,0,0,0,1,0,0,1,0,0
132005218,25.0182,25.028662,0.0,0.0,0.0,0.0,0.9428871,1.0068457,nan,6,4.1714435,4.1714435,4.1714435,4.1714435,4.1714435,4.1714435,0.0,0.0,0.0,0.0,0.0,0,0,0,0,0,0,0,1,0,0,1,0,0
132305237,25.0428,25.028463,0.0,0.0,0.0,0.0,0.9433077,1.0067949,nan,6,4.1714106,4.1714106,4.1714106,4.1714106,4.1714106,4.1714106,0.0,0.0,0.0,0.0,0.0,0,0,0,0,0,0,0,1,0,0,1,0,0
132606752,24.9198,25.026506,0.0,0.0,0.0,0.0,0.95453054,1.0054425,nan,6,4.1710844,4.1710844,4.1710844,4.1710844,4.1710844,4.1710844,0.0,0.0,0.0,0.0,0.0,0,0,0,0,0,0,0,1,0,0,1,0,0
132906516,25.083801,25.028818,0.0,0.0,0.0,0.0,0.97593385,1.0028732,nan,6,4.1714697,4.1714697,4.1714697,4.1714697,4.1714697,4.1714697,0.0,0.0,0.0,0.0,0.0,0,0,0,0,0,0,0,1,0,0,1,0,0
133205271,25.0674,25.02953,0.0,0.0,0.0,0.0,1.0,1.0,nan,6,4.1715884,4.1715884,4.1715884,4.1715884,4.1715884,4.1715884,0.0,0.0,0.0,0.0,0.0,0,0,0,0,0,0,0,1,0,0,1,0,0
133506861,24.944399,25.021042,0.0,0.0,0.0,0.0,1.0,1.0,nan,6,4.1701736,4.1701736,4.1701736,4.1701736,4.1701736,4.1701736,0.0,0.0,0.0,0.0,0.0,0,0,0,0,0,0,0,1,0,0,1,0,0
133806565,24.969,25.009142,0.0,0.0,0.0,0.0,1.0,1.0,nan,6,4.1681905,4.1681905,4.1681905,4.1681905,4.1681905,4.1681905,0.0,0.0,0.0,0.0,0.0,0,0,0,0,0,0,0,1,0,0,1,0,0
134105219,24.9362,24.99954,0.0,0.0,0.0,0.0,1.0,1.0,nan,6,4.16659,4.16659,4.16659,4.16659,4.16659,4.16659,0.0,0.0,0.0,0.0,0.0,0,0,0,0,0,0,0,1,0,0,1,0,0
134705224,24.928,24.972946,0.0,0.0,0.0,0.0,1.0,1.0,nan,6,4.1621575,4.1621575,4.1621575,4.1621575,4.1621575,4.1621575,0.0,0.0,0.0,0.0,0.0,0,0,0,0,0,0,0,1,0,0,1,0,0
135005227,24.952599,24.964348,0.0,0.0,0.0,0.0,1.0,1.0,nan,6,4.1607246,4.1607246,4.1607246,4.1607246,4.1607246,4.1607246,0.0,0.0,0.0,0.0,0.0,0,0,0,0,0,0,0,1,0,0,1,0,0
135305227,24.944399,24.956362,0.0,0.0,0.0,0.0,1.0,1.0,nan,6,4.159394,4.159394,4.159394,4.159394,4.159394,4.159394,0.0,0.0,0.0,0.0,0.0,0,0,0,0,0,0,0,1,0,0,1,0,0
135605218,24.878801,24.948345,0.0,0.0,0.0,0.0,1.0,1.0,nan,6,4.1580577,4.1580577,4.1580577,4.1580577,4.1580577,4.1580577,0.0,0.0,0.0,0.0,0.0,0,0,0,0,0,0,0,1,0,0,1,0,0
136205221,24.7968,24.91557,0.0,0.0,0.0,0.0,1.0,1.0,nan,6,4.152595,4.152595,4.152595,4.152595,4.152595,4.152595,0.0,0.0,0.0,0.0,0.0,0,0,0,0,0,0,0,1,0,0,1,0,0
136505223,24.7558,24.883074,0.0,0.0,0.0,0.0,1.0,1.0,nan,6,4.147179,4.147179,4.147179,4.147179,4.147179,4.147179,0.0,0.0,0.0,0.0,0.0,0,0,0,0,0,0,0,1,0,0,1,0,0
136805219,24.7804,24.85856,0.0,0.0,0.0,0.0,1.0,1.0,nan,6,4.1430936,4.1430936,4.1430936,4.1430936,4.1430936,4.1430936,0.0,0.0,0.0,0.0,0.0,0,0,0,0,0,0,0,1,0,0,1,0,0
137105229,24.739399,24.838493,0.0,0.0,0.0,0.0,1.0,1.0,nan,6,4.139749,4.139749,4.139749,4.139749,4.139749,4.139749,0.0,0.0,0.0,0.0,0.0,0,0,0,0,0,0,0,1,0,0,1,0,0
137405225,24.8542,24.82825,0.0,0.0,0.0,0.0,1.0,1.0,nan,6,4.138042,4.138042,4.138042,4.138042,4.138042,4.138042,0.0,0.0,0.0,0.0,0.0,0,0,0,0,0,0,0,1,0,0,1,0,0
137705219,24.805,24.835903,0.0,0.0,0.0,0.0,1.0,1.0,nan,6,4.139317,4.139317,4.139317,4.139317,4.139317,4.139317,0.0,0.0,0.0,0.0,0.0,0,0,0,0,0,0,0,1,0,0,1,0,0
138005219,24.870598,24.842487,0.0,0.0,0.0,0.0,1.0,1.0,nan,6,4.1404147,4.1404147,4.1404147,4.1404147,4.1404147,4.1404147,0.0,0.0,0.0,0.0,0.0,0,0,0,0,0,0,0,1,0,0,1,0,0
138305221,24.878801,24.851986,0.0,0.0,0.0,0.0,1.0,1.0,nan,6,4.141998,4.141998,4.141998,4.141998,4.141998,4.141998,0.0,0.0,0.0,0.0,0.0,0,0,0,0,0,0,0,1,0,0,1,0,0
138605278,24.7722,24.856186,0.0,0.0,0.0,0.0,1.0,1.0,nan,6,4.142698,4.142698,4.142698,4.142698,4.142698,4.142698,0.0,0.0,0.0,0.0,0.0,0,0,0,0,0,0,0,1,0,0,1,0,0
138905221,24.8542,24.860374,0.0,0.0,0.0,0.0,1.0,1.0,nan,6,4.143396,4.143396,4.143396,4.143396,4.143396,4.143396,0.0,0.0,0.0,0.0,0.0,0,0,0,0,0,0,0,1,0,0,1,0,0
139206507,24.887,24.86089,0.0,0.0,0.0,0.0,1.0,1.0,nan,6,4.1434817,4.1434817,4.1434817,4.1434817,4.1434817,4.1434817,0.0,0.0,0.0,0.0,0.0,0,0,0,0,0,0,0,1,0,0,1,0,0
139506609,24.862398,24.859505,0.0,0.0,0.0,0.0,1.0,1.0,nan,6,4.143251,4.143251,4.143251,4.143251,4.143251,4.143251,0.0,0.0,0.0,0.0,0.0,0,0,0,0,0,0,0,1,0,0,1,0,0
139805224,24.887,24.858515,0.0,0.0,0.0,0.0,1.0,1.0,nan,6,4.143086,4.143086,4.143086,4.143086,4.143086,4.143086,0.0,0.0,0.0,0.0,0.0,0,0,0,0,0,0,0,1,0,0,1,0,0
140105218,24.805,24.85944,0.0,0.0,0.0,0.0,1.0,1.0,nan,6,4.14324,4.14324,4.14324,4.14324,4.14324,4.14324,0.0,0.0,0.0,0.0,0.0,0,0,0,0,0,0,0,1,0,0,1,0,0
140706676,24.837801,24.855362,0.0,0.0,0.0,0.0,1.0,1.0,nan,6,4.1425605,4.1425605,4.1425605,4.1425605,4.1425605,4.1425605,0.0,0.0,0.0,0.0,0.0,0,0,0,0,0,0,0,1,0,0,1,0,0
141005225,24.8542,24.85366,0.0,0.0,0.0,0.0,1.0,1.0,nan,6,4.142277,4.142277,4.142277,4.142277,4.142277,4.142277,0.0,0.0,0.0,0.0,0.0,0,0,0,0,0,0,0,1,0,0,1,0,0
141305221,24.887,24.854755,0.0,0.0,0.0,0.0,1.0,1.0,nan,6,4.1424594,4.1424594,4.1424594,4.1424594,4.1424594,4.1424594,0.0,0.0,0.0,0.0,0.0,0,0,0,0,0,0,0,1,0,0,1,0,0
141605224,24.8132,24.852123,0.0,0.0,0.0,0.0,1.0,1.0,nan,6,4.1420207,4.1420207,4.1420207,4.1420207,4.1420207,4.1420207,0.0,0.0,0.0,0.0,0.0,0,0,0,0,0,0,0,1,0,0,1,0,0
141905220,24.878801,24.848967,0.0,0.0,0.0,0.0,1.0,1.0,nan,6,4.1414943,4.1414943,4.1414943,4.1414943,4.1414943,4.1414943,0.0,0.0,0.0,0.0,0.0,0,0,0,0,0,0,0,1,0,0,1,0,0
142205224,24.8132,24.8476,0.0,0.0,0.0,0.0,1.0,1.0,nan,6,4.141267,4.141267,4.141267,4.141267,4.141267,4.141267,0.0,0.0,0.0,0.0,0.0,0,0,0,0,0,0,0,1,0,0,1,0,0
142505220,24.837801,24.846697,0.0,0.0,0.0,0.0,1.0,1.0,nan,6,4.141116,4.141116,4.141116,4.141116,4.141116,4.141116,0.0,0.0,0.0,0.0,0.0,0,0,0,0,0,0,0,1,0,0,1,0,0
144905231,25.01,24.95829,0.0,0.0,0.0,0.0,0.9670494,1.0039381,nan,6,4.159715,4.159715,4.159715,4.159715,4.159715,4.159715,0.0,0.0,0.0,0.0,0.0,0,0,0,0,0,0,0,1,0,0,1,0,0
145205221,24.944399,24.96847,0.0,0.0,0.0,0.0,0.95815355,1.0050067,nan,6,4.161412,4.161412,4.161412,4.161412,4.161412,4.161412,0.0,0.0,0.0,0.0,0.0,0,0,0,0,0,0,0,1,0,0,1,0,0
145505234,25.0428,24.978449,0.0,0.0,0.0,0.0,0.9523619,1.0057036,nan,6,4.163075,4.163075,4.163075,4.163075,4.163075,4.163075,0.0,0.0,0.0,0.0,0.0,0,0,0,0,0,0,0,1,0,0,1,0,0
145806617,24.9854,24.985048,0.0,0.0,0.0,0.0,0.94779664,1.0062535,nan,6,4.1641746,4.1641746,4.1641746,4.1641746,4.1641746,4.1641746,0.0,0.0,0.0,0.0,0.0,0,0,0,0,0,0,0,1,0,0,1,0,0
146106683,25.051,24.992271,0.0,0.0,0.0,0.0,0.9451855,1.0065684,nan,6,4.1653786,4.1653786,4.1653786,4.1653786,4.1653786,4.1653786,0.0,0.0,0.0,0.0,0.0,0,0,0,0,0,0,0,1,0,0,1,0,0
146406785,25.01,24.994083,0.0,0.0,0.0,0.0,0.942066,1.0069448,nan,6,4.1656804,4.1656804,4.1656804,4.1656804,4.1656804,4.1656804,0.0,0.0,0.0,0.0,0.0,0,0,0,0,0,0,0,1,0,0,1,0,0
146705218,24.944399,24.994219,0.0,0.0,0.0,0.0,0.939349,1.0072728,nan,6,4.1657033,4.1657033,4.1657033,4.1657033,4.1657033,4.1657033,0.0,0.0,0.0,0.0,0.0,0,0,0,0,0,0,0,1,0,0,1,0,0
147006734,24.952599,24.999685,0.0,0.0,0.0,0.0,0.93912107,1.0073004,nan,6,4.166614,4.166614,4.166614,4.166614,4.166614,4.166614,0.0,0.0,0.0,0.0,0.0,0,0,0,0,0,0,0,1,0,0,1,0,0
147305218,25.0018,24.999514,0.0,0.0,0.0,0.0,0.93754274,1.0074911,nan,6,4.1665854,4.1665854,4.1665854,4.1665854,4.1665854,4.1665854,0.0,0.0,0.0,0.0,0.0,0,0,0,0,0,0,0,1,0,0,1,0,0
147605218,25.0182,25.003256,0.0,0.0,0.0,0.0,0.93766195,1.0074767,nan,6,4.167209,4.167209,4.167209,4.167209,4.167209,4.167209,0.0,0.0,0.0,0.0,0.0,0,0,0,0,0,0,0,1,0,0,1,0,0
147906616,25.0264,25.000065,0.0,0.0,0.0,0.0,0.9357613,1.0077064,nan,6,4.1666775,4.1666775,4.1666775,4.1666775,4.1666775,4.1666775,0.0,0.0,0.0,0.0,0.0,0,0,0,0,0,0,0,1,0,0,1,0,0
148205219,24.9608,25.001226,0.0,0.0,0.0,0.0,0.9355276,1.0077347,nan,6,4.166871,4.166871,4.166871,4.166871,4.166871,4.166871,0.0,0.0,0.0,0.0,0.0,0,0,0,0,0,0,0,1,0,0,1,0,0
148506710,25.01,25.002214,0.0,0.0,0.0,0.0,0.935396,1.0077505,nan,6,4.1670356,4.1670356,4.1670356,4.1670356,4.1670356,4.1670356,0.0,0.0,0.0,0.0,0.0,0,0,0,0,0,0,0,1,0,0,1,0,0
148805221,24.993599,25.003262,0.0,0.0,0.0,0.0,0.9354027,1.0077497,nan,6,4.16721,4.16721,4.16721,4.16721,4.16721,4.16721,0.0,0.0,0.0,0.0,0.0,0,0,0,0,0,0,0,1,0,0,1,0,0
149105219,24.9608,25.00484,0.0,0.0,0.0,0.0,0.9356764,1.0077167,nan,6,4.1674733,4.1674733,4.1674733,4.1674733,4.1674733,4.1674733,0.0,0.0,0.0,0.0,0.0,0,0,0,0,0,0,0,1,0,0,1,0,0
149405220,25.0182,25.005985,0.0,0.0,0.0,0.0,0.93586904,1.0076934,nan,6,4.167664,4.167664,4.167664,4.167664,4.167664,4.167664,0.0,0.0,0.0,0.0,0.0,0,0,0,0,0,0,0,1,0,0,1,0,0
149705220,24.9362,25.006855,0.0,0.0,0.0,0.0,0.9360197,1.0076752,nan,6,4.167809,4.167809,4.167809,4.167809,4.167809,4.167809,0.0,0.0,0.0,0.0,0.0,0,0,0,0,0,0,0,1,0,0,1,0,0
150006577,25.0264,25.006426,0.0,0.0,0.0,0.0,0.9357727,1.007705,nan,6,4.1677375,4.1677375,4.1677375,4.1677375,4.1677375,4.1677375,0.0,0.0,0.0,0.0,0.0,0,0,0,0,0,0,0,1,0,0,1,0,0
150305225,25.0264,25.006063,0.0,0.0,0.0,0.0,0.93557626,1.0077287,nan,6,4.1676774,4.1676774,4.1676774,4.1676774,4.1676774,4.1676774,0.0,0.0,0.0,0.0,0.0,0,0,0,0,0,0,0,1,0,0,1,0,0
150605219,25.0018,25.007345,0.0,0.0,0.0,0.0,0.9359463,1.007684,nan,6,4.167891,4.167891,4.167891,4.167891,4.167891,4.167891,0.0,0.0,0.0,0.0,0.0,0,0,0,0,0,0,0,1,0,0,1,0,0
150905220,25.0018,25.008116,0.0,0.0,0.0,0.0,0.93616086,1.0076581,nan,6,4.1680193,4.1680193,4.1680193,4.1680193,4.1680193,4.1680193,0.0,0.0,0.0,0.0,0.0,0,0,0,0,0,0,0,1,0,0,1,0,0
151205221,24.944399,25.007679,0.0,0.0,0.0,0.0,0.9359835,1.0076795,nan,6,4.1679463,4.1679463,4.1679463,4.1679463,4.1679463,4.1679463,0.0,0.0,0.0,0.0,0.0,0,0,0,0,0,0,0,1,0,0,1,0,0
151505221,24.9854,25.009214,0.0,0.0,0.0,0.0,0.93647176,1.0076205,nan,6,4.1682024,4.1682024,4.1682024,4.1682024,4.1682024,4.1682024,0.0,0.0,0.0,0.0,0.0,0,0,0,0,0,0,0,1,0,0,1,0,0
151805251,25.0346,25.011469,0.0,0.0,0.0,0.0,0.9372061,1.0075318,nan,6,4.168578,4.168578,4.168578,4.168578,4.168578,4.168578,0.0,0.0,0.0,0.0,0.0,0,0,0,0,0,0,0,1,0,0,1,0,0
152105233,25.0346,25.013456,0.0,0.0,0.0,0.0,0.9378565,1.0074532,nan,6,4.1689095,4.1689095,4.1689095,4.1689095,4.1689095,4.1689095,0.0,0.0,0.0,0.0,0.0,0,0,0,0,0,0,0,1,0,0,1,0,0
152406611,25.051,25.015371,0.0,0.0,0.0,0.0,0.93848497,1.0073773,nan,6,4.1692286,4.1692286,4.1692286,4.1692286,4.1692286,4.1692286,0.0,0.0,0.0,0.0,0.0,0,0,0,0,0,0,0,1,0,0,1,0,0
152705224,24.952599,25.011726,0.0,0.0,0.0,0.0,0.93726236,1.007525,nan,6,4.168621,4.168621,4.168621,4.168621,4.168621,4.168621,0.0,0.0,0.0,0.0,0.0,0,0,0,0,0,0,0,1,0,0,1,0,0
153005219,25.0018,25.01053,0.0,0.0,0.0,0.0,0.93685895,1.0075737,nan,6,4.1684217,4.1684217,4.1684217,4.1684217,4.1684217,4.1684217,0.0,0.0,0.0,0.0,0.0,0,0,0,0,0,0,0,1,0,0,1,0,0
153305222,25.0182,25.013266,0.0,0.0,0.0,0.0,0.93776685,1.0074639,nan,6,4.1688776,4.1688776,4.1688776,4.1688776,4.1688776,4.1688776,0.0,0.0,0.0,0.0,0.0,0,0,0,0,0,0,0,1,0,0,1,0,0
153606554,25.0182,25.017118,0.0,0.0,0.0,0.0,0.9390486,1.0073091,nan,6,4.16952,4.16952,4.16952,4.16952,4.16952,4.16952,0.0,0.0,0.0,0.0,0.0,0,0,0,0,0,0,0,1,0,0,1,0,0
153905222,25.0182,25.016468,0.0,0.0,0.0,0.0,0.9388283,1.0073358,nan,6,4.169411,4.169411,4.169411,4.169411,4.169411,4.169411,0.0,0.0,0.0,0.0,0.0,0,0,0,0,0,0,0,1,0,0,1,0,0
154205230,24.9772,25.013653,0.0,0.0,0.0,0.0,0.9378889,1.0074493,nan,6,4.168942,4.168942,4.168942,4.168942,4.168942,4.168942,0.0,0.0,0.0,0.0,0.0,0,0,0,0,0,0,0,1,0,0,1,0,0
154505221,25.0346,25.014011,0.0,0.0,0.0,0.0,0.9380081,1.0074348,nan,6,4.169002,4.169002,4.169002,4.169002,4.169002,4.169002,0.0,0.0,0.0,0.0,0.0,0,0,0,0,0,0,0,1,0,0,1,0,0
154805220,25.0182,25.013233,0.0,0.0,0.0,0.0,0.9377478,1.0074663,nan,6,4.1688724,4.1688724,4.1688724,4.1688724,4.1688724,4.1688724,0.0,0.0,0.0,0.0,0.0,0,0,0,0,0,0,0,1,0,0,1,0,0
155105220,25.01,25.014484,0.0,0.0,0.0,0.0,0.9381636,1.007416,nan,6,4.1690807,4.1690807,4.1690807,4.1690807,4.1690807,4.1690807,0.0,0.0,0.0,0.0,0.0,0,0,0,0,0,0,0,1,0,0,1,0,0
155405224,25.01,25.013855,0.0,0.0,0.0,0.0,0.9379528,1.0074415,nan,6,4.168976,4.168976,4.168976,4.168976,4.168976,4.168976,0.0,0.0,0.0,0.0,0.0,0,0,0,0,0,0,0,1,0,0,1,0,0
155705224,24.944399,25.013514,0.0,0.0,0.0,0.0,0.9378393,1.0074552,nan,6,4.168919,4.168919,4.168919,4.168919,4.168919,4.168919,0.0,0.0,0.0,0.0,0.0,0,0,0,0,0,0,0,1,0,0,1,0,0
156005223,25.051,25.01212,0.0,0.0,0.0,0.0,0.93737394,1.0075115,nan,6,4.1686864,4.1686864,4.1686864,4.1686864,4.1686864,4.1686864,0.0,0.0,0.0,0.0,0.0,0,0,0,0,0,0,0,1,0,0,1,0,0
156305234,24.993599,25.010193,0.0,0.0,0.0,0.0,0.9367321,1.007589,nan,6,4.1683655,4.1683655,4.1683655,4.1683655,4.1683655,4.1683655,0.0,0.0,0.0,0.0,0.0,0,0,0,0,0,0,0,1,0,0,1,0,0
156605217,25.100199,25.014431,0.0,0.0,0.0,0.0,0.93814355,1.0074185,nan,6,4.1690717,4.1690717,4.1690717,4.1690717,4.1690717,4.1690717,0.0,0.0,0.0,0.0,0.0,0,0,0,0,0,0,0,1,0,0,1,0,0
156905234,25.0346,25.01497,0.0,0.0,0.0,0.0,0.9383238,1.0073967,nan,6,4.169162,4.169162,4.169162,4.169162,4.169162,4.169162,0.0,0.0,0.0,0.0,0.0,0,0,0,0,0,0,0,1,0,0,1,0,0
157205226,25.01,25.016567,0.0,0.0,0.0,0.0,0.93885595,1.0073324,nan,6,4.169428,4.169428,4.169428,4.169428,4.169428,4.169428,0.0,0.0,0.0,0.0,0.0,0,0,0,0,0,0,0,1,0,0,1,0,0
157505255,25.0264,25.024805,0.0,0.0,0.0,0.0,0.9416016,1.0070008,nan,6,4.1708007,4.1708007,4.1708007,4.1708007,4.1708007,4.1708007,0.0,0.0,0.0,0.0,0.0,0,0,0,0,0,0,0,1,0,0,1,0,0
157806689,25.0346,25.021095,0.0,0.0,0.0,0.0,0.9403656,1.00715,nan,6,4.1701827,4.1701827,4.1701827,4.1701827,4.1701827,4.1701827,0.0,0.0,0.0,0.0,0.0,0,0,0,0,0,0,0,1,0,0,1,0,0
158105224,25.051,25.02249,0.0,0.0,0.0,0.0,0.94083005,1.007094,nan,6,4.170415,4.170415,4.170415,4.170415,4.170415,4.170415,0.0,0.0,0.0,0.0,0.0,0,0,0,0,0,0,0,1,0,0,1,0,0
158406675,25.0018,25.023075,0.0,0.0,0.0,0.0,0.94102556,1.0070704,nan,6,4.1705127,4.1705127,4.1705127,4.1705127,4.1705127,4.1705127,0.0,0.0,0.0,0.0,0.0,0,0,0,0,0,0,0,1,0,0,1,0,0
158706679,25.0674,25.023943,0.0,0.0,0.0,0.0,0.9413145,1.0070355,nan,6,4.170657,4.170657,4.170657,4.170657,4.170657,4.170657,0.0,0.0,0.0,0.0,0.0,0,0,0,0,0,0,0,1,0,0,1,0,0
159005218,25.0428,25.022837,0.0,0.0,0.0,0.0,0.94094545,1.0070801,nan,6,4.1704726,4.1704726,4.1704726,4.1704726,4.1704726,4.1704726,0.0,0.0,0.0,0.0,0.0,0,0,0,0,0,0,0,1,0,0,1,0,0
159305222,24.993599,25.020267,0.0,0.0,0.0,0.0,0.94008905,1.0071834,nan,6,4.1700444,4.1700444,4.1700444,4.1700444,4.1700444,4.1700444,0.0,0.0,0.0,0.0,0.0,0,0,0,0,0,0,0,1,0,0,1,0,0
159605220,25.0346,25.019976,0.0,0.0,0.0,0.0,0.9399918,1.0071952,nan,6,4.169996,4.169996,4.169996,4.169996,4.169996,4.169996,0.0,0.0,0.0,0.0,0.0,0,0,0,0,0,0,0,1,0,0,1,0,0
159906659,25.0182,25.020336,0.0,0.0,0.0,0.0,0.94011194,1.0071807,nan,6,4.170056,4.170056,4.170056,4.170056,4.170056,4.170056,0.0,0.0,0.0,0.0,0.0,0,0,0,0,0,0,0,1,0,0,1,0,0
160205220,25.051,25.020245,0.0,0.0,0.0,0.0,0.9400814,1.0071844,nan,6,4.1700406,4.1700406,4.1700406,4.1700406,4.1700406,4.1700406,0.0,0.0,0.0,0.0,0.0,0,0,0,0,0,0,0,1,0,0,1,0,0
160505226,25.0346,25.018795,0.0,0.0,0.0,0.0,0.93959886,1.0072427,nan,6,4.1697993,4.1697993,4.1697993,4.1697993,4.1697993,4.1697993,0.0,0.0,0.0,0.0,0.0,0,0,0,0,0,0,0,1,0,0,1,0,0
160805221,24.9772,25.016787,0.0,0.0,0.0,0.0,0.9389294,1.0073235,nan,6,4.1694646,4.1694646,4.1694646,4.1694646,4.1694646,4.1694646,0.0,0.0,0.0,0.0,0.0,0,0,0,0,0,0,0,1,0,0,1,0,0
161105219,25.051,25.017437,0.0,0.0,0.0,0.0,0.93914586,1.0072974,nan,6,4.169573,4.169573,4.169573,4.169573,4.169573,4.169573,0.0,0.0,0.0,0.0,0.0,0,0,0,0,0,0,0,1,0,0,1,0,0
161405234,25.01,25.014704,0.0,0.0,0.0,0.0,0.9382351,1.0074074,nan,6,4.1691175,4.1691175,4.1691175,4.1691175,4.1691175,4.1691175,0.0,0.0,0.0,0.0,0.0,0,0,0,0,0,0,0,1,0,0,1,0,0
162605225,25.0428,25.011364,0.0,0.0,0.0,0.0,0.9371212,1.007542,nan,6,4.1685605,4.1685605,4.1685605,4.1685605,4.1685605,4.1685605,0.0,0.0,0.0,0.0,0.0,0,0,0,0,0,0,0,1,0,0,1,0,0
162906511,25.0592,25.01474,0.0,0.0,0.0,0.0,0.93824655,1.007406,nan,6,4.169123,4.169123,4.169123,4.169123,4.169123,4.169123,0.0,0.0,0.0,0.0,0.0,0,0,0,0,0,0,0,1,0,0,1,0,0
163205221,25.0428,25.018425,0.0,0.0,0.0,0.0,0.9394749,1.0072577,nan,6,4.1697373,4.1697373,4.1697373,4.1697373,4.1697373,4.1697373,0.0,0.0,0.0,0.0,0.0,0,0,0,0,0,0,0,1,0,0,1,0,0
163505235,25.01,25.014715,0.0,0.0,0.0,0.0,0.9382389,1.007407,nan,6,4.1691194,4.1691194,4.1691194,4.1691194,4.1691194,4.1691194,0.0,0.0,0.0,0.0,0.0,0,0,0,0,0,0,0,1,0,0,1,0,0
163805217,24.993599,25.012718,0.0,0.0,0.0,0.0,0.93757325,1.0074874,nan,6,4.1687865,4.1687865,4.1687865,4.1687865,4.1687865,4.1687865,0.0,0.0,0.0,0.0,0.0,0,0,0,0,0,0,0,1,0,0,1,0,0
164105223,25.01,25.014673,0.0,0.0,0.0,0.0,0.9382246,1.0074086,nan,6,4.169112,4.169112,4.169112,4.169112,4.169112,4.169112,0.0,0.0,0.0,0.0,0.0,0,0,0,0,0,0,0,1,0,0,1,0,0
164405228,25.0428,25.01351,0.0,0.0,0.0,0.0,0.93783647,1.0074556,nan,6,4.168918,4.168918,4.168918,4.168918,4.168918,4.168918,0.0,0.0,0.0,0.0,0.0,0,0,0,0,0,0,0,1,0,0,1,0,0
164705242,25.0674,25.01743,0.0,0.0,0.0,0.0,0.939143,1.0072978,nan,6,4.1695714,4.1695714,4.1695714,4.1695714,4.1695714,4.1695714,0.0,0.0,0.0,0.0,0.0,0,0,0,0,0,0,0,1,0,0,1,0,0
165006783,25.0674,25.020544,0.0,0.0,0.0,0.0,0.94018155,1.0071723,nan,6,4.1700907,4.1700907,4.1700907,4.1700907,4.1700907,4.1700907,0.0,0.0,0.0,0.0,0.0,0,0,0,0,0,0,0,1,0,0,1,0,0
165305226,25.0182,25.021137,0.0,0.0,0.0,0.0,0.94037896,1.0071485,nan,6,4.1701894,4.1701894,4.1701894,4.1701894,4.1701894,4.1701894,0.0,0.0,0.0,0.0,0.0,0,0,0,0,0,0,0,1,0,0,1,0,0
165605227,25.0182,25.021002,0.0,0.0,0.0,0.0,0.94033414,1.0071539,nan,6,4.170167,4.170167,4.170167,4.170167,4.170167,4.170167,0.0,0.0,0.0,0.0,0.0,0,0,0,0,0,0,0,1,0,0,1,0,0
165906579,25.0264,25.021204,0.0,0.0,0.0,0.0,0.94040185,1.0071456,nan,6,4.170201,4.170201,4.170201,4.170201,4.170201,4.170201,0.0,0.0,0.0,0.0,0.0,0,0,0,0,0,0,0,1,0,0,1,0,0
166206684,25.01,25.02301,0.0,0.0,0.0,0.0,0.9410036,1.007073,nan,6,4.1705017,4.1705017,4.1705017,4.1705017,4.1705017,4.1705017,0.0,0.0,0.0,0.0,0.0,0,0,0,0,0,0,0,1,0,0,1,0,0
166505218,25.051,25.02329,0.0,0.0,0.0,0.0,0.9410971,1.0070617,nan,6,4.1705484,4.1705484,4.1705484,4.1705484,4.1705484,4.1705484,0.0,0.0,0.0,0.0,0.0,0,0,0,0,0,0,0,1,0,0,1,0,0
166805229,24.952599,25.01064,0.0,0.0,0.0,0.0,0.93687993,1.0075712,nan,6,4.16844,4.16844,4.16844,4.16844,4.16844,4.16844,0.0,0.0,0.0,0.0,0.0,0,0,0,0,0,0,0,1,0,0,1,0,0
167106879,25.0428,24.983625,0.0,0.0,0.0,0.0,0.92787534,1.0086606,nan,6,4.1639376,4.1639376,4.1639376,4.1639376,4.1639376,4.1639376,0.0,0.0,0.0,0.0,0.0,0,0,0,0,0,0,0,1,0,0,1,0,0
167405219,24.9772,24.986752,0.0,0.0,0.0,0.0,0.9289177,1.0085344,nan,6,4.1644588,4.1644588,4.1644588,4.1644588,4.1644588,4.1644588,0.0,0.0,0.0,0.0,0.0,0,0,0,0,0,0,0,1,0,0,1,0,0
167705227,25.0018,24.986137,0.0,0.0,0.0,0.0,0.92871267,1.0085592,nan,6,4.164356,4.164356,4.164356,4.164356,4.164356,4.164356,0.0,0.0,0.0,0.0,0.0,0,0,0,0,0,0,0,1,0,0,1,0,0
168005220,25.0018,24.983982,0.0,0.0,0.0,0.0,0.92799455,1.0086461,nan,6,4.163997,4.163997,4.163997,4.163997,4.163997,4.163997,0.0,0.0,0.0,0.0,0.0,0,0,0,0,0,0,0,1,0,0,1,0,0
168305221,24.969,24.990519,0.0,0.0,0.0,0.0,0.93017274,1.0083824,nan,6,4.1650863,4.1650863,4.1650863,4.1650863,4.1650863,4.1650863,0.0,0.0,0.0,0.0,0.0,0,0,0,0,0,0,0,1,0,0,1,0,0
168605224,25.0182,24.992842,0.0,0.0,0.0,0.0,0.9309471,1.0082887,nan,6,4.1654735,4.1654735,4.1654735,4.1654735,4.1654735,4.1654735,0.0,0.0,0.0,0.0,0.0,0,0,0,0,0,0,0,1,0,0,1,0,0
169805220,24.952599,24.984997,0.0,0.0,0.0,0.0,0.92833215,1.0086052,nan,6,4.164166,4.164166,4.164166,4.164166,4.164166,4.164166,0.0,0.0,0.0,0.0,0.0,0,0,0,0,0,0,0,1,0,0,1,0,0
170105224,25.0264,24.937395,0.0,0.0,0.0,0.0,0.9124649,1.0105306,nan,6,4.1562324,4.1562324,4.1562324,4.1562324,4.1562324,4.1562324,0.0,0.0,0.0,0.0,0.0,0,0,0,0,0,0,0,1,0,0,1,0,0
170405236,25.0182,24.930374,0.0,0.0,0.0,0.0,0.9101246,1.0108151,nan,6,4.155062,4.155062,4.155062,4.155062,4.155062,4.155062,0.0,0.0,0.0,0.0,0.0,0,0,0,0,0,0,0,1,0,0,1,0,0
170705227,25.0428,24.955027,0.0,0.0,0.0,0.0,0.9183424,1.0098165,nan,6,4.159171,4.159171,4.159171,4.159171,4.159171,4.159171,0.0,0.0,0.0,0.0,0.0,0,0,0,0,0,0,0,1,0,0,1,0,0
171006602,25.051,24.972965,0.0,0.0,0.0,0.0,0.92432195,1.0090911,nan,6,4.162161,4.162161,4.162161,4.162161,4.162161,4.162161,0.0,0.0,0.0,0.0,0.0,0,0,0,0,0,0,0,1,0,0,1,0,0
171306907,25.0346,24.9874,0.0,0.0,0.0,0.0,0.92913324,1.0085083,nan,6,4.1645665,4.1645665,4.1645665,4.1645665,4.1645665,4.1645665,0.0,0.0,0.0,0.0,0.0,0,0,0,0,0,0,0,1,0,0,1,0,0
171605223,24.993599,24.993559,0.0,0.0,0.0,0.0,0.9311865,1.0082598,nan,6,4.165593,4.165593,4.165593,4.165593,4.165593,4.165593,0.0,0.0,0.0,0.0,0.0,0,0,0,0,0,0,0,1,0,0,1,0,0
171905223,25.0264,24.999992,0.0,0.0,0.0,0.0,0.9333313,1.0080003,nan,6,4.1666656,4.1666656,4.1666656,4.1666656,4.1666656,4.1666656,0.0,0.0,0.0,0.0,0.0,0,0,0,0,0,0,0,1,0,0,1,0,0
172206812,25.01,25.00838,0.0,0.0,0.0,0.0,0.9361275,1.007662,nan,6,4.1680636,4.1680636,4.1680636,4.1680636,4.1680636,4.1680636,0.0,0.0,0.0,0.0,0.0,0,0,0,0,0,0,0,1,0,0,1,0,0
172505221,25.0346,25.011122,0.0,0.0,0.0,0.0,0.9370411,1.0075517,nan,6,4.1685205,4.1685205,4.1685205,4.1685205,4.1685205,4.1685205,0.0,0.0,0.0,0.0,0.0,0,0,0,0,0,0,0,1,0,0,1,0,0
172805247,25.0346,25.013794,0.0,0.0,0.0,0.0,0.93793184,1.007444,nan,6,4.168966,4.168966,4.168966,4.168966,4.168966,4.168966,0.0,0.0,0.0,0.0,0.0,0,0,0,0,0,0,0,1,0,0,1,0,0
173105225,25.0346,25.013489,0.0,0.0,0.0,0.0,0.9378298,1.0074564,nan,6,4.168915,4.168915,4.168915,4.168915,4.168915,4.168915,0.0,0.0,0.0,0.0,0.0,0,0,0,0,0,0,0,1,0,0,1,0,0
173405220,24.9772,25.013784,0.0,0.0,0.0,0.0,0.937928,1.0074445,nan,6,4.168964,4.168964,4.168964,4.168964,4.168964,4.168964,0.0,0.0,0.0,0.0,0.0,0,0,0,0,0,0,0,1,0,0,1,0,0
173705221,25.0428,25.01463,0.0,0.0,0.0,0.0,0.9382103,1.0074104,nan,6,4.169105,4.169105,4.169105,4.169105,4.169105,4.169105,0.0,0.0,0.0,0.0,0.0,0,0,0,0,0,0,0,1,0,0,1,0,0
174005220,24.993599,25.015757,0.0,0.0,0.0,0.0,0.93858606,1.007365,nan,6,4.169293,4.169293,4.169293,4.169293,4.169293,4.169293,0.0,0.0,0.0,0.0,0.0,0,0,0,0,0,0,0,1,0,0,1,0,0
174306870,25.0264,25.018919,0.0,0.0,0.0,0.0,0.93963987,1.0072377,nan,6,4.16982,4.16982,4.16982,4.16982,4.16982,4.16982,0.0,0.0,0.0,0.0,0.0,0,0,0,0,0,0,0,1,0,0,1,0,0
174605223,25.01,25.018946,0.0,0.0,0.0,0.0,0.93964845,1.0072367,nan,6,4.169824,4.169824,4.169824,4.169824,4.169824,4.169824,0.0,0.0,0.0,0.0,0.0,0,0,0,0,0,0,0,1,0,0,1,0,0
174905224,25.0018,25.017551,0.0,0.0,0.0,0.0,0.939184,1.0072927,nan,6,4.169592,4.169592,4.169592,4.169592,4.169592,4.169592,0.0,0.0,0.0,0.0,0.0,0,0,0,0,0,0,0,1,0,0,1,0,0
175205228,25.0592,25.018885,0.0,0.0,0.0,0.0,0.9396284,1.0072391,nan,6,4.169814,4.169814,4.169814,4.169814,4.169814,4.169814,0.0,0.0,0.0,0.0,0.0,0,0,0,0,0,0,0,1,0,0,1,0,0
175505219,25.0182,25.016905,0.0,0.0,0.0,0.0,0.9389685,1.0073189,nan,6,4.169484,4.169484,4.169484,4.169484,4.169484,4.169484,0.0,0.0,0.0,0.0,0.0,0,0,0,0,0,0,0,1,0,0,1,0,0
175805217,25.01,25.019506,0.0,0.0,0.0,0.0,0.93983537,1.0072141,nan,6,4.1699176,4.1699176,4.1699176,4.1699176,4.1699176,4.1699176,0.0,0.0,0.0,0.0,0.0,0,0,0,0,0,0,0,1,0,0,1,0,0
176405231,24.9362,25.016933,0.0,0.0,0.0,0.0,0.938978,1.0073177,nan,6,4.169489,4.169489,4.169489,4.169489,4.169489,4.169489,0.0,0.0,0.0,0.0,0.0,0,0,0,0,0,0,0,1,0,0,1,0,0
176705220,25.0182,25.020895,0.0,0.0,0.0,0.0,0.94029886,1.0071582,nan,6,4.1701493,4.1701493,4.1701493,4.1701493,4.1701493,4.1701493,0.0,0.0,0.0,0.0,0.0,0,0,0,0,0,0,0,1,0,0,1,0,0
177005218,25.0592,25.021803,0.0,0.0,0.0,0.0,0.94060117,1.0071217,nan,6,4.1703005,4.1703005,4.1703005,4.1703005,4.1703005,4.1703005,0.0,0.0,0.0,0.0,0.0,0,0,0,0,0,0,0,1,0,0,1,0,0
177306915,24.993599,25.024323,0.0,0.0,0.0,0.0,0.94144136,1.0070202,nan,6,4.1707206,4.1707206,4.1707206,4.1707206,4.1707206,4.1707206,0.0,0.0,0.0,0.0,0.0,0,0,0,0,0,0,0,1,0,0,1,0,0
177605219,25.0346,25.021788,0.0,0.0,0.0,0.0,0.9405964,1.0071222,nan,6,4.170298,4.170298,4.170298,4.170298,4.170298,4.170298,0.0,0.0,0.0,0.0,0.0,0,0,0,0,0,0,0,1,0,0,1,0,0
177906455,24.952599,25.021202,0.0,0.0,0.0,0.0,0.9404009,1.0071458,nan,6,4.1702003,4.1702003,4.1702003,4.1702003,4.1702003,4.1702003,0.0,0.0,0.0,0.0,0.0,0,0,0,0,0,0,0,1,0,0,1,0,0
178205259,24.993599,25.021526,0.0,0.0,0.0,0.0,0.94050866,1.0071328,nan,6,4.170254,4.170254,4.170254,4.170254,4.170254,4.170254,0.0,0.0,0.0,0.0,0.0,0,0,0,0,0,0,0,1,0,0,1,0,0
178806708,25.0264,25.021736,0.0,0.0,0.0,0.0,0.94057924,1.0071243,nan,6,4.1702895,4.1702895,4.1702895,4.1702895,4.1702895,4.1702895,0.0,0.0,0.0,0.0,0.0,0,0,0,0,0,0,0,1,0,0,1,0,0
179105221,25.051,25.021904,0.0,0.0,0.0,0.0,0.94063455,1.0071176,nan,6,4.170317,4.170317,4.170317,4.170317,4.170317,4.170317,0.0,0.0,0.0,0.0,0.0,0,0,0,0,0,0,0,1,0,0,1,0,0
179405222,24.969,25.021563,0.0,0.0,0.0,0.0,0.94052106,1.0071313,nan,6,4.1702604,4.1702604,4.1702604,4.1702604,4.1702604,4.1702604,0.0,0.0,0.0,0.0,0.0,0,0,0,0,0,0,0,1,0,0,1,0,0
179705216,25.0428,25.020357,0.0,0.0,0.0,0.0,0.94011956,1.0071797,nan,6,4.1700597,4.1700597,4.1700597,4.1700597,4.1700597,4.1700597,0.0,0.0,0.0,0.0,0.0,0,0,0,0,0,0,0,1,0,0,1,0,0
180006540,24.6492,25.009237,0.0,0.0,0.0,0.0,0.93641263,1.0076276,nan,6,4.168206,4.168206,4.168206,4.168206,4.168206,4.168206,0.0,0.0,0.0,0.0,0.0,0,0,0,0,0,0,0,1,0,0,1,0,0
180306588,24.9854,24.963875,0.0,0.0,0.0,0.0,0.9212921,1.0094585,nan,6,4.160646,4.160646,4.160646,4.160646,4.160646,4.160646,0.0,0.0,0.0,0.0,0.0,0,0,0,0,0,0,0,1,0,0,1,0,0
180605219,24.5754,24.937042,0.0,0.0,0.0,0.0,0.9123476,1.0105448,nan,6,4.1561737,4.1561737,4.1561737,4.1561737,4.1561737,4.1561737,0.0,0.0,0.0,0.0,0.0,0,0,0,0,0,0,0,1,0,0,1,0,0
180905219,24.944399,24.94088,0.0,0.0,0.0,0.0,0.9136265,1.0103893,nan,6,4.156813,4.156813,4.156813,4.156813,4.156813,4.156813,0.0,0.0,0.0,0.0,0.0,0,0,0,0,0,0,0,1,0,0,1,0,0
181805221,25.0428,24.855947,0.0,0.0,0.0,0.0,0.8853157,1.0138419,nan,6,4.1426578,4.1426578,4.1426578,4.1426578,4.1426578,4.1426578,0.0,0.0,0.0,0.0,0.0,0,0,0,0,0,0,0,1,0,0,1,0,0
182105243,25.0346,24.85667,0.0,0.0,0.0,0.0,0.885557,1.0138123,nan,6,4.1427784,4.1427784,4.1427784,4.1427784,4.1427784,4.1427784,0.0,0.0,0.0,0.0,0.0,0,0,0,0,0,0,0,1,0,0,1,0,0
182405221,25.0428,24.86021,0.0,0.0,0.0,0.0,0.8867367,1.0136681,nan,6,4.1433682,4.1433682,4.1433682,4.1433682,4.1433682,4.1433682,0.0,0.0,0.0,0.0,0.0,0,0,0,0,0,0,0,1,0,0,1,0,0
182705217,25.0346,24.879322,0.0,0.0,0.0,0.0,0.89310724,1.0128894,nan,6,4.1465535,4.1465535,4.1465535,4.1465535,4.1465535,4.1465535,0.0,0.0,0.0,0.0,0.0,0,0,0,0,0,0,0,1,0,0,1,0,0
183006687,25.0182,24.86595,0.0,0.0,0.0,0.0,0.88864976,1.013434,nan,6,4.144325,4.144325,4.144325,4.144325,4.144325,4.144325,0.0,0.0,0.0,0.0,0.0,0,0,0,0,0,0,0,1,0,0,1,0,0
183306549,25.0346,24.881954,0.0,0.0,0.0,0.0,0.8939846,1.0127822,nan,6,4.146992,4.146992,4.146992,4.146992,4.146992,4.146992,0.0,0.0,0.0,0.0,0.0,0,0,0,0,0,0,0,1,0,0,1,0,0
183605227,25.075598,24.917677,0.0,0.0,0.0,0.0,0.9058922,1.0113302,nan,6,4.152946,4.152946,4.152946,4.152946,4.152946,4.152946,0.0,0.0,0.0,0.0,0.0,0,0,0,0,0,0,0,1,0,0,1,0,0
183905218,25.0182,24.944904,0.0,0.0,0.0,0.0,0.9149683,1.0102264,nan,6,4.157484,4.157484,4.157484,4.157484,4.157484,4.157484,0.0,0.0,0.0,0.0,0.0,0,0,0,0,0,0,0,1,0,0,1,0,0
184206797,25.0592,24.965132,0.0,0.0,0.0,0.0,0.9217108,1.0094078,nan,6,4.1608553,4.1608553,4.1608553,4.1608553,4.1608553,4.1608553,0.0,0.0,0.0,0.0,0.0,0,0,0,0,0,0,0,1,0,0,1,0,0
184505216,24.9772,24.97897,0.0,0.0,0.0,0.0,0.9263237,1.0088485,nan,6,4.1631618,4.1631618,4.1631618,4.1631618,4.1631618,4.1631618,0.0,0.0,0.0,0.0,0.0,0,0,0,0,0,0,0,1,0,0,1,0,0
184805223,25.0018,24.990454,0.0,0.0,0.0,0.0,0.93015176,1.008385,nan,6,4.165076,4.165076,4.165076,4.165076,4.165076,4.165076,0.0,0.0,0.0,0.0,0.0,0,0,0,0,0,0,0,1,0,0,1,0,0
185105224,25.0182,24.995724,0.0,0.0,0.0,0.0,0.9319084,1.0081724,nan,6,4.165954,4.165954,4.165954,4.165954,4.165954,4.165954,0.0,0.0,0.0,0.0,0.0,0,0,0,0,0,0,0,1,0,0,1,0,0
185405225,25.116598,25.003454,0.0,0.0,0.0,0.0,0.93448526,1.0078607,nan,6,4.1672425,4.1672425,4.1672425,4.1672425,4.1672425,4.1672425,0.0,0.0,0.0,0.0,0.0,0,0,0,0,0,0,0,1,0,0,1,0,0
185706818,25.0264,25.00438,0.0,0.0,0.0,0.0,0.9347933,1.0078235,nan,6,4.1673965,4.1673965,4.1673965,4.1673965,4.1673965,4.1673965,0.0,0.0,0.0,0.0,0.0,0,0,0,0,0,0,0,1,0,0,1,0,0
186005230,24.969,25.005766,0.0,0.0,0.0,0.0,0.9352558,1.0077674,nan,6,4.167628,4.167628,4.167628,4.167628,4.167628,4.167628,0.0,0.0,0.0,0.0,0.0,0,0,0,0,0,0,0,1,0,0,1,0,0
186305219,25.0592,25.010721,0.0,0.0,0.0,0.0,0.94329053,1.006797,nan,6,4.1684537,4.1684537,4.1684537,4.1684537,4.1684537,4.1684537,0.0,0.0,0.0,0.0,0.0,0,0,0,0,0,0,0,1,0,0,1,0,0
186605219,25.0018,25.012514,0.0,0.0,0.0,0.0,0.9616974,1.0045807,nan,6,4.168752,4.168752,4.168752,4.168752,4.168752,4.168752,0.0,0.0,0.0,0.0,0.0,0,0,0,0,0,0,0,1,0,0,1,0,0
186905224,25.0346,25.016623,0.0,0.0,0.0,0.0,0.9855078,1.0017282,nan,6,4.169437,4.169437,4.169437,4.169437,4.169437,4.169437,0.0,0.0,0.0,0.0,0.0,0,0,0,0,0,0,0,1,0,0,1,0,0
187205223,25.0018,25.013338,0.0,0.0,0.0,0.0,1.0,1.0,nan,6,4.1688895,4.1688895,4.1688895,4.1688895,4.1688895,4.1688895,0.0,0.0,0.0,0.0,0.0,0,0,0,0,0,0,0,1,0,0,1,0,0
187505223,24.969,25.008345,0.0,0.0,0.0,0.0,1.0,1.0,nan,6,4.1680574,4.1680574,4.1680574,4.1680574,4.1680574,4.1680574,0.0,0.0,0.0,0.0,0.0,0,0,0,0,0,0,0,1,0,0,1,0,0
187805226,24.9772,25.003305,0.0,0.0,0.0,0.0,1.0,1.0,nan,6,4.1672177,4.1672177,4.1672177,4.1672177,4.1672177,4.1672177,0.0,0.0,0.0,0.0,0.0,0,0,0,0,0,0,0,1,0,0,1,0,0
188105227,25.01,25.000992,0.0,0.0,0.0,0.0,1.0,1.0,nan,6,4.166832,4.166832,4.166832,4.166832,4.166832,4.166832,0.0,0.0,0.0,0.0,0.0,0,0,0,0,0,0,0,1,0,0,1,0,0
188405268,24.9854,24.99541,0.0,0.0,0.0,0.0,1.0,1.0,nan,6,4.1659017,4.1659017,4.1659017,4.1659017,4.1659017,4.1659017,0.0,0.0,0.0,0.0,0.0,0,0,0,0,0,0,0,1,0,0,1,0,0
188705220,24.9362,24.979109,0.0,0.0,0.0,0.0,1.0,1.0,nan,6,4.1631846,4.1631846,4.1631846,4.1631846,4.1631846,4.1631846,0.0,0.0,0.0,0.0,0.0,0,0,0,0,0,0,0,1,0,0,1,0,0
189005219,24.9362,24.96865,0.0,0.0,0.0,0.0,1.0,1.0,nan,6,4.161442,4.161442,4.161442,4.161442,4.161442,4.161442,0.0,0.0,0.0,0.0,0.0,0,0,0,0,0,0,0,1,0,0,1,0,0
189306493,24.9198,24.962524,0.0,0.0,0.0,0.0,1.0,1.0,nan,6,4.160421,4.160421,4.160421,4.160421,4.160421,4.160421,0.0,0.0,0.0,0.0,0.0,0,0,0,0,0,0,0,1,0,0,1,0,0
189605230,24.9608,24.952225,0.0,0.0,0.0,0.0,1.0,1.0,nan,6,4.1587043,4.1587043,4.1587043,4.1587043,4.1587043,4.1587043,0.0,0.0,0.0,0.0,0.0,0,0,0,0,0,0,0,1,0,0,1,0,0
189905243,24.969,24.949722,0.0,0.0,0.0,0.0,1.0,1.0,nan,6,4.158287,4.158287,4.158287,4.158287,4.158287,4.158287,0.0,0.0,0.0,0.0,0.0,0,0,0,0,0,0,0,1,0,0,1,0,0
190206572,24.870598,24.928837,0.0,0.0,0.0,0.0,1.0,1.0,nan,6,4.154806,4.154806,4.154806,4.154806,4.154806,4.154806,0.0,0.0,0.0,0.0,0.0,0,0,0,0,0,0,0,1,0,0,1,0,0
190505221,24.723,24.89131,0.0,0.0,0.0,0.0,1.0,1.0,nan,6,4.1485515,4.1485515,4.1485515,4.1485515,4.1485515,4.1485515,0.0,0.0,0.0,0.0,0.0,0,0,0,0,0,0,0,1,0,0,1,0,0
190805221,24.739399,24.860119,0.0,0.0,0.0,0.0,1.0,1.0,nan,6,4.143353,4.143353,4.143353,4.143353,4.143353,4.143353,0.0,0.0,0.0,0.0,0.0,0,0,0,0,0,0,0,1,0,0,1,0,0
191105230,24.7148,24.822657,0.0,0.0,0.0,0.0,1.0,1.0,nan,6,4.1371093,4.1371093,4.1371093,4.1371093,4.1371093,4.1371093,0.0,0.0,0.0,0.0,0.0,0,0,0,0,0,0,0,1,0,0,1,0,0
191406737,24.690199,24.789455,0.0,0.0,0.0,0.0,1.0,1.0,nan,6,4.131576,4.131576,4.131576,4.131576,4.131576,4.131576,0.0,0.0,0.0,0.0,0.0,0,0,0,0,0,0,0,1,0,0,1,0,0
191705221,24.723,24.761164,0.0,0.0,0.0,0.0,1.0,1.0,nan,6,4.1268606,4.1268606,4.1268606,4.1268606,4.1268606,4.1268606,0.0,0.0,0.0,0.0,0.0,0,0,0,0,0,0,0,1,0,0,1,0,0
192005225,24.5918,24.74033,0.0,0.0,0.0,0.0,1.0,1.0,nan,6,4.1233883,4.1233883,4.1233883,4.1233883,4.1233883,4.1233883,0.0,0.0,0.0,0.0,0.0,0,0,0,0,0,0,0,1,0,0,1,0,0
192305220,24.485199,24.695875,0.0,0.0,0.0,0.0,1.0,1.0,nan,6,4.115979,4.115979,4.115979,4.115979,4.115979,4.115979,0.0,0.0,0.0,0.0,0.0,0,0,0,0,0,0,0,1,0,0,1,0,0
193505219,24.108,24.376661,0.0,0.0,0.0,0.0,1.0,1.0,nan,6,4.062777,4.062777,4.062777,4.062777,4.062777,4.062777,0.0,0.0,0.0,0.0,0.0,0,0,0,0,0,0,0,1,0,0,1,0,0
193805218,24.0998,24.312504,0.0,0.0,0.0,0.0,1.0,1.0,nan,6,4.052084,4.052084,4.052084,4.052084,4.052084,4.052084,0.0,0.0,0.0,0.0,0.0,0,0,0,0,0,0,0,1,0,0,1,0,0
194106565,24.009598,24.241575,0.0,0.0,0.0,0.0,1.0,1.0,nan,6,4.0402627,4.0402627,4.0402627,4.0402627,4.0402627,4.0402627,0.0,0.0,0.0,0.0,0.0,0,0,0,0,0,0,0,1,0,0,1,0,0
194405221,23.9522,24.147789,0.0,0.0,0.0,0.0,1.0,1.0,nan,6,4.0246315,4.0246315,4.0246315,4.0246315,4.0246315,4.0246315,0.0,0.0,0.0,0.0,0.0,0,0,0,0,0,0,0,1,0,0,1,0,0
194705248,23.6898,24.045208,0.0,0.0,0.0,0.0,1.0,1.0,nan,6,4.0075345,4.0075345,4.0075345,4.0075345,4.0075345,4.0075345,0.0,0.0,0.0,0.0,0.0,0,0,0,0,0,0,0,1,0,0,1,0,0
195006958,23.288,23.908216,0.0,0.0,0.0,0.0,0.9725006,1.0032845,nan,6,3.9847028,3.9847028,3.9847028,3.9847028,3.9847028,3.9847028,0.0,0.0,0.0,0.0,0.0,0,0,0,0,0,0,0,1,0,0,1,0,0
195305226,23.1322,23.73372,0.0,0.0,0.0,0.0,0.9280594,1.0086383,nan,6,3.95562,3.95562,3.95562,3.95562,3.95562,3.95562,0.0,0.0,0.0,0.0,0.0,0,0,0,0,0,0,0,1,0,0,1,0,0
195605219,22.8534,23.549059,0.0,0.0,0.0,0.0,0.8807085,1.014406,nan,6,3.924843,3.924843,3.924843,3.924843,3.924843,3.924843,0.0,0.0,0.0,0.0,0.0,0,0,0,0,0,0,0,1,0,0,1,0,0
195905245,22.2548,23.283804,0.0,0.0,0.0,0.0,0.810891,1.0230315,nan,6,3.880634,3.880634,3.880634,3.880634,3.880634,3.880634,0.0,0.0,0.0,0.0,0.0,0,0,0,0,0,0,0,1,0,0,1,0,0
196206652,21.5168,22.845646,0.0,0.0,0.0,0.0,0.69519407,1.0376527,nan,6,3.8076077,3.8076077,3.8076077,3.8076077,3.8076077,3.8076077,0.0,0.0,0.0,0.0,0.0,0,0,0,0,0,0,0,1,0,0,1,0,0
196506895,21.016598,22.440933,0.0,0.0,0.0,0.0,0.59126455,1.0511478,nan,6,3.7401555,3.7401555,3.7401555,3.7401555,3.7401555,3.7401555,0.0,0.0,0.0,0.0,0.0,0,0,0,0,0,0,0,1,0,0,1,0,0
196805225,20.951,22.047907,0.0,0.0,0.0,0.0,0.4832371,1.0655521,nan,6,3.6746511,3.6746511,3.6746511,3.6746511,3.6746511,3.6746511,0.0,0.0,0.0,0.0,0.0,0,0,0,0,0,0,0,1,0,0,1,0,0
197105229,20.6722,21.686577,0.0,0.0,0.0,0.0,0.37984353,1.0797132,nan,6,3.6144295,3.6144295,3.6144295,3.6144295,3.6144295,3.6144295,0.0,0.0,0.0,0.0,0.0,0,0,0,0,0,0,0,1,0,0,1,0,0
197405222,20.639399,21.410563,0.0,0.0,0.0,0.0,0.30048877,1.0908399,nan,6,3.568427,3.568427,3.568427,3.568427,3.568427,3.568427,0.0,0.0,0.0,0.0,0.0,0,0,0,0,0,0,0,1,0,0,1,0,0
197705216,20.5082,21.19222,0.0,0.0,0.0,0.0,0.23709325,1.0998949,nan,6,3.5320368,3.5320368,3.5320368,3.5320368,3.5320368,3.5320368,0.0,0.0,0.0,0.0,0.0,0,0,0,0,0,0,0,1,0,0,1,0,0
198005220,20.541,21.004747,0.0,0.0,0.0,0.0,0.18156557,1.1079506,nan,6,3.5007913,3.5007913,3.5007913,3.5007913,3.5007913,3.5007913,0.0,0.0,0.0,0.0,0.0,0,0,0,0,0,0,0,1,0,0,1,0,0
198305222,20.614801,20.871956,0.0,0.0,0.0,0.0,0.14246778,1.1136938,nan,6,3.4786594,3.4786594,3.4786594,3.4786594,3.4786594,3.4786594,0.0,0.0,0.0,0.0,0.0,0,0,0,0,0,0,0,1,0,0,1,0,1
198605223,20.2294,20.742804,0.0,0.0,0.0,0.0,0.10324983,1.1195148,nan,6,3.457134,3.457134,3.457134,3.457134,3.457134,3.457134,0.0,0.0,0.0,0.0,0.0,0,0,0,0,0,0,0,1,0,0,1,0,1
198905219,20.5574,20.673231,0.0,0.0,0.0,0.0,0.08290176,1.1225591,nan,6,3.4455385,3.4455385,3.4455385,3.4455385,3.4455385,3.4455385,0.0,0.0,0.0,0.0,0.0,0,0,0,0,0,0,0,1,0,0,1,0,1
199205219,20.688599,20.612114,0.0,0.0,0.0,0.0,0.064639375,1.1253054,nan,6,3.4353523,3.4353523,3.4353523,3.4353523,3.4353523,3.4353523,0.0,0.0,0.0,0.0,0.0,0,0,0,0,0,0,0,1,0,0,1,0,2
199505220,20.3114,20.543232,0.0,0.0,0.0,0.0,0.043243695,1.1285402,nan,6,3.423872,3.423872,3.423872,3.423872,3.423872,3.423872,0.0,0.0,0.0,0.0,0.0,0,0,0,0,0,0,0,1,0,0,1,0,3
199805221,20.1638,20.511946,0.0,0.0,0.0,0.0,0.033976365,1.129947,nan,6,3.4186575,3.4186575,3.4186575,3.4186575,3.4186575,3.4186575,0.0,0.0,0.0,0.0,0.0,0,0,0,0,0,0,0,1,0,0,1,0,3
200105223,20.213,20.479982,0.0,0.0,0.0,0.0,0.02418356,1.1314374,nan,6,3.4133303,3.4133303,3.4133303,3.4133303,3.4133303,3.4133303,0.0,0.0,0.0,0.0,0.0,0,0,0,0,0,0,0,1,0,0,1,0,3
200405226,20.180199,20.433477,0.0,0.0,0.0,0.0,0.009321499,1.1337069,nan,6,3.4055796,3.4055796,3.4055796,3.4055796,3.4055796,3.4055796,0.0,0.0,0.0,0.0,0.0,0,0,0,0,0,0,0,1,0,0,1,0,3
200706578,20.401598,20.389551,0.0,0.0,0.0,0.0,0.0,1.135135,nan,6,3.3982584,3.3982584,3.3982584,3.3982584,3.3982584,3.3982584,0.0,0.0,0.0,0.0,0.0,0,0,0,0,0,0,0,1,0,0,1,0,3
201006692,20.2622,20.370743,0.0,0.0,0.0,0.0,0.0,1.135135,nan,6,3.3951237,3.3951237,3.3951237,3.3951237,3.3951237,3.3951237,0.0,0.0,0.0,0.0,0.0,0,0,0,0,0,0,0,1,0,0,1,0,3
201305220,20.2048,20.309258,0.0,0.0,0.0,0.0,0.0,1.135135,nan,6,3.3848763,3.3848763,3.3848763,3.3848763,3.3848763,3.3848763,0.0,0.0,0.0,0.0,0.0,0,0,0,0,0,0,0,1,0,0,1,0,3
201605222,20.426199,20.30323,0.0,0.0,0.0,0.0,0.0,1.135135,nan,6,3.3838718,3.3838718,3.3838718,3.3838718,3.3838718,3.3838718,0.0,0.0,0.0,0.0,0.0,0,0,0,0,0,0,0,1,0,0,1,0,3
202275210,20.803398,20.356253,0.0,0.0,0.0,0.0,0.0,1.135135,nan,6,3.3927088,3.3927088,3.3927088,3.3927088,3.3927088,3.3927088,0.0,0.0,0.0,0.0,0.0,0,0,0,0,0,0,0,1,0,0,1,0,3
203475218,20.869,20.619326,0.0,0.0,0.0,0.0,0.073021695,1.1240432,nan,6,3.4365542,3.4365542,3.4365542,3.4365542,3.4365542,3.4365542,0.0,0.0,0.0,0.0,0.0,0,0,0,0,0,0,0,1,0,0,1,0,1
203775207,20.992,20.700779,0.0,0.0,0.0,0.0,0.10019569,1.1199708,nan,6,3.4501297,3.4501297,3.4501297,3.4501297,3.4501297,3.4501297,0.0,0.0,0.0,0.0,0.0,0,0,0,0,0,0,0,1,0,0,1,0,1
204075208,20.9592,20.763206,0.0,0.0,0.0,0.0,0.121021554,1.1168696,nan,6,3.4605343,3.4605343,3.4605343,3.4605343,3.4605343,3.4605343,0.0,0.0,0.0,0.0,0.0,0,0,0,0,0,0,0,1,0,0,1,0,1
204375217,20.885399,20.811352,0.0,0.0,0.0,0.0,0.1370819,1.1144897,nan,6,3.4685585,3.4685585,3.4685585,3.4685585,3.4685585,3.4685585,0.0,0.0,0.0,0.0,0.0,0,0,0,0,0,0,0,1,0,0,1,0,1
204675232,21.1068,20.863783,0.0,0.0,0.0,0.0,0.15456848,1.11191,nan,6,3.477297,3.477297,3.477297,3.477297,3.477297,3.477297,0.0,0.0,0.0,0.0,0.0,0,0,0,0,0,0,0,1,0,0,1,0,0
204975226,21.139599,20.922098,0.0,0.0,0.0,0.0,0.1740139,1.1090553,nan,6,3.4870164,3.4870164,3.4870164,3.4870164,3.4870164,3.4870164,0.0,0.0,0.0,0.0,0.0,0,0,0,0,0,0,0,1,0,0,1,0,0
205275244,21.2708,20.96152,0.0,0.0,0.0,0.0,0.18715887,1.1071337,nan,6,3.4935865,3.4935865,3.4935865,3.4935865,3.4935865,3.4935865,0.0,0.0,0.0,0.0,0.0,0,0,0,0,0,0,0,1,0,0,1,0,0
205575206,21.1642,20.991615,0.0,0.0,0.0,0.0,0.19719486,1.1056713,nan,6,3.4986026,3.4986026,3.4986026,3.4986026,3.4986026,3.4986026,0.0,0.0,0.0,0.0,0.0,0,0,0,0,0,0,0,1,0,0,1,0,0
205875218,21.197,21.034304,0.0,0.0,0.0,0.0,0.21142702,1.1036038,nan,6,3.5057173,3.5057173,3.5057173,3.5057173,3.5057173,3.5057173,0.0,0.0,0.0,0.0,0.0,0,0,0,0,0,0,0,1,0,0,1,0,0
206175209,21.2052,21.054564,0.0,0.0,0.0,0.0,0.21818237,1.1026253,nan,6,3.509094,3.509094,3.509094,3.509094,3.509094,3.509094,0.0,0.0,0.0,0.0,0.0,0,0,0,0,0,0,0,1,0,0,1,0,0
206478832,21.098598,21.081339,0.0,0.0,0.0,0.0,0.22710876,1.1013347,nan,6,3.5135565,3.5135565,3.5135565,3.5135565,3.5135565,3.5135565,0.0,0.0,0.0,0.0,0.0,0,0,0,0,0,0,0,1,0,0,1,0,0
206778841,21.3118,21.104988,0.0,0.0,0.0,0.0,0.23499279,1.1001974,nan,6,3.517498,3.517498,3.517498,3.517498,3.517498,3.517498,0.0,0.0,0.0,0.0,0.0,0,0,0,0,0,0,0,1,0,0,1,0,0
207075209,21.0822,21.105555,0.0,0.0,0.0,0.0,0.23518305,1.10017,nan,6,3.5175924,3.5175924,3.5175924,3.5175924,3.5175924,3.5175924,0.0,0.0,0.0,0.0,0.0,0,0,0,0,0,0,0,1,0,0,1,0,0
207375208,20.9264,21.095373,0.0,0.0,0.0,0.0,0.23178987,1.1006593,nan,6,3.5158956,3.5158956,3.5158956,3.5158956,3.5158956,3.5158956,0.0,0.0,0.0,0.0,0.0,0,0,0,0,0,0,0,1,0,0,1,0,0
207678762,21.049398,21.087238,0.0,0.0,0.0,0.0,0.2290781,1.1010505,nan,6,3.5145397,3.5145397,3.5145397,3.5145397,3.5145397,3.5145397,0.0,0.0,0.0,0.0,0.0,0,0,0,0,0,0,0,1,0,0,1,0,0
207975207,20.9674,21.078077,0.0,0.0,0.0,0.0,0.22602443,1.1014913,nan,6,3.513013,3.513013,3.513013,3.513013,3.513013,3.513013,0.0,0.0,0.0,0.0,0.0,0,0,0,0,0,0,0,1,0,0,1,0,0
208275206,21.1642,21.075443,0.0,0.0,0.0,0.0,0.22514658,1.1016182,nan,6,3.512574,3.512574,3.512574,3.512574,3.512574,3.512574,0.0,0.0,0.0,0.0,0.0,0,0,0,0,0,0,0,1,0,0,1,0,0
208578836,21.0822,21.082996,0.0,0.0,0.0,0.0,0.22766428,1.1012546,nan,6,3.5138328,3.5138328,3.5138328,3.5138328,3.5138328,3.5138328,0.0,0.0,0.0,0.0,0.0,0,0,0,0,0,0,0,1,0,0,1,0,0
208875203,21.1724,21.081867,0.0,0.0,0.0,0.0,0.22728758,1.101309,nan,6,3.5136445,3.5136445,3.5136445,3.5136445,3.5136445,3.5136445,0.0,0.0,0.0,0.0,0.0,0,0,0,0,0,0,0,1,0,0,1,0,0
209175210,21.1888,21.092834,0.0,0.0,0.0,0.0,0.23094349,1.1007813,nan,6,3.5154724,3.5154724,3.5154724,3.5154724,3.5154724,3.5154724,0.0,0.0,0.0,0.0,0.0,0,0,0,0,0,0,0,1,0,0,1,0,0
209475203,21.024801,21.091827,0.0,0.0,0.0,0.0,0.2306078,1.1008297,nan,6,3.5153046,3.5153046,3.5153046,3.5153046,3.5153046,3.5153046,0.0,0.0,0.0,0.0,0.0,0,0,0,0,0,0,0,1,0,0,1,0,0
209775217,21.090399,21.090334,0.0,0.0,0.0,0.0,0.23010997,1.1009015,nan,6,3.5150557,3.5150557,3.5150557,3.5150557,3.5150557,3.5150557,0.0,0.0,0.0,0.0,0.0,0,0,0,0,0,0,0,1,0,0,1,0,0
210075214,20.9264,21.053629,0.0,0.0,0.0,0.0,0.21787481,1.1026697,nan,6,3.508938,3.508938,3.508938,3.508938,3.508938,3.508938,0.0,0.0,0.0,0.0,0.0,0,0,0,0,0,0,0,1,0,0,1,0,0
210375217,21.098598,21.040495,0.0,0.0,0.0,0.0,0.21349697,1.1033038,nan,6,3.5067492,3.5067492,3.5067492,3.5067492,3.5067492,3.5067492,0.0,0.0,0.0,0.0,0.0,0,0,0,0,0,0,0,1,0,0,1,0,0
210678948,21.049398,21.035048,0.0,0.0,0.0,0.0,0.21168117,1.103567,nan,6,3.5058413,3.5058413,3.5058413,3.5058413,3.5058413,3.5058413,0.0,0.0,0.0,0.0,0.0,0,0,0,0,0,0,0,1,0,0,1,0,0
210975206,21.0084,21.03956,0.0,0.0,0.0,0.0,0.2131856,1.1033489,nan,6,3.5065935,3.5065935,3.5065935,3.5065935,3.5065935,3.5065935,0.0,0.0,0.0,0.0,0.0,0,0,0,0,0,0,0,1,0,0,1,0,0
211275218,21.254398,21.036663,0.0,0.0,0.0,0.0,0.21221952,1.1034889,nan,6,3.5061104,3.5061104,3.5061104,3.5061104,3.5061104,3.5061104,0.0,0.0,0.0,0.0,0.0,0,0,0,0,0,0,0,1,0,0,1,0,0
211575206,21.1724,21.055143,0.0,0.0,0.0,0.0,0.21837978,1.1025966,nan,6,3.5091906,3.5091906,3.5091906,3.5091906,3.5091906,3.5091906,0.0,0.0,0.0,0.0,0.0,0,0,0,0,0,0,0,1,0,0,1,0,0
211875232,21.016598,21.068914,0.0,0.0,0.0,0.0,0.22297029,1.1019326,nan,6,3.5114858,3.5114858,3.5114858,3.5114858,3.5114858,3.5114858,0.0,0.0,0.0,0.0,0.0,0,0,0,0,0,0,0,1,0,0,1,0,0
212178527,21.197,21.06956,0.0,0.0,0.0,0.0,0.22318487,1.1019017,nan,6,3.511593,3.511593,3.511593,3.511593,3.511593,3.511593,0.0,0.0,0.0,0.0,0.0,0,0,0,0,0,0,0,1,0,0,1,0,0
212475206,21.238,21.066738,0.0,0.0,0.0,0.0,0.22224455,1.1020375,nan,6,3.511123,3.511123,3.511123,3.511123,3.511123,3.511123,0.0,0.0,0.0,0.0,0.0,0,0,0,0,0,0,0,1,0,0,1,0,0
212775210,21.279,21.07427,0.0,0.0,0.0,0.0,0.22475557,1.1016747,nan,6,3.5123785,3.5123785,3.5123785,3.5123785,3.5123785,3.5123785,0.0,0.0,0.0,0.0,0.0,0,0,0,0,0,0,0,1,0,0,1,0,0
213075214,21.049398,21.06743,0.0,0.0,0.0,0.0,0.22247534,1.1020042,nan,6,3.5112383,3.5112383,3.5112383,3.5112383,3.5112383,3.5112383,0.0,0.0,0.0,0.0,0.0,0,0,0,0,0,0,0,1,0,0,1,0,0
213378534,21.238,21.06841,0.0,0.0,0.0,0.0,0.22280245,1.101957,nan,6,3.511402,3.511402,3.511402,3.511402,3.511402,3.511402,0.0,0.0,0.0,0.0,0.0,0,0,0,0,0,0,0,1,0,0,1,0,0
213678589,20.9838,21.058458,0.0,0.0,0.0,0.0,0.21948461,1.1024368,nan,6,3.509743,3.509743,3.509743,3.509743,3.509743,3.509743,0.0,0.0,0.0,0.0,0.0,0,0,0,0,0,0,0,1,0,0,1,0,0
213975206,20.9674,21.052923,0.0,0.0,0.0,0.0,0.21763973,1.1027037,nan,6,3.5088205,3.5088205,3.5088205,3.5088205,3.5088205,3.5088205,0.0,0.0,0.0,0.0,0.0,0,0,0,0,0,0,0,1,0,0,1,0,0
214275227,20.951,21.04689,0.0,0.0,0.0,0.0,0.2156289,1.1029949,nan,6,3.5078151,3.5078151,3.5078151,3.5078151,3.5078151,3.5078151,0.0,0.0,0.0,0.0,0.0,0,0,0,0,0,0,0,1,0,0,1,0,0
214575203,20.9838,21.038792,0.0,0.0,0.0,0.0,0.21292906,1.103386,nan,6,3.5064652,3.5064652,3.5064652,3.5064652,3.5064652,3.5064652,0.0,0.0,0.0,0.0,0.0,0,0,0,0,0,0,0,1,0,0,1,0,0
214875211,20.9756,21.0288,0.0,0.0,0.0,0.0,0.20959835,1.103869,nan,6,3.5047998,3.5047998,3.5047998,3.5047998,3.5047998,3.5047998,0.0,0.0,0.0,0.0,0.0,0,0,0,0,0,0,0,1,0,0,1,0,0
215775211,20.819801,20.953392,0.0,0.0,0.0,0.0,0.18446283,1.1075274,nan,6,3.492232,3.492232,3.492232,3.492232,3.492232,3.492232,0.0,0.0,0.0,0.0,0.0,0,0,0,0,0,0,0,1,0,0,1,0,0
216076782,20.680399,20.955194,0.0,0.0,0.0,0.0,0.18506365,1.1074396,nan,6,3.4925325,3.4925325,3.4925325,3.4925325,3.4925325,3.4925325,0.0,0.0,0.0,0.0,0.0,0,0,0,0,0,0,0,1,0,0,1,0,0
216375207,20.852598,20.935472,0.0,0.0,0.0,0.0,0.17848949,1.1084002,nan,6,3.4892454,3.4892454,3.4892454,3.4892454,3.4892454,3.4892454,0.0,0.0,0.0,0.0,0.0,0,0,0,0,0,0,0,1,0,0,1,0,0
216675206,20.852598,20.937727,0.0,0.0,0.0,0.0,0.17924099,1.1082903,nan,6,3.4896212,3.4896212,3.4896212,3.4896212,3.4896212,3.4896212,0.0,0.0,0.0,0.0,0.0,0,0,0,0,0,0,0,1,0,0,1,0,0
216975211,20.8772,20.93544,0.0,0.0,0.0,0.0,0.17847852,1.1084019,nan,6,3.48924,3.48924,3.48924,3.48924,3.48924,3.48924,0.0,0.0,0.0,0.0,0.0,0,0,0,0,0,0,0,1,0,0,1,0,0
217275225,21.0658,20.93404,0.0,0.0,0.0,0.0,0.17801218,1.1084701,nan,6,3.4890068,3.4890068,3.4890068,3.4890068,3.4890068,3.4890068,0.0,0.0,0.0,0.0,0.0,0,0,0,0,0,0,0,1,0,0,1,0,0
217577173,20.7542,20.925407,0.0,0.0,0.0,0.0,0.17513447,1.1088911,nan,6,3.487568,3.487568,3.487568,3.487568,3.487568,3.487568,0.0,0.0,0.0,0.0,0.0,0,0,0,0,0,0,0,1,0,0,1,0,0
218175252,20.992,20.940025,0.0,0.0,0.0,0.0,0.18000726,1.1081784,nan,6,3.4900043,3.4900043,3.4900043,3.4900043,3.4900043,3.4900043,0.0,0.0,0.0,0.0,0.0,0,0,0,0,0,0,0,1,0,0,1,0,0
218477322,21.139599,20.94903,0.0,0.0,0.0,0.0,0.18300848,1.1077397,nan,6,3.491505,3.491505,3.491505,3.491505,3.491505,3.491505,0.0,0.0,0.0,0.0,0.0,0,0,0,0,0,0,0,1,0,0,1,0,0
218775239,20.869,20.944056,0.0,0.0,0.0,0.0,0.18135051,1.107982,nan,6,3.490676,3.490676,3.490676,3.490676,3.490676,3.490676,0.0,0.0,0.0,0.0,0.0,0,0,0,0,0,0,0,1,0,0,1,0,0
219075211,20.9428,20.930122,0.0,0.0,0.0,0.0,0.17670612,1.1086612,nan,6,3.4883537,3.4883537,3.4883537,3.4883537,3.4883537,3.4883537,0.0,0.0,0.0,0.0,0.0,0,0,0,0,0,0,0,1,0,0,1,0,0
219375214,21.049398,20.933832,0.0,0.0,0.0,0.0,0.17794256,1.1084802,nan,6,3.488972,3.488972,3.488972,3.488972,3.488972,3.488972,0.0,0.0,0.0,0.0,0.0,0,0,0,0,0,0,0,1,0,0,1,0,0
219675211,20.7624,20.92049,0.0,0.0,0.0,0.0,0.17349558,1.1091311,nan,6,3.4867485,3.4867485,3.4867485,3.4867485,3.4867485,3.4867485,0.0,0.0,0.0,0.0,0.0,0,0,0,0,0,0,0,1,0,0,1,0,0
219975206,20.836199,20.891603,0.0,0.0,0.0,0.0,0.16386633,1.1105431,nan,6,3.4819338,3.4819338,3.4819338,3.4819338,3.4819338,3.4819338,0.0,0.0,0.0,0.0,0.0,0,0,0,0,0,0,0,1,0,0,1,0,0
220275207,20.8608,20.876158,0.0,0.0,0.0,0.0,0.15871792,1.1112995,nan,6,3.4793596,3.4793596,3.4793596,3.4793596,3.4793596,3.4793596,0.0,0.0,0.0,0.0,0.0,0,0,0,0,0,0,0,1,0,0,1,0,0
220575209,20.5656,20.870079,0.0,0.0,0.0,0.0,0.15669183,1.1115975,nan,6,3.4783466,3.4783466,3.4783466,3.4783466,3.4783466,3.4783466,0.0,0.0,0.0,0.0,0.0,0,0,0,0,0,0,0,1,0,0,1,0,0
220875219,20.811598,20.84759,0.0,0.0,0.0,0.0,0.149195,1.1127014,nan,6,3.4745982,3.4745982,3.4745982,3.4745982,3.4745982,3.4745982,0.0,0.0,0.0,0.0,0.0,0,0,0,0,0,0,0,1,0,0,1,0,1
221175209,20.811598,20.827883,0.0,0.0,0.0,0.0,0.14262609,1.1136705,nan,6,3.4713137,3.4713137,3.4713137,3.4713137,3.4713137,3.4713137,0.0,0.0,0.0,0.0,0.0,0,0,0,0,0,0,0,1,0,0,1,0,1
221475216,20.803398,20.812506,0.0,0.0,0.0,0.0,0.13750057,1.1144278,nan,6,3.468751,3.468751,3.468751,3.468751,3.468751,3.468751,0.0,0.0,0.0,0.0,0.0,0,0,0,0,0,0,0,1,0,0,1,0,1
221775207,20.803398,20.795053,0.0,0.0,0.0,0.0,0.13168316,1.1152885,nan,6,3.4658422,3.4658422,3.4658422,3.4658422,3.4658422,3.4658422,0.0,0.0,0.0,0.0,0.0,0,0,0,0,0,0,0,1,0,0,1,0,1
222075207,20.811598,20.79082,0.0,0.0,0.0,0.0,0.13027172,1.1154976,nan,6,3.4651365,3.4651365,3.4651365,3.4651365,3.4651365,3.4651365,0.0,0.0,0.0,0.0,0.0,0,0,0,0,0,0,0,1,0,0,1,0,1
222675206,20.828,20.777626,0.0,0.0,0.0,0.0,0.12587385,1.1161494,nan,6,3.4629376,3.4629376,3.4629376,3.4629376,3.4629376,3.4629376,0.0,0.0,0.0,0.0,0.0,0,0,0,0,0,0,0,1,0,0,1,0,1
222975229,20.664,20.78471,0.0,0.0,0.0,0.0,0.12823515,1.1157993,nan,6,3.4641182,3.4641182,3.4641182,3.4641182,3.4641182,3.4641182,0.0,0.0,0.0,0.0,0.0,0,0,0,0,0,0,0,1,0,0,1,0,1
223275211,20.778801,20.784565,0.0,0.0,0.0,0.0,0.12818699,1.1158065,nan,6,3.4640942,3.4640942,3.4640942,3.4640942,3.4640942,3.4640942,0.0,0.0,0.0,0.0,0.0,0,0,0,0,0,0,0,1,0,0,1,0,1
223576815,20.7542,20.79428,0.0,0.0,0.0,0.0,0.13142519,1.1153268,nan,6,3.4657133,3.4657133,3.4657133,3.4657133,3.4657133,3.4657133,0.0,0.0,0.0,0.0,0.0,0,0,0,0,0,0,0,1,0,0,1,0,1
223875211,21.049398,20.811739,0.0,0.0,0.0,0.0,0.13724498,1.1144656,nan,6,3.4686232,3.4686232,3.4686232,3.4686232,3.4686232,3.4686232,0.0,0.0,0.0,0.0,0.0,0,0,0,0,0,0,0,1,0,0,1,0,1
224175207,20.893599,20.860905,0.0,0.0,0.0,0.0,0.1536334,1.1120476,nan,6,3.4768174,3.4768174,3.4768174,3.4768174,3.4768174,3.4768174,0.0,0.0,0.0,0.0,0.0,0,0,0,0,0,0,0,1,0,0,1,0,0
224477063,21.0822,20.890295,0.0,0.0,0.0,0.0,0.1634305,1.1106071,nan,6,3.481716,3.481716,3.481716,3.481716,3.481716,3.481716,0.0,0.0,0.0,0.0,0.0,0,0,0,0,0,0,0,1,0,0,1,0,0
225375223,21.049398,20.99084,0.0,0.0,0.0,0.0,0.19694547,1.1057075,nan,6,3.4984734,3.4984734,3.4984734,3.4984734,3.4984734,3.4984734,0.0,0.0,0.0,0.0,0.0,0,0,0,0,0,0,0,1,0,0,1,0,0
225675206,20.9592,20.984047,0.0,0.0,0.0,0.0,0.19468097,1.1060373,nan,6,3.4973412,3.4973412,3.4973412,3.4973412,3.4973412,3.4973412,0.0,0.0,0.0,0.0,0.0,0,0,0,0,0,0,0,1,0,0,1,0,0
225975210,20.9674,20.990265,0.0,0.0,0.0,0.0,0.19675379,1.1057354,nan,6,3.4983776,3.4983776,3.4983776,3.4983776,3.4983776,3.4983776,0.0,0.0,0.0,0.0,0.0,0,0,0,0,0,0,0,1,0,0,1,0,0
226275207,20.852598,20.976284,0.0,0.0,0.0,0.0,0.19209318,1.1064142,nan,6,3.4960473,3.4960473,3.4960473,3.4960473,3.4960473,3.4960473,0.0,0.0,0.0,0.0,0.0,0,0,0,0,0,0,0,1,0,0,1,0,0
226575203,20.8608,20.987123,0.0,0.0,0.0,0.0,0.19570665,1.1058879,nan,6,3.497854,3.497854,3.497854,3.497854,3.497854,3.497854,0.0,0.0,0.0,0.0,0.0,0,0,0,0,0,0,0,1,0,0,1,0,0
226875206,20.828,20.960863,0.0,0.0,0.0,0.0,0.18695287,1.1071638,nan,6,3.493477,3.493477,3.493477,3.493477,3.493477,3.493477,0.0,0.0,0.0,0.0,0.0,0,0,0,0,0,0,0,1,0,0,1,0,0
227175203,21.0084,20.955626,0.0,0.0,0.0,0.0,0.18520717,1.1074187,nan,6,3.4926043,3.4926043,3.4926043,3.4926043,3.4926043,3.4926043,0.0,0.0,0.0,0.0,0.0,0,0,0,0,0,0,0,1,0,0,1,0,0
227475212,20.9018,20.96684,0.0,0.0,0.0,0.0,0.18894558,1.1068732,nan,6,3.4944735,3.4944735,3.4944735,3.4944735,3.4944735,3.4944735,0.0,0.0,0.0,0.0,0.0,0,0,0,0,0,0,0,1,0,0,1,0,0
227775206,21.229801,20.964558,0.0,0.0,0.0,0.0,0.18818454,1.1069841,nan,6,3.494093,3.494093,3.494093,3.494093,3.494093,3.494093,0.0,0.0,0.0,0.0,0.0,0,0,0,0,0,0,0,1,0,0,1,0,0
228075217,20.9756,20.980919,0.0,0.0,0.0,0.0,0.19363813,1.1061891,nan,6,3.4968197,3.4968197,3.4968197,3.4968197,3.4968197,3.4968197,0.0,0.0,0.0,0.0,0.0,0,0,0,0,0,0,0,1,0,0,1,0,0
228375208,21.115,20.991665,0.0,0.0,0.0,0.0,0.19722013,1.1056676,nan,6,3.4986107,3.4986107,3.4986107,3.4986107,3.4986107,3.4986107,0.0,0.0,0.0,0.0,0.0,0,0,0,0,0,0,0,1,0,0,1,0,0
228675218,21.0658,20.99225,0.0,0.0,0.0,0.0,0.19741563,1.1056391,nan,6,3.4987085,3.4987085,3.4987085,3.4987085,3.4987085,3.4987085,0.0,0.0,0.0,0.0,0.0,0,0,0,0,0,0,0,1,0,0,1,0,0
228976792,20.951,20.987642,0.0,0.0,0.0,0.0,0.19587927,1.1058627,nan,6,3.4979403,3.4979403,3.4979403,3.4979403,3.4979403,3.4979403,0.0,0.0,0.0,0.0,0.0,0,0,0,0,0,0,0,1,0,0,1,0,0
229277088,20.828,20.981041,0.0,0.0,0.0,0.0,0.19367914,1.1061832,nan,6,3.4968402,3.4968402,3.4968402,3.4968402,3.4968402,3.4968402,0.0,0.0,0.0,0.0,0.0,0,0,0,0,0,0,0,1,0,0,1,0,0
229575212,20.746,20.94466,0.0,0.0,0.0,0.0,0.18155222,1.1079525,nan,6,3.4907768,3.4907768,3.4907768,3.4907768,3.4907768,3.4907768,0.0,0.0,0.0,0.0,0.0,0,0,0,0,0,0,0,1,0,0,1,0,0
229875220,20.951,20.950039,0.0,0.0,0.0,0.0,0.18334512,1.1076906,nan,6,3.4916732,3.4916732,3.4916732,3.4916732,3.4916732,3.4916732,0.0,0.0,0.0,0.0,0.0,0,0,0,0,0,0,0,1,0,0,1,0,0
230177046,21.016598,20.945164,0.0,0.0,0.0,0.0,0.18172006,1.107928,nan,6,3.4908607,3.4908607,3.4908607,3.4908607,3.4908607,3.4908607,0.0,0.0,0.0,0.0,0.0,0,0,0,0,0,0,0,1,0,0,1,0,0
230475208,21.0084,20.958845,0.0,0.0,0.0,0.0,0.18628053,1.107262,nan,6,3.493141,3.493141,3.493141,3.493141,3.493141,3.493141,0.0,0.0,0.0,0.0,0.0,0,0,0,0,0,0,0,1,0,0,1,0,0
230775214,20.885399,20.974604,0.0,0.0,0.0,0.0,0.19153337,1.1064959,nan,6,3.4957674,3.4957674,3.4957674,3.4957674,3.4957674,3.4957674,0.0,0.0,0.0,0.0,0.0,0,0,0,0,0,0,0,1,0,0,1,0,0
231078875,20.9592,20.979708,0.0,0.0,0.0,0.0,0.19323473,1.1062479,nan,6,3.496618,3.496618,3.496618,3.496618,3.496618,3.496618,0.0,0.0,0.0,0.0,0.0,0,0,0,0,0,0,0,1,0,0,1,0,0
231375217,20.893599,21.004757,0.0,0.0,0.0,0.0,0.20158415,1.1050328,nan,6,3.5007927,3.5007927,3.5007927,3.5007927,3.5007927,3.5007927,0.0,0.0,0.0,0.0,0.0,0,0,0,0,0,0,0,1,0,0,1,0,0
231675210,21.057598,21.0212,0.0,0.0,0.0,0.0,0.20706539,1.1042366,nan,6,3.5035334,3.5035334,3.5035334,3.5035334,3.5035334,3.5035334,0.0,0.0,0.0,0.0,0.0,0,0,0,0,0,0,0,1,0,0,1,0,0
233475216,22.8698,22.048162,0.0,0.0,0.0,0.0,0.46182567,1.0684541,nan,6,3.6746938,3.6746938,3.6746938,3.6746938,3.6746938,3.6746938,0.0,0.0,0.0,0.0,0.0,0,0,0,0,0,0,0,1,0,0,1,0,0
233775222,22.8452,22.267303,0.0,0.0,0.0,0.0,0.51512796,1.0612589,nan,6,3.7112172,3.7112172,3.7112172,3.7112172,3.7112172,3.7112172,0.0,0.0,0.0,0.0,0.0,0,0,0,0,0,0,0,1,0,0,1,0,0
234075204,22.714,22.421276,0.0,0.0,0.0,0.0,0.5516098,1.0563898,nan,6,3.7368793,3.7368793,3.7368793,3.7368793,3.7368793,3.7368793,0.0,0.0,0.0,0.0,0.0,0,0,0,0,0,0,0,1,0,0,1,0,0
234375214,22.960001,22.533907,0.0,0.0,0.0,0.0,0.5781415,1.0528767,nan,6,3.7556512,3.7556512,3.7556512,3.7556512,3.7556512,3.7556512,0.0,0.0,0.0,0.0,0.0,0,0,0,0,0,0,0,1,0,0,1,0,0
234676881,22.837,22.62654,0.0,0.0,0.0,0.0,0.600848,1.0498887,nan,6,3.7710898,3.7710898,3.7710898,3.7710898,3.7710898,3.7710898,0.0,0.0,0.0,0.0,0.0,0,0,0,0,0,0,0,1,0,0,1,0,0
234975213,22.9026,22.687906,0.0,0.0,0.0,0.0,0.6152428,1.0480032,nan,6,3.7813177,3.7813177,3.7813177,3.7813177,3.7813177,3.7813177,0.0,0.0,0.0,0.0,0.0,0,0,0,0,0,0,0,1,0,0,1,0,0
235275211,22.9354,22.725536,0.0,0.0,0.0,0.0,0.623288,1.0469522,nan,6,3.7875893,3.7875893,3.7875893,3.7875893,3.7875893,3.7875893,0.0,0.0,0.0,0.0,0.0,0,0,0,0,0,0,0,1,0,0,1,0,0
235575255,22.796,22.748453,0.0,0.0,0.0,0.0,0.62759095,1.0463911,nan,6,3.7914088,3.7914088,3.7914088,3.7914088,3.7914088,3.7914088,0.0,0.0,0.0,0.0,0.0,0,0,0,0,0,0,0,1,0,0,1,0,0
235875210,22.2794,22.704283,0.0,0.0,0.0,0.0,0.615156,1.0480145,nan,6,3.7840471,3.7840471,3.7840471,3.7840471,3.7840471,3.7840471,0.0,0.0,0.0,0.0,0.0,0,0,0,0,0,0,0,1,0,0,1,0,0
236175209,22.320398,22.573624,0.0,0.0,0.0,0.0,0.58044416,1.052573,nan,6,3.7622707,3.7622707,3.7622707,3.7622707,3.7622707,3.7622707,0.0,0.0,0.0,0.0,0.0,0,0,0,0,0,0,0,1,0,0,1,0,0
236475212,22.353199,22.497818,0.0,0.0,0.0,0.0,0.5617679,1.055042,nan,6,3.7496364,3.7496364,3.7496364,3.7496364,3.7496364,3.7496364,0.0,0.0,0.0,0.0,0.0,0,0,0,0,0,0,0,1,0,0,1,0,0
236775206,22.263,22.447927,0.0,0.0,0.0,0.0,0.5500286,1.0566,nan,6,3.7413213,3.7413213,3.7413213,3.7413213,3.7413213,3.7413213,0.0,0.0,0.0,0.0,0.0,0,0,0,0,0,0,0,1,0,0,1,0,0
237075206,22.2712,22.42316,0.0,0.0,0.0,0.0,0.5454014,1.0572153,nan,6,3.7371933,3.7371933,3.7371933,3.7371933,3.7371933,3.7371933,0.0,0.0,0.0,0.0,0.0,0,0,0,0,0,0,0,1,0,0,1,0,0
237375204,22.1482,22.407272,0.0,0.0,0.0,0.0,0.54279786,1.0575619,nan,6,3.7345455,3.7345455,3.7345455,3.7345455,3.7345455,3.7345455,0.0,0.0,0.0,0.0,0.0,0,0,0,0,0,0,0,1,0,0,1,0,0
237675231,22.345,22.401299,0.0,0.0,0.0,0.0,0.5428036,1.057561,nan,6,3.7335498,3.7335498,3.7335498,3.7335498,3.7335498,3.7335498,0.0,0.0,0.0,0.0,0.0,0,0,0,0,0,0,0,1,0,0,1,0,0
237975215,22.4352,22.395468,0.0,0.0,0.0,0.0,0.542342,1.0576226,nan,6,3.732578,3.732578,3.732578,3.732578,3.732578,3.732578,0.0,0.0,0.0,0.0,0.0,0,0,0,0,0,0,0,1,0,0,1,0,0
238275209,22.4352,22.392738,0.0,0.0,0.0,0.0,0.5425318,1.0575973,nan,6,3.7321231,3.7321231,3.7321231,3.7321231,3.7321231,3.7321231,0.0,0.0,0.0,0.0,0.0,0,0,0,0,0,0,0,1,0,0,1,0,0
238575221,22.361399,22.404984,0.0,0.0,0.0,0.0,0.5474294,1.0569456,nan,6,3.734164,3.734164,3.734164,3.734164,3.734164,3.734164,0.0,0.0,0.0,0.0,0.0,0,0,0,0,0,0,0,1,0,0,1,0,0
238875209,22.468,22.406359,0.0,0.0,0.0,0.0,0.5484927,1.0568041,nan,6,3.7343931,3.7343931,3.7343931,3.7343931,3.7343931,3.7343931,0.0,0.0,0.0,0.0,0.0,0,0,0,0,0,0,0,1,0,0,1,0,0
239175215,22.263,22.413641,0.0,0.0,0.0,0.0,0.5513695,1.0564218,nan,6,3.735607,3.735607,3.735607,3.735607,3.735607,3.735607,0.0,0.0,0.0,0.0,0.0,0,0,0,0,0,0,0,1,0,0,1,0,0
239475209,22.386,22.423595,0.0,0.0,0.0,0.0,0.55502015,1.0559369,nan,6,3.7372658,3.7372658,3.7372658,3.7372658,3.7372658,3.7372658,0.0,0.0,0.0,0.0,0.0,0,0,0,0,0,0,0,1,0,0,1,0,0
239775209,22.4844,22.433962,0.0,0.0,0.0,0.0,0.5588296,1.0554316,nan,6,3.7389936,3.7389936,3.7389936,3.7389936,3.7389936,3.7389936,0.0,0.0,0.0,0.0,0.0,0,0,0,0,0,0,0,1,0,0,1,0,0
240076765,22.500801,22.431412,0.0,0.0,0.0,0.0,0.5583218,1.0554988,nan,6,3.7385685,3.7385685,3.7385685,3.7385685,3.7385685,3.7385685,0.0,0.0,0.0,0.0,0.0,0,0,0,0,0,0,0,1,0,0,1,0,0
240375205,22.427,22.430126,0.0,0.0,0.0,0.0,0.55814725,1.0555221,nan,6,3.7383544,3.7383544,3.7383544,3.7383544,3.7383544,3.7383544,0.0,0.0,0.0,0.0,0.0,0,0,0,0,0,0,0,1,0,0,1,0,0
240675206,22.320398,22.429981,0.0,0.0,0.0,0.0,0.55822545,1.0555117,nan,6,3.7383301,3.7383301,3.7383301,3.7383301,3.7383301,3.7383301,0.0,0.0,0.0,0.0,0.0,0,0,0,0,0,0,0,1,0,0,1,0,0
240975237,22.4926,22.424881,0.0,0.0,0.0,0.0,0.55649453,1.0557413,nan,6,3.7374802,3.7374802,3.7374802,3.7374802,3.7374802,3.7374802,0.0,0.0,0.0,0.0,0.0,0,0,0,0,0,0,0,1,0,0,1,0,0
241275205,22.222,22.41522,0.0,0.0,0.0,0.0,0.553294,1.0561662,nan,6,3.7358701,3.7358701,3.7358701,3.7358701,3.7358701,3.7358701,0.0,0.0,0.0,0.0,0.0,0,0,0,0,0,0,0,1,0,0,1,0,0
241575214,22.328598,22.40123,0.0,0.0,0.0,0.0,0.5487893,1.0567647,nan,6,3.7335384,3.7335384,3.7335384,3.7335384,3.7335384,3.7335384,0.0,0.0,0.0,0.0,0.0,0,0,0,0,0,0,0,1,0,0,1,0,0
241875221,22.1892,22.379278,0.0,0.0,0.0,0.0,0.54158956,1.0577227,nan,6,3.7298796,3.7298796,3.7298796,3.7298796,3.7298796,3.7298796,0.0,0.0,0.0,0.0,0.0,0,0,0,0,0,0,0,1,0,0,1,0,0
242176957,22.181,22.321642,0.0,0.0,0.0,0.0,0.5229228,1.0602148,nan,6,3.7202737,3.7202737,3.7202737,3.7202737,3.7202737,3.7202737,0.0,0.0,0.0,0.0,0.0,0,0,0,0,0,0,0,1,0,0,1,0,0
242475207,22.369598,22.31478,0.0,0.0,0.0,0.0,0.52151424,1.0604033,nan,6,3.7191298,3.7191298,3.7191298,3.7191298,3.7191298,3.7191298,0.0,0.0,0.0,0.0,0.0,0,0,0,0,0,0,0,1,0,0,1,0,0
242775207,22.369598,22.30711,0.0,0.0,0.0,0.0,0.5196107,1.0606582,nan,6,3.7178516,3.7178516,3.7178516,3.7178516,3.7178516,3.7178516,0.0,0.0,0.0,0.0,0.0,0,0,0,0,0,0,0,1,0,0,1,0,0
243075207,22.4024,22.31279,0.0,0.0,0.0,0.0,0.5219882,1.0603398,nan,6,3.7187984,3.7187984,3.7187984,3.7187984,3.7187984,3.7187984,0.0,0.0,0.0,0.0,0.0,0,0,0,0,0,0,0,1,0,0,1,0,0
