timestamp,lat,lon,alt,alt_ellipsoid,delta_alt,eph,epv,terrain_alt,lat_lon_reset_counter,alt_reset_counter,terrain_alt_valid,dead_reckoning
128304852,49.08961762052562,2.1103547169244297,86.11648,131.64417,-0.0,0.6248792,0.82225895,86.02269,2,0,1,0
128504848,49.089617615211345,2.1103547684544046,86.11971,131.63968,-0.0,0.6246512,0.8218688,86.02575,2,0,1,0
128704871,49.08961761310954,2.1103548233055682,86.121765,131.63374,-0.0,0.6244222,0.82267743,86.0257,2,0,1,0
128904884,49.08961763448831,2.1103548802916645,86.12404,131.62888,-0.0,0.6241932,0.82229185,86.02441,2,0,1,0
129104886,49.089617649419644,2.1103549330965024,86.12183,131.61948,-0.0,0.6239829,0.821915,86.01921,2,0,1,0
129304848,49.08961763775064,2.110354953361476,86.12127,131.61143,-0.0,0.62377036,0.8227292,86.02138,2,0,1,0
129504848,49.08961765781024,2.1103549867327622,86.11952,131.60245,-0.0,0.62357473,0.8223558,86.019516,2,0,1,0
129704848,49.089617652254745,2.110355008637867,86.12179,131.59741,-0.0,0.6233937,0.82197815,86.02767,2,0,1,0
129904861,49.089617698314825,2.1103550443133177,86.1289,131.597,-0.0,0.62320685,0.82278913,86.03458,2,0,1,0
130104849,49.08961770113224,2.110355024636867,86.12379,131.58418,-0.0,0.6230149,0.8224074,86.01898,2,0,1,0
130304849,49.089617714016974,2.1103550322377425,86.121056,131.57446,-0.0,0.6228374,0.822026,86.020836,2,0,1,0
130504848,49.089617741994374,2.1103550277354164,86.11791,131.56427,-0.0,0.62269086,0.821653,86.018845,2,0,1,0
130704861,49.08961777355519,2.110354986400444,86.11648,131.55656,-0.0,0.62255216,0.82246876,86.017456,2,0,1,0
130904848,49.089617822984806,2.1103549655395817,86.11512,131.54895,-0.0,0.62248385,0.82210267,86.01542,2,0,1,0
131104848,49.08961788771938,2.110354907952073,86.111206,131.5388,-0.0,0.6224138,0.8217442,86.00742,2,0,1,0
131304853,49.08961794704961,2.1103548414315316,86.10264,131.52481,-0.0,0.62231433,0.8225685,85.999054,2,0,1,0
131504853,49.089618035195606,2.1103548069589166,86.09961,131.51671,-0.0,0.6222141,0.82216805,86.00035,2,0,1,0
131704867,49.08961812959073,2.1103547866020658,86.10017,131.5126,-0.0,0.62211305,0.82296985,86.006256,2,0,1,0
131904948,49.089618228153014,2.110354810157128,86.10336,131.51128,-0.0,0.62201107,0.8225751,86.00711,2,0,1,0
132104848,49.08961832151733,2.110354830022459,86.10529,131.50879,-0.0,0.6219083,0.82218546,86.00612,2,0,1,0
132304850,49.08961841993863,2.1103547891786074,86.10407,131.50342,-0.0,0.62182325,0.82180065,86.00143,2,0,1,0
132504907,49.08961852488029,2.110354771413838,86.102036,131.49777,-0.0,0.62173474,0.8226128,86.001076,2,0,1,0
132704866,49.089618617473256,2.110354738840623,86.10149,131.49385,-0.0,0.6216431,0.8222362,85.99973,2,0,1,0
132904872,49.089618706992574,2.110354722035785,86.102234,131.49153,-0.0,0.6215673,0.8230377,86.00506,2,0,1,0
133104863,49.08961879395018,2.1103547070090003,86.1078,131.49423,-0.0,0.6215047,0.8226249,86.011856,2,0,1,0
133304880,49.0896188681292,2.1103547082910263,86.113396,131.4967,-0.0,0.6214806,0.82222635,86.017265,2,0,1,0
133504849,49.08961893187263,2.11035471516423,86.114914,131.49524,-0.0,0.6214187,0.8230237,86.013535,2,0,1,0
133704851,49.08961899750987,2.1103546965134,86.11019,131.48734,-0.0,0.62139463,0.8226313,86.00444,2,0,1,0
133904875,49.089619042314574,2.110354724882443,86.10736,131.4811,-0.0,0.6213408,0.82224023,86.00517,2,0,1,0
134104861,49.089619092517694,2.110354739756782,86.10608,131.4762,-0.0,0.6212146,0.82185465,86.00263,2,0,1,0
134704851,49.08961930640306,2.1103548441550433,86.09786,131.45718,-0.0,0.62077767,0.82188183,85.99559,2,0,1,0
134904848,49.0896194328307,2.1103548913670727,86.09474,131.4503,-0.0,0.6206661,0.82268894,85.99162,2,0,1,0
135104849,49.08961956961834,2.1103549638534846,86.094574,131.44632,-0.0,0.62057334,0.82230175,85.99445,2,0,1,0
135304896,49.08961971473816,2.110355030756087,86.09676,131.44444,-0.0,0.620497,0.8219234,85.99529,2,0,1,0
135504856,49.08961983547362,2.110355083812221,86.09624,131.44052,-0.0,0.6203882,0.8227327,85.99568,2,0,1,0
135704854,49.08961996123335,2.1103551133368286,86.09013,131.43066,-0.0,0.6203411,0.8223581,85.984344,2,0,1,0
136104851,49.08962028186738,2.1103552411643087,86.07156,131.40555,-0.0,0.6202325,0.82278574,85.96399,2,0,1,0
136304848,49.089620424798554,2.1103552888283743,86.06428,131.39557,-0.0,0.62021357,0.8224032,85.963264,2,0,1,0
136504848,49.08962055653672,2.1103553348469886,86.06229,131.39113,-0.0,0.62024444,0.8220249,85.96661,2,0,1,0
136704859,49.08962070138744,2.110355360625389,86.06496,131.39133,-0.0,0.6202296,0.82165134,85.96911,2,0,1,0
136904855,49.089620827272626,2.1103553863346223,86.064804,131.38869,-0.0,0.62021834,0.82246673,85.966774,2,0,1,0
137104883,49.08962095613762,2.110355429504751,86.068665,131.39035,-0.0,0.62021023,0.82209647,85.97324,2,0,1,0
137304894,49.08962105726217,2.110355463894705,86.067184,131.38663,-0.0,0.62020373,0.821734,85.96668,2,0,1,0
137504948,49.089621160048154,2.1103555113541375,86.06686,131.38432,-0.0,0.62019914,0.82256186,85.96881,2,0,1,0
137704851,49.08962130134628,2.110355589442782,86.064476,131.37976,-0.0,0.62019545,0.8222013,85.96188,2,0,1,0
137904848,49.089621441457616,2.1103556626143094,86.05748,131.37068,-0.0,0.6201927,0.8218478,85.95617,2,0,1,0
138104848,49.08962159341245,2.1103557187415753,86.047615,131.35892,-0.0,0.6201909,0.8214929,85.94029,2,0,1,0
138304848,49.0896217457181,2.110355798124728,86.042336,131.35193,-0.0,0.62018967,0.82232624,85.94373,2,0,1,0
138504898,49.08962189649471,2.110355861368095,86.037704,131.34567,-0.0,0.62018883,0.82197624,85.93782,2,0,1,0
138704851,49.089622037425656,2.1103559285062348,86.034065,131.34045,-0.0,0.6201881,0.82162863,85.93712,2,0,1,0
138904853,49.08962213895088,2.1103560185204615,86.03407,131.33899,-0.0,0.6201877,0.8212872,85.9363,2,0,1,0
139104848,49.08962222711162,2.110356080606832,86.03313,131.33664,-0.0,0.6201876,0.8221285,85.935875,2,0,1,0
139304848,49.08962232781054,2.1103561296448032,86.03328,131.33551,-0.0,0.6201874,0.8217865,85.93632,2,0,1,0
139504878,49.0896224283288,2.110356214835839,86.03559,131.33672,-0.0,0.62018716,0.8214503,85.93744,2,0,1,0
139704907,49.089622521350876,2.110356314592422,86.0322,131.33247,-0.0,0.620187,0.8222921,85.93018,2,0,1,0
139904848,49.089622631000545,2.1103563647810435,86.02565,131.32555,-0.0,0.62018687,0.82195485,85.92177,2,0,1,0
140104858,49.08962271745401,2.1103563921523043,86.0164,131.31673,-0.0,0.62018675,0.82161885,85.91114,2,0,1,0
140504848,49.08962288271649,2.1103564367736944,86.00683,131.30902,-0.0,0.6201866,0.82213163,85.905624,2,0,1,0
140704851,49.089622962364416,2.1103564566910062,86.00405,131.30771,-0.0,0.6201864,0.8217833,85.90747,2,0,1,0
140904852,49.089623027911344,2.110356487032713,86.00493,131.31015,-0.0,0.6201863,0.821433,85.90825,2,0,1,0
141104886,49.08962307064694,2.110356494326233,86.00558,131.31245,-0.0,0.6201861,0.822269,85.90798,2,0,1,0
141304868,49.08962310333744,2.1103564966046156,86.00516,131.31372,-0.0,0.6201858,0.8219185,85.90904,2,0,1,0
141504865,49.08962312146275,2.110356494511225,86.00437,131.31467,-0.0,0.6201855,0.82157403,85.90322,2,0,1,0
141704883,49.0896231368556,2.110356510764789,86.00475,131.317,-0.0,0.6201853,0.82241076,85.90876,2,0,1,0
141904848,49.089623156686045,2.1103565143565026,86.00882,131.32315,-0.0,0.62018514,0.8220658,85.91277,2,0,1,0
142104848,49.08962315457164,2.1103565257479935,86.00871,131.32552,-0.0,0.6202304,0.82173026,85.90767,2,0,1,0
142304848,49.08962315479624,2.1103565442025847,86.01002,131.3297,-0.0,0.6202254,0.82139224,85.911446,2,0,1,0
142504875,49.08962315364885,2.1103565268051256,86.00976,131.33238,-0.0,0.6202208,0.822235,85.90913,2,0,1,0
144904849,49.08962333186895,2.1103568278672515,86.0001,131.36852,-0.0,0.6201893,0.8216679,85.894066,2,0,1,0
145104915,49.08962335234679,2.11035687686245,85.99624,131.3693,-0.0,0.62018824,0.8213265,85.89192,2,0,1,0
145304976,49.089623383474084,2.1103569112165927,85.99384,131.37216,-0.0,0.6201876,0.82215625,85.8937,2,0,1,0
145504853,49.089623380716574,2.1103569550673242,85.995316,131.3787,-0.0,0.6201416,0.82179075,85.895424,2,0,1,0
145704848,49.08962337999936,2.110357035979486,85.99249,131.38124,-0.0,0.62010026,0.8226162,85.89015,2,0,1,0
145904880,49.08962336503009,2.1103571378849106,85.99552,131.3897,-0.0,0.62006336,0.8222515,85.89775,2,0,1,0
146104905,49.0896233487777,2.110357213921903,85.997025,131.39705,-0.0,0.6200756,0.82189715,85.89687,2,0,1,0
146304848,49.08962340097904,2.110357340363607,85.99873,131.40448,-0.0,0.62008715,0.82154113,85.896675,2,0,1,0
146504848,49.08962346115689,2.110357464860075,85.99912,131.4107,-0.0,0.62009794,0.82237417,85.897995,2,0,1,0
146704859,49.089623503231536,2.110357564907441,86.001144,131.41856,-0.0,0.62010795,0.8220265,85.90078,2,0,1,0
146904849,49.08962353398077,2.1103576574648413,86.002655,131.42645,-0.0,0.6201172,0.8216727,85.90127,2,0,1,0
147104859,49.08962358499801,2.1103577298499654,86.00719,131.43741,-0.0,0.62012565,0.8224989,85.909386,2,0,1,0
147304855,49.089623624818614,2.110357804961205,86.01081,131.44763,-0.0,0.6201334,0.82213396,85.90944,2,0,1,0
147504878,49.089623673548566,2.110357898433725,86.014275,131.45767,-0.0,0.6201404,0.8217719,85.91235,2,0,1,0
147704849,49.089623736333955,2.1103580114556224,86.02016,131.4705,-0.0,0.62014663,0.8226007,85.92024,2,0,1,0
147904851,49.089623762973275,2.110358079437868,86.02386,131.48119,-0.0,0.62015224,0.8222399,85.921616,2,0,1,0
148104848,49.089623787655256,2.110358145119225,86.02465,131.4892,-0.0,0.6201571,0.8218857,85.91887,2,0,1,0
148304848,49.08962382464558,2.1103582077032623,86.022804,131.49475,-0.0,0.62016135,0.821534,85.91372,2,0,1,0
148504848,49.08962383107789,2.1103582967737204,86.0213,131.50078,-0.0,0.62016493,0.82235473,85.916756,2,0,1,0
148704848,49.0896238551709,2.110358402582723,86.020226,131.50764,-0.0,0.62016803,0.82196784,85.91556,2,0,1,0
148904857,49.08962388683972,2.110358475968909,86.01904,131.51457,-0.0,0.62017065,0.82277757,85.913445,2,0,1,0
149104853,49.08962391523911,2.11035858195717,86.016785,131.52026,-0.0,0.62017286,0.82239056,85.912025,2,0,1,0
149304862,49.089623947740535,2.1103585756119245,86.01087,131.5227,-0.0,0.62017477,0.82201195,85.90612,2,0,1,0
149504854,49.08962395542986,2.110358611303954,86.01053,131.53134,-0.0,0.6201764,0.8228267,85.90857,2,0,1,0
149704849,49.08962396510359,2.110358704429004,86.01327,131.54254,-0.0,0.6201778,0.8224513,85.913895,2,0,1,0
149904848,49.089623951283464,2.1103587993891972,86.01479,131.55252,-0.0,0.62017894,0.8220837,85.90969,2,0,1,0
150104880,49.08962390301852,2.110358797872454,86.01058,131.55696,-0.0,0.62017995,0.8217194,85.90503,2,0,1,0
150304883,49.089623868711314,2.110358792510665,86.00997,131.56516,-0.0,0.62018067,0.822545,85.90956,2,0,1,0
150504858,49.08962386540208,2.110358838460928,86.00965,131.57358,-0.0,0.62018126,0.8221866,85.90945,2,0,1,0
150704855,49.089623884362936,2.1103589166780807,86.00944,131.58241,-0.0,0.62018174,0.821827,85.90611,2,0,1,0
150904848,49.08962385337286,2.110359025966241,86.00529,131.58731,-0.0,0.62018204,0.8214702,85.89931,2,0,1,0
151104876,49.08962381619197,2.110359056648448,86.003975,131.59517,-0.0,0.6201824,0.8223012,85.90301,2,0,1,0
151304848,49.089623728755406,2.1103590675565855,86.00722,131.6075,-0.0,0.6201827,0.8219494,85.90728,2,0,1,0
151504875,49.08962370895299,2.110359072032718,86.01466,131.62384,-0.0,0.62018293,0.8215841,85.91951,2,0,1,0
151704928,49.08962372473204,2.1103591540061073,86.02407,131.641,-0.0,0.62013763,0.8224016,85.924965,2,0,1,0
151904865,49.08962372587273,2.110359210562481,86.021835,131.64651,-0.0,0.62014234,0.8220382,85.91291,2,0,1,0
152104851,49.08962370421023,2.11035926810641,86.01935,131.65231,-0.0,0.62014663,0.82167387,85.913124,2,0,1,0
152304848,49.089623704596455,2.1103593295608714,86.01752,131.65848,-0.0,0.6201507,0.8225023,85.912056,2,0,1,0
152504882,49.08962371430489,2.110359400163641,86.0154,131.66402,-0.0,0.6201544,0.82214355,85.9131,2,0,1,0
152704887,49.089623694479286,2.1103594916266606,86.01622,131.6725,-0.0,0.6201125,0.8217839,85.91517,2,0,1,0
152904853,49.08962365226056,2.1103595417203205,86.0156,131.67935,-0.0,0.62012005,0.82143444,85.91205,2,0,1,0
153104880,49.0896236429973,2.1103596008165937,86.01259,131.68388,-0.0,0.62012714,0.82225937,85.90591,2,0,1,0
153304861,49.08962361363463,2.110359683628152,86.008766,131.68791,-0.0,0.6201337,0.82189083,85.903786,2,0,1,0
153504852,49.08962359942802,2.110359756457732,86.00672,131.69424,-0.0,0.62013984,0.82152975,85.905075,2,0,1,0
153704852,49.08962360473841,2.110359811175687,86.005165,131.70067,-0.0,0.6201454,0.8223538,85.900406,2,0,1,0
153904850,49.089623609851536,2.1103598863806448,86.006325,131.70966,-0.0,0.62015045,0.8219942,85.90504,2,0,1,0
154104848,49.08962360485566,2.1103599679725957,86.010155,131.72072,-0.0,0.620155,0.8216374,85.91234,2,0,1,0
154304883,49.08962362254932,2.1103600458918033,86.01489,131.73212,-0.0,0.6201589,0.82246816,85.91816,2,0,1,0
154504863,49.08962361633262,2.110360121870271,86.01719,131.74054,-0.0,0.6202078,0.822116,85.91614,2,0,1,0
154704848,49.08962361024243,2.110360140900289,86.01931,131.74875,-0.0,0.62025183,0.8217506,85.91779,2,0,1,0
154904848,49.08962360684716,2.1103601080682064,86.01452,131.7493,-0.0,0.6202458,0.8225721,85.906586,2,0,1,0
155104848,49.089623615413984,2.110360088329341,86.008,131.74803,-0.0,0.62023985,0.82220495,85.9014,2,0,1,0
155304892,49.0896236267422,2.110360032999947,86.00815,131.75262,-0.0,0.62023425,0.8218411,85.905785,2,0,1,0
155504855,49.08962361028639,2.1103599559590225,86.005714,131.75491,-0.0,0.6202288,0.82266986,85.90518,2,0,1,0
155704848,49.089623551922784,2.1103598778531847,86.004364,131.75757,-0.0,0.62017816,0.8223038,85.90198,2,0,1,0
155904849,49.089623554991995,2.1103597851758726,86.00173,131.7594,-0.0,0.6201779,0.8219483,85.90142,2,0,1,0
156104875,49.08962354781807,2.1103597370135296,86.000694,131.76218,-0.0,0.6201324,0.8215956,85.9017,2,0,1,0
156304848,49.08962354325733,2.1103597205406,85.994255,131.75941,-0.0,0.62013674,0.82242876,85.89035,2,0,1,0
156504848,49.08962356888287,2.110359680622502,85.99166,131.76025,-0.0,0.620141,0.82208014,85.8928,2,0,1,0
156704878,49.08962355158576,2.1103596237579487,85.99258,131.76425,-0.0,0.6201451,0.8217335,85.89481,2,0,1,0
156904848,49.08962353417915,2.110359587909169,85.99347,131.76779,-0.0,0.62019426,0.8213926,85.89762,2,0,1,0
157104861,49.08962349795401,2.1103595317833377,85.988846,131.76506,-0.0,0.62019336,0.8222292,85.886406,2,0,1,0
157304848,49.08962345913859,2.1103595070371055,85.98176,131.76004,-0.0,0.620238,0.8218882,85.873604,2,0,1,0
157504881,49.08962338615764,2.110359470769231,85.97573,131.75604,-0.0,0.62027824,0.8215488,85.87395,2,0,1,0
157704856,49.08962330107081,2.1103593992484693,85.974464,131.7567,-0.0,0.6202686,0.82237434,85.87715,2,0,1,0
157904885,49.089623252718894,2.110359404750626,85.97811,131.76202,-0.0,0.6202596,0.8220155,85.88522,2,0,1,0
158104938,49.08962322177103,2.110359418542044,85.98016,131.76556,-0.0,0.62025106,0.82165927,85.88623,2,0,1,0
158304848,49.08962320481027,2.110359403739734,85.982574,131.76909,-0.0,0.6202432,0.82249093,85.88451,2,0,1,0
158504884,49.08962322476589,2.1103594073686924,85.98457,131.77196,-0.0,0.62023586,0.82213926,85.88642,2,0,1,0
158704848,49.08962322355068,2.1103594031291126,85.98418,131.77199,-0.0,0.6202292,0.8217858,85.884895,2,0,1,0
158904883,49.089623185985985,2.1103593836615846,85.9792,131.76692,-0.0,0.62022305,0.8214386,85.872055,2,0,1,0
159104901,49.089623119929286,2.110359326035383,85.97029,131.7579,-0.0,0.6202175,0.82226557,85.86485,2,0,1,0
159304848,49.08962305908528,2.110359298258129,85.96237,131.74948,-0.0,0.6202126,0.82190263,85.85899,2,0,1,0
159504851,49.08962302638593,2.1103592803609525,85.95446,131.74101,-0.0,0.62020814,0.82154256,85.85224,2,0,1,0
159704855,49.089622957840135,2.1103592324568483,85.94504,131.73117,-0.0,0.62020427,0.8223677,85.843636,2,0,1,0
159904848,49.08962290153557,2.110359192045166,85.94267,131.72852,-0.0,0.6202009,0.82200885,85.84918,2,0,1,0
160104848,49.08962288383401,2.110359127168836,85.94477,131.72977,-0.0,0.6202433,0.8216562,85.85301,2,0,1,0
160304879,49.08962289210776,2.110359087242551,85.94415,131.72806,-0.0,0.6202361,0.82248783,85.84748,2,0,1,0
160504848,49.08962289773133,2.110359019563984,85.942604,131.7255,-0.0,0.62022954,0.8221361,85.84771,2,0,1,0
160704848,49.08962288026241,2.1103589062097687,85.93973,131.72067,-0.0,0.62022346,0.82295066,85.843735,2,0,1,0
160904852,49.08962283644538,2.1103588233716004,85.93692,131.71605,-0.0,0.6202179,0.8225642,85.84265,2,0,1,0
161104877,49.08962281030713,2.1103586648443167,85.9275,131.70447,-0.0,0.620213,0.822178,85.82655,2,0,1,0
161304851,49.08962279391135,2.1103585589121288,85.91916,131.6939,-0.0,0.62020856,0.82179624,85.82083,2,0,1,0
161504848,49.089622809741876,2.110358481271227,85.91294,131.6851,-0.0,0.6202499,0.82261467,85.8184,2,0,1,0
162704880,49.089622833190866,2.1103581584325224,85.90253,131.66261,-0.0,0.620212,0.8216048,85.811005,2,0,1,0
162904848,49.08962281519689,2.1103581292244833,85.90584,131.6647,-0.0,0.62020785,0.8224333,85.81521,2,0,1,0
163104848,49.08962285653449,2.1103581993651948,85.91491,131.67267,-0.0,0.62020457,0.822076,85.81964,2,0,1,0
163304848,49.089622895195106,2.1103583129858436,85.92384,131.68073,-0.0,0.6202021,0.82172155,85.82861,2,0,1,0
163504848,49.089622791825114,2.1103582675749815,85.92422,131.6804,-0.0,0.620199,0.8213735,85.82933,2,0,1,0
163704855,49.08962276609721,2.1103580767660786,85.924126,131.68,-0.0,0.6201932,0.82219803,85.83281,2,0,1,0
163904899,49.089622875904475,2.1103579790683216,85.93232,131.68822,-0.0,0.6201913,0.8218346,85.83876,2,0,1,0
164104859,49.08962298598673,2.1103579865595257,85.94011,131.6961,-0.0,0.62018955,0.8226597,85.843765,2,0,1,0
164304934,49.08962303220683,2.1103580076735278,85.94861,131.70515,-0.0,0.620188,0.8222939,85.85012,2,0,1,0
164504865,49.08962304870177,2.110357992416528,85.95487,131.71251,-0.0,0.62018716,0.82193524,85.85518,2,0,1,0
164704861,49.08962309230385,2.110358000909197,85.95992,131.71893,-0.0,0.6201862,0.8215753,85.85742,2,0,1,0
164904848,49.08962310417147,2.1103579671918755,85.95849,131.71967,-0.0,0.6201854,0.8224055,85.85138,2,0,1,0
165104861,49.08962309143815,2.1103580190748468,85.956024,131.7196,-0.0,0.6201846,0.8220547,85.8482,2,0,1,0
165304901,49.08962308635572,2.110358140162128,85.95329,131.71954,-0.0,0.62018377,0.82169807,85.844345,2,0,1,0
165504849,49.08962310689157,2.110358278601851,85.95391,131.72334,-0.0,0.62018317,0.8225222,85.84766,2,0,1,0
165704866,49.089623093597304,2.1103584152465333,85.95091,131.72412,-0.0,0.6201826,0.8221549,85.8427,2,0,1,0
165904848,49.08962311527706,2.1103585703957415,85.95079,131.7282,-0.0,0.6201367,0.821791,85.84758,2,0,1,0
166104883,49.08962316225805,2.1103587368107988,85.95364,131.7355,-0.0,0.62009543,0.8226142,85.85156,2,0,1,0
166304848,49.08962316445071,2.1103589086031875,85.95914,131.74641,-0.0,0.6201038,0.8222513,85.85875,2,0,1,0
166504849,49.08962318989158,2.110359075247022,85.96623,131.75903,-0.0,0.6200664,0.8218917,85.86554,2,0,1,0
166704848,49.0896232482714,2.110359255000038,85.97607,131.77457,-0.0,0.6200329,0.82153463,85.87945,2,0,1,0
166904882,49.08962326236382,2.1103594140503628,85.98559,131.78983,-0.0,0.6200483,0.82235414,85.8816,2,0,1,0
167104848,49.08962330113485,2.110359603206247,85.98799,131.7981,-0.0,0.62006265,0.8219661,85.87785,2,0,1,0
167304848,49.089623317469254,2.110359745181614,85.98739,131.80374,-0.0,0.62007594,0.8227748,85.87779,2,0,1,0
167504878,49.08962331970987,2.1103598697423314,85.987526,131.81033,-0.0,0.62008816,0.822391,85.881905,2,0,1,0
167704848,49.08962329122512,2.1103599426603097,85.9826,131.81206,-0.0,0.62009937,0.8220115,85.87004,2,0,1,0
167904848,49.089623275415484,2.110360054762169,85.98269,131.8191,-0.0,0.6201094,0.82282543,85.8765,2,0,1,0
168104863,49.08962324633785,2.110360171430609,85.98168,131.82494,-0.0,0.6201185,0.82244945,85.873665,2,0,1,0
168304848,49.0896232203722,2.110360199067473,85.97697,131.82693,-0.0,0.6201274,0.8220814,85.86266,2,0,1,0
168504864,49.0896231747321,2.11036018366272,85.97285,131.82959,-0.0,0.62013584,0.82289565,85.86134,2,0,1,0
168704891,49.08962305196745,2.110360332467476,85.952774,131.81659,-0.0,0.6201404,0.82251024,85.85075,2,0,1,0
169704852,49.089622807467585,2.110361028485305,85.94184,131.84128,-0.0,0.6201136,0.8218289,85.84151,2,0,1,0
169904854,49.089622741532835,2.110361115922372,85.943016,131.84955,-0.0,0.6201213,0.82265174,85.84516,2,0,1,0
170104851,49.089622660442686,2.11036114783523,85.93911,131.85321,-0.0,0.62012833,0.8222724,85.837166,2,0,1,0
170304879,49.08962258483916,2.1103611578237462,85.939766,131.86098,-0.0,0.62013483,0.8218973,85.84346,2,0,1,0
170504848,49.089622471621624,2.1103611238587994,85.94069,131.8688,-0.0,0.62014073,0.82271284,85.841125,2,0,1,0
170704855,49.08962237259246,2.110361107405499,85.93756,131.8725,-0.0,0.620146,0.82234097,85.83792,2,0,1,0
170904852,49.08962228546842,2.1103610961073063,85.939316,131.88086,-0.0,0.6201506,0.8219727,85.84161,2,0,1,0
171104915,49.089622169229514,2.1103610591678192,85.94158,131.89001,-0.0,0.6201548,0.8216082,85.845375,2,0,1,0
171304865,49.08962209451233,2.1103610031140123,85.94345,131.89842,-0.0,0.6201585,0.82243496,85.8451,2,0,1,0
171504905,49.08962200044445,2.110360936978361,85.94141,131.90286,-0.0,0.62016183,0.82205206,85.840126,2,0,1,0
171704850,49.08962192051618,2.1103608767484103,85.94091,131.90915,-0.0,0.62016463,0.8228558,85.842606,2,0,1,0
171904852,49.08962185117519,2.1103608483822214,85.94413,131.91913,-0.0,0.6201671,0.82246137,85.84504,2,0,1,0
172104857,49.08962180464554,2.1103608018634827,85.94553,131.92715,-0.0,0.6201693,0.8220721,85.84655,2,0,1,0
172304848,49.08962174271338,2.1103607392647077,85.94523,131.93343,-0.0,0.6201712,0.8228823,85.84491,2,0,1,0
172504854,49.08962167803806,2.1103606562763355,85.947136,131.9422,-0.0,0.62017286,0.8224974,85.84654,2,0,1,0
172704851,49.08962164312433,2.1103605689022813,85.95209,131.95383,-0.0,0.62017435,0.8221212,85.85325,2,0,1,0
172904850,49.089621614788854,2.1103604981755035,85.951035,131.95932,-0.0,0.6201756,0.821749,85.84779,2,0,1,0
173104848,49.08962160687589,2.110360446366608,85.95178,131.96652,-0.0,0.6201768,0.82255566,85.85262,2,0,1,0
173304848,49.08962157847769,2.1103603801458415,85.95098,131.97221,-0.0,0.62017775,0.8221509,85.8459,2,0,1,0
173504848,49.089621599418535,2.1103603684555905,85.95424,131.9824,-0.0,0.62017864,0.8229483,85.85395,2,0,1,0
173704848,49.08962160379473,2.110360339175933,85.9489,131.98425,-0.0,0.6201795,0.8225497,85.84346,2,0,1,0
173904890,49.08962160126491,2.110360294118279,85.94217,131.98433,-0.0,0.6201347,0.8221529,85.835556,2,0,1,0
174104868,49.089621609534106,2.1103602477959966,85.94032,131.98988,-0.0,0.6201398,0.82295746,85.84016,2,0,1,0
174304861,49.08962161476261,2.11036019479696,85.9406,131.99792,-0.0,0.62014455,0.82256967,85.839096,2,0,1,0
174504852,49.08962164493188,2.1103601506928986,85.94046,132.00551,-0.0,0.62014896,0.82219076,85.8372,2,0,1,0
174704895,49.08962165984953,2.1103600946579326,85.93775,132.0106,-0.0,0.620153,0.82299733,85.83375,2,0,1,0
174904849,49.089621691372294,2.1103600113888197,85.93604,132.01678,-0.0,0.62015676,0.8226026,85.83259,2,0,1,0
175104857,49.08962172877671,2.1103599374534117,85.93116,132.01971,-0.0,0.6201603,0.8222131,85.8261,2,0,1,0
175304892,49.08962180134227,2.110359847913541,85.92823,132.02518,-0.0,0.62016344,0.82182866,85.827156,2,0,1,0
175504854,49.08962185001313,2.1103597759622525,85.92513,132.03055,-0.0,0.6201663,0.82264185,85.82253,2,0,1,0
175704848,49.08962188086396,2.110359724606828,85.92195,132.03568,-0.0,0.6201688,0.8222617,85.82017,2,0,1,0
176304855,49.08962190922517,2.110359507620099,85.90952,132.05048,-0.0,0.6201296,0.82231987,85.80496,2,0,1,0
176504936,49.08962196529819,2.1103594559200767,85.904724,132.05505,-0.0,0.6201356,0.8219398,85.80267,2,0,1,0
176704865,49.08962201713971,2.110359365756482,85.90562,132.06554,-0.0,0.62014127,0.82275164,85.80737,2,0,1,0
176904848,49.08962208446172,2.1103592785125875,85.908264,132.07758,-0.0,0.62014633,0.8223756,85.812454,2,0,1,0
177104848,49.08962214136639,2.110359213575288,85.907715,132.08698,-0.0,0.6201511,0.82200354,85.80736,2,0,1,0
177304848,49.08962215927327,2.1103591334419622,85.902176,132.09111,-0.0,0.6201554,0.8216355,85.79775,2,0,1,0
177504885,49.08962216891981,2.110359041823014,85.89552,132.09494,-0.0,0.62015927,0.82245964,85.79212,2,0,1,0
177704848,49.08962218227813,2.1103589463807095,85.895134,132.10475,-0.0,0.62016284,0.82207376,85.795715,2,0,1,0
177904848,49.08962218190666,2.1103588426593762,85.89064,132.1114,-0.0,0.6201658,0.8228752,85.78762,2,0,1,0
178104862,49.08962217690597,2.11035870718151,85.88511,132.11697,-0.0,0.6201685,0.8224783,85.78238,2,0,1,0
178304857,49.08962217948969,2.1103585709874304,85.8811,132.12439,-0.0,0.62017095,0.8220907,85.781204,2,0,1,0
178704852,49.089622226624535,2.110358383399865,85.87369,132.14006,-0.0,0.620175,0.8225119,85.77225,2,0,1,0
178904881,49.08962223395834,2.110358323638537,85.871864,132.1499,-0.0,0.6201766,0.8221337,85.77165,2,0,1,0
179104849,49.08962221786623,2.1103582504320224,85.86539,132.15518,-0.0,0.6201781,0.8217597,85.76103,2,0,1,0
179304848,49.089622194618016,2.1103581641478435,85.858154,132.15938,-0.0,0.62017924,0.82256496,85.754944,2,0,1,0
179504882,49.08962215668292,2.110358101041176,85.847206,132.1604,-0.0,0.6201802,0.8221587,85.742966,2,0,1,0
179704878,49.08962212491654,2.110358021121481,85.834946,132.1601,-0.0,0.62018096,0.82295483,85.729576,2,0,1,0
179904848,49.08962211856343,2.1103579777675976,85.82744,132.16461,-0.0,0.6201816,0.822555,85.7317,2,0,1,0
180104848,49.08962210851863,2.1103579117244546,85.82523,132.17435,-0.0,0.62018216,0.8221609,85.73146,2,0,1,0
180304855,49.08962212191608,2.1103578437757746,85.821396,132.18246,-0.0,0.6201825,0.82296467,85.725975,2,0,1,0
180504861,49.08962211551151,2.11035778426819,85.81454,132.1875,-0.0,0.6201827,0.8225759,85.71662,2,0,1,0
180904848,49.08962202891815,2.110357605908316,85.80822,132.20413,-0.0,0.6201828,0.82182056,85.71575,2,0,1,0
181904848,49.08962187351447,2.110357417709289,85.79263,132.2411,-0.0,0.6201416,0.8223623,85.70016,2,0,1,0
182104857,49.089621850194696,2.1103574185908447,85.790474,132.24896,-0.0,0.6201458,0.8220036,85.69647,2,0,1,0
182304870,49.08962184284749,2.110357424489994,85.79218,132.26064,-0.0,0.62014973,0.82164776,85.70254,2,0,1,0
182504906,49.08962180904605,2.110357387346709,85.79472,132.27254,-0.0,0.6201535,0.82246375,85.70224,2,0,1,0
182704848,49.089621757060875,2.1103573349668845,85.79158,132.27835,-0.0,0.62015706,0.8220942,85.69253,2,0,1,0
182904852,49.08962171668948,2.110357307269443,85.78906,132.28468,-0.0,0.62016016,0.8217281,85.691605,2,0,1,0
183104848,49.0896216777745,2.1103572917312725,85.78262,132.28708,-0.0,0.62016296,0.8225523,85.6835,2,0,1,0
183304845,49.089621639475965,2.110357271037997,85.77895,132.29175,-0.0,0.62012005,0.8221886,85.686485,2,0,1,0
183504873,49.089621620695894,2.11035723549576,85.777725,132.29878,-0.0,0.6200815,0.8218241,85.68554,2,0,1,0
183704881,49.089621639212766,2.1103572443182936,85.77891,132.30841,-0.0,0.6200469,0.8214664,85.68961,2,0,1,0
183904894,49.0896216930521,2.110357252747936,85.784256,132.32181,-0.0,0.62001616,0.82228,85.69631,2,0,1,0
184104886,49.08962174340961,2.110357288089636,85.78722,132.3328,-0.0,0.620034,0.8218879,85.69586,2,0,1,0
184304848,49.089621775633496,2.1103573318212736,85.79118,132.3447,-0.0,0.6200506,0.822695,85.698296,2,0,1,0
184504852,49.089621828185,2.1103573672505567,85.79326,132.35457,-0.0,0.6200658,0.8223076,85.6955,2,0,1,0
184904848,49.08962186073586,2.110357382171145,85.80119,132.37656,-0.0,0.6200526,0.8227377,85.70619,2,0,1,0
185104858,49.0896218964558,2.1103574059257246,85.79899,132.38068,-0.0,0.6200234,0.8223588,85.69717,2,0,1,0
185304848,49.08962191403515,2.11035739169107,85.79835,132.38617,-0.0,0.61999667,0.82198787,85.701355,2,0,1,0
185504848,49.089621953242265,2.110357361072299,85.80283,132.3965,-0.0,0.61997294,0.82279706,85.70915,2,0,1,0
185704848,49.08962201300294,2.1103573805574256,85.81398,132.4132,-0.0,0.6199527,0.82240915,85.722145,2,0,1,0
185904848,49.08962205232985,2.1103573885855775,85.8192,132.42409,-0.0,0.6199801,0.82202953,85.71955,2,0,1,0
186104875,49.0896220886464,2.1103573595072813,85.827354,132.4376,-0.0,0.61996,0.8216505,85.7331,2,0,1,0
186304848,49.089622107679745,2.1103573344356903,85.83264,132.44763,-0.0,0.6198975,0.8224607,85.73064,2,0,1,0
186504848,49.089622149722246,2.1103572750680786,85.83508,132.45474,-0.0,0.61988586,0.8220849,85.733154,2,0,1,0
186704856,49.089622182146606,2.1103572193834443,85.83774,132.46165,-0.0,0.6198761,0.821717,85.73652,2,0,1,0
186904859,49.089622244193215,2.1103571874476597,85.836266,132.46416,-0.0,0.6199121,0.8225388,85.73273,2,0,1,0
187104852,49.08962229553354,2.1103571525324227,85.83815,132.46999,-0.0,0.6199453,0.822137,85.73585,2,0,1,0
187304848,49.08962231689355,2.1103571243516432,85.83808,132.4735,-0.0,0.6199314,0.822933,85.73445,2,0,1,0
187504857,49.08962233593281,2.110357134240313,85.84226,132.48138,-0.0,0.6199636,0.8225413,85.74134,2,0,1,0
187704852,49.089622364060844,2.110357134300478,85.84689,132.48889,-0.0,0.61994743,0.82214695,85.745514,2,0,1,0
187904880,49.08962238735971,2.1103571527460674,85.85086,132.49567,-0.0,0.6199773,0.8217615,85.74592,2,0,1,0
188104849,49.08962238579207,2.110357169468647,85.849884,132.49734,-0.0,0.620005,0.8225723,85.74358,2,0,1,0
188304868,49.089622398663394,2.1103571642439674,85.84433,132.494,-0.0,0.62002945,0.8221953,85.73281,2,0,1,0
188504908,49.089622412703825,2.1103571074076584,85.83637,132.48828,-0.0,0.6200061,0.822992,85.724945,2,0,1,0
188704852,49.08962241893473,2.110357039499086,85.82516,132.47906,-0.0,0.61998475,0.8225757,85.71186,2,0,1,0
188904880,49.08962240937611,2.110356924156662,85.81333,132.46924,-0.0,0.6199654,0.82217,85.70601,2,0,1,0
189104848,49.08962240359361,2.110356866913951,85.802414,132.46033,-0.0,0.61994773,0.8229627,85.6947,2,0,1,0
189304876,49.08962241085611,2.1103568586484296,85.79668,132.45644,-0.0,0.6199321,0.8225634,85.69865,2,0,1,0
189504903,49.08962243921063,2.1103568403595934,85.79446,132.45587,-0.0,0.61991817,0.82216966,85.697845,2,0,1,0
189704876,49.08962248003255,2.110356837669496,85.79543,132.45836,-0.0,0.6199505,0.8217849,85.70212,2,0,1,0
189904858,49.08962252552149,2.110356838287081,85.79717,132.46135,-0.0,0.6199348,0.8225933,85.70242,2,0,1,0
190104859,49.089622513977936,2.110356794065554,85.79601,132.46155,-0.0,0.6199208,0.8221892,85.6972,2,0,1,0
190304848,49.08962251922922,2.1103567742706195,85.795425,132.46246,-0.0,0.61990833,0.8229761,85.69978,2,0,1,0
190504848,49.08962252933861,2.1103567512302113,85.796684,132.46533,-0.0,0.61989725,0.82256305,85.70162,2,0,1,0
190704848,49.08962252302168,2.110356732159266,85.79941,132.46956,-0.0,0.61988735,0.8221565,85.70709,2,0,1,0
190904848,49.0896225385062,2.1103567672230725,85.80875,132.48029,-0.0,0.6198784,0.82295233,85.71608,2,0,1,0
191104953,49.08962255805817,2.1103568367789407,85.81435,132.48703,-0.0,0.619871,0.8225523,85.71888,2,0,1,0
191304852,49.089622599558986,2.110356928017687,85.81783,132.49153,-0.0,0.61986464,0.82216215,85.72036,2,0,1,0
191504849,49.08962266006072,2.1103569806201525,85.82381,132.49823,-0.0,0.6198587,0.8217771,85.724304,2,0,1,0
191704849,49.08962271425089,2.1103570349632235,85.82457,132.49948,-0.0,0.6198538,0.82257235,85.72203,2,0,1,0
191904848,49.089622777297194,2.1103570556032967,85.82193,132.49734,-0.0,0.61984926,0.8221727,85.71941,2,0,1,0
192104880,49.089622842426024,2.110357066855234,85.8206,132.49637,-0.0,0.6198456,0.82178277,85.71951,2,0,1,0
192304848,49.089622914935,2.1103570990537786,85.822815,132.49887,-0.0,0.6198872,0.82258946,85.725235,2,0,1,0
193504855,49.08962313060163,2.110357297166857,85.84538,132.51437,-0.0,0.61985475,0.82264304,85.73917,2,0,1,0
193704848,49.08962313796008,2.1103572888243933,85.84568,132.51245,-0.0,0.619851,0.82224244,85.74055,2,0,1,0
193904871,49.08962316567107,2.11035727603772,85.84954,132.51378,-0.0,0.61989266,0.82185143,85.75338,2,0,1,0
194104878,49.08962319775023,2.1103572675589732,85.84994,132.51143,-0.0,0.6199302,0.82265913,85.74761,2,0,1,0
194304892,49.08962322066691,2.110357270123022,85.84652,132.50519,-0.0,0.61996394,0.8222736,85.741905,2,0,1,0
194504849,49.08962324321077,2.1103572725589714,85.8443,132.4998,-0.0,0.6199941,0.82189304,85.74628,2,0,1,0
194704875,49.089623258498015,2.1103572393049386,85.844925,132.49718,-0.0,0.6200209,0.82268333,85.74495,2,0,1,0
194904849,49.089623300673175,2.110357222486184,85.84299,132.49187,-0.0,0.6200449,0.8222726,85.74222,2,0,1,0
195104849,49.08962335500137,2.1103572357283777,85.83877,132.48407,-0.0,0.6200659,0.82306737,85.73294,2,0,1,0
195304890,49.08962342237538,2.11035724767934,85.82818,132.47035,-0.0,0.6200842,0.822664,85.71572,2,0,1,0
195504852,49.08962348679676,2.1103572653563334,85.82131,132.46075,-0.0,0.6201001,0.82227075,85.72327,2,0,1,0
195704899,49.089623549189376,2.1103572995496376,85.820816,132.45763,-0.0,0.62011397,0.82187897,85.72498,2,0,1,0
195904862,49.089623613825566,2.1103573659897745,85.819336,132.45364,-0.0,0.62012583,0.8226866,85.72264,2,0,1,0
196104879,49.08962367169658,2.110357419361251,85.81869,132.45064,-0.0,0.6201353,0.8223084,85.72038,2,0,1,0
196304885,49.08962376893926,2.1103574576644015,85.82077,132.45052,-0.0,0.6200983,0.8219309,85.72477,2,0,1,0
196504851,49.08962382622103,2.1103574990075704,85.82391,132.45128,-0.0,0.6200646,0.8215577,85.7332,2,0,1,0
196704848,49.089623886129914,2.110357523556947,85.83185,132.45648,-0.0,0.62007976,0.82237893,85.73973,2,0,1,0
196904858,49.08962395565745,2.110357591764702,85.83763,132.45963,-0.0,0.6200478,0.8220088,85.746445,2,0,1,0
197104851,49.089624035707004,2.110357647197242,85.84155,132.46059,-0.0,0.62006414,0.8216461,85.74198,2,0,1,0
197304864,49.08962408330672,2.1103576587847757,85.844154,132.46014,-0.0,0.62007874,0.82247186,85.74496,2,0,1,0
197504900,49.089624111541426,2.11035763915846,85.84645,132.45946,-0.0,0.6200924,0.82211566,85.74832,2,0,1,0
197704848,49.08962412739969,2.1103576397559887,85.852936,132.46277,-0.0,0.62010455,0.8217542,85.75853,2,0,1,0
197904858,49.0896241397177,2.110357618035052,85.85937,132.46582,-0.0,0.6201157,0.8225757,85.76251,2,0,1,0
198104848,49.08962411280956,2.1103575960141194,85.8627,132.4656,-0.0,0.6201254,0.82220894,85.764046,2,0,1,0
198304872,49.089624111309185,2.110357606866198,85.86761,132.46661,-0.0,0.6201341,0.82184166,85.7666,2,0,1,0
198504848,49.08962417106544,2.110357642331909,85.86687,132.46217,-0.0,0.62014127,0.821482,85.76264,2,0,1,0
198704848,49.089624197821344,2.1103576683448155,85.86355,132.45534,-0.0,0.6201482,0.8223065,85.755646,2,0,1,0
198904861,49.0896241801959,2.1103576964957194,85.855415,132.44383,-0.0,0.6201533,0.82194877,85.74831,2,0,1,0
199104851,49.0896241494957,2.1103576724153634,85.85274,132.43802,-0.0,0.62015796,0.82159793,85.74739,2,0,1,0
199304848,49.08962412465062,2.1103576532682924,85.85107,132.43329,-0.0,0.6201622,0.8224336,85.752975,2,0,1,0
199504854,49.08962413620103,2.1103576874914687,85.85215,132.43132,-0.0,0.6201662,0.82208335,85.75137,2,0,1,0
199704898,49.08962417265505,2.110357745373457,85.853,132.42941,-0.0,0.6201242,0.8217358,85.75127,2,0,1,0
199904848,49.08962418845152,2.1103578158931473,85.857346,132.43074,-0.0,0.6201312,0.82138985,85.76317,2,0,1,0
200104906,49.089624208483656,2.1103579429250123,85.85946,132.42981,-0.0,0.62013716,0.82222927,85.75829,2,0,1,0
200304848,49.08962429900309,2.1103581335321597,85.866005,132.43327,-0.0,0.62014276,0.8218833,85.769615,2,0,1,0
200504880,49.08962512427759,2.110359006750984,85.87566,132.43959,-0.0,0.6201486,0.82154334,85.773926,2,0,1,0
200704851,49.08962791430329,2.1103614939952027,85.87621,132.43753,-0.0,0.6201567,0.8223843,85.78274,2,0,1,0
200904848,49.089633064517464,2.1103658042384414,85.891846,132.45062,-0.0,0.6201719,0.82201326,85.79641,2,0,1,0
201104885,49.08964046164526,2.1103718534760105,85.92177,132.47823,-0.0,0.6202025,0.82283276,85.82417,2,0,1,0
201304861,49.0896499666126,2.110379664701972,85.93815,132.49226,-0.0,0.62025696,0.8224639,85.828476,2,0,1,0
201504877,49.089661378986605,2.110389284167657,85.94509,132.49747,-0.0,0.6203426,0.82210076,85.82693,2,0,1,0
201704851,49.08967451358315,2.110400559559632,86.002716,132.5525,-0.0,0.6204783,0.8217435,85.82693,2,0,1,0
202274849,49.08972226993911,2.110439023919535,86.0874,132.62682,-0.0,0.62055063,0.82208675,85.82693,2,0,1,0
203474864,49.08986938154333,2.1105096183451413,88.75556,135.26164,-0.0,0.62325126,0.8223928,85.82693,2,0,1,0
203674887,49.089896978991746,2.1105143572792815,89.64964,136.14601,-0.0,0.6233228,0.82205975,85.82693,2,0,1,0
203874851,49.08992566777935,2.1105180747160954,90.47794,136.96457,-0.0,0.62343544,0.82173544,85.82693,2,0,1,0
204074898,49.08995550518062,2.110520904737015,91.185295,137.66321,-0.0,0.6234958,0.82258195,85.82693,2,0,1,0
204274861,49.0899866597088,2.110522706382658,91.665855,138.1364,-0.0,0.623505,0.82220805,85.82693,2,0,1,0
204474851,49.09001908467277,2.1105236121493194,91.93435,138.39835,-0.0,0.623478,0.82303274,85.82693,2,0,1,0
204674894,49.090052636636884,2.1105240357696116,92.09693,138.55423,-0.0,0.62342656,0.8226532,85.82693,2,0,1,0
204874854,49.09008710633135,2.110524500844428,92.24211,138.69261,-0.0,0.62335384,0.8222761,85.82693,2,0,1,0
205074851,49.090122356941976,2.1105252015832083,92.4627,138.9052,-0.0,0.6232645,0.823101,85.82693,2,0,1,0
205274855,49.09015824445065,2.110526035858455,92.79923,139.23259,-0.0,0.6231608,0.82272744,85.82693,2,0,1,0
205474857,49.09019452830117,2.1105268416249108,93.26189,139.69524,-0.0,0.6230408,0.8223564,85.82693,2,0,1,0
205674850,49.09023076319619,2.1105278226910356,93.923355,140.33156,-0.0,0.62284607,0.82316047,85.82693,2,0,1,0
205874889,49.090266907521794,2.1105291386136686,94.7669,141.15973,-0.0,0.6227196,0.822731,85.82693,2,0,1,0
206074851,49.09030281101596,2.11053079421257,95.731674,142.1245,-0.0,0.6225851,0.82351625,85.82693,2,0,1,0
206274851,49.09033825583262,2.1105330740261024,96.83296,143.207,-0.0,0.62244886,0.82308584,85.82693,2,0,1,0
206474851,49.090372818424655,2.1105361546890036,98.11576,144.46936,-0.0,0.6222622,0.8226531,0.0,2,0,0,0
206674864,49.09040671060043,2.110539594884194,99.43878,145.77164,-0.0,0.6220293,0.8234271,0.0,2,0,0,0
206874922,49.0904406223993,2.110543076103038,100.63359,146.94724,-0.0,0.6218599,0.823003,0.0,2,0,0,0
207074851,49.090474608162,2.1105469444003258,101.71995,147.99397,-0.0,0.62168616,0.8225876,0.0,2,0,0,0
207274851,49.09050840715916,2.11055161591112,102.79966,149.07368,-0.0,0.6215736,0.8233589,0.0,2,0,0,0
207474856,49.090542299331865,2.1105565509872997,103.77063,150.02426,-0.0,0.62139535,0.822895,0.0,2,0,0,0
207674851,49.09057615856935,2.1105619659608763,104.67992,150.91342,-0.0,0.62121373,0.82365656,0.0,2,0,0,0
207874888,49.09060991481758,2.1105680281565986,105.56253,151.75699,-0.0,0.62104094,0.8232079,0.0,2,0,0,0
208074851,49.090643625435945,2.1105751485785014,106.41914,152.59312,-0.0,0.62092096,0.8227686,0.0,2,0,0,0
208274898,49.090676964649326,2.110584025926682,107.34282,153.49687,-0.0,0.62080824,0.82234025,0.0,2,0,0,0
208474851,49.09070966987606,2.1105947071289517,108.35324,154.5073,-0.0,0.62069917,0.82311636,0.0,2,0,0,0
208674851,49.09074168142323,2.110606865816278,109.43005,155.56369,-0.0,0.6205533,0.8226772,0.0,2,0,0,0
208874854,49.09077344568615,2.1106201011791494,110.49779,156.61172,-0.0,0.6204688,0.8234279,0.0,2,0,0,0
209074860,49.09080480464929,2.110634361748109,111.60416,157.69778,-0.0,0.6203379,0.8229466,0.0,2,0,0,0
209274851,49.09083567652608,2.110649547255085,112.72474,158.79825,-0.0,0.62021834,0.82368493,0.0,2,0,0,0
209474851,49.090866090202425,2.1106655595801773,113.86357,159.91708,-0.0,0.62010777,0.82321787,0.0,2,0,0,0
209674888,49.09089598461311,2.110682209579701,115.07892,161.11177,-0.0,0.6199633,0.82275736,0.0,2,0,0,0
209874851,49.090925924717496,2.1106988747133406,116.287445,162.28108,-0.0,0.61988395,0.82231003,0.0,2,0,0,0
210074851,49.09095658456841,2.1107153024789858,117.345,163.33864,-0.0,0.6197805,0.82307917,0.0,2,0,0,0
210274892,49.09098832259986,2.1107312907428617,118.07904,164.03532,-0.0,0.6196309,0.8226492,0.0,2,0,0,0
210474851,49.09102098402052,2.1107471540119023,118.498886,164.44077,-0.0,0.61941683,0.82341295,0.0,2,0,0,0
210674851,49.091053841392664,2.1107642768815573,118.8288,164.77068,-0.0,0.619189,0.82294255,0.0,2,0,0,0
210874854,49.091086523106455,2.1107833029056056,119.180984,165.1091,-0.0,0.61898696,0.8236849,0.0,2,0,0,0
211074851,49.09111887176341,2.1108041846492567,119.59984,165.51434,-0.0,0.61882865,0.8232141,0.0,2,0,0,0
211274891,49.09115086005591,2.11082660886397,120.10361,166.00574,-0.0,0.61871797,0.8227459,0.0,2,0,0,0
211474866,49.09118256126462,2.1108498557996658,120.65056,166.5399,-0.0,0.6186416,0.8234996,0.0,2,0,0,0
211674851,49.091213965372305,2.110873757607416,121.23238,167.10742,-0.0,0.6185488,0.82304674,0.0,2,0,0,0
211874878,49.09124525859444,2.110898158122433,121.787415,167.64993,-0.0,0.6185163,0.8237992,0.0,2,0,0,0
212074896,49.0912765758246,2.110922821340436,122.3107,168.16037,-0.0,0.6184851,0.82331145,0.0,2,0,0,0
212274854,49.09130773756993,2.110948070177821,122.89537,168.73222,-0.0,0.61846954,0.824029,0.0,2,0,0,0
212474894,49.091338778410915,2.110973893791617,123.52136,169.34439,-0.0,0.6184816,0.82352877,0.0,2,0,0,0
212674851,49.09136972126507,2.1110000763976533,124.12875,169.93878,-0.0,0.6185073,0.8230408,0.0,2,0,0,0
212874866,49.09140050890789,2.1110268201603253,124.77164,170.56802,-0.0,0.6185384,0.8237758,0.0,2,0,0,0
213074851,49.091430910525844,2.1110540790282313,125.51434,171.28453,-0.0,0.61859155,0.82330304,0.0,2,0,0,0
213274896,49.09146096824744,2.1110817524175327,126.39761,172.1678,-0.0,0.6187274,0.82284427,0.0,2,0,0,0
213474851,49.09149077429239,2.11110917034057,127.34732,173.10193,-0.0,0.6188344,0.8235742,0.0,2,0,0,0
213674854,49.09152041827177,2.111135945231739,128.35725,174.09604,-0.0,0.6189398,0.8230697,0.0,2,0,0,0
213874851,49.09154996043029,2.111161757052358,129.44318,175.16539,-0.0,0.6190522,0.82379425,0.0,2,0,0,0
214074851,49.0915795233127,2.1111863789100753,130.5889,176.29433,-0.0,0.6192094,0.823309,0.0,2,0,0,0
214274854,49.09160909800164,2.1112096037126573,131.82446,177.51236,-0.0,0.61931753,0.8228299,0.0,2,0,0,0
214474851,49.09163861163549,2.1112308568114138,133.20325,178.87303,-0.0,0.619448,0.82235956,0.0,2,0,0,0
214674887,49.091668058866965,2.111249697880524,134.68787,180.33936,-0.0,0.61960083,0.82309914,0.0,2,0,0,0
214874888,49.09169755839803,2.111266044249306,136.18576,181.81921,-0.0,0.6197461,0.8226358,0.0,2,0,0,0
215674854,49.09181999924642,2.1113067411920636,141.72801,187.32108,-0.0,0.620029,0.8219163,0.0,2,0,0,0
215874864,49.09185226781076,2.1113106665348833,142.93054,188.52727,-0.0,0.62008035,0.8226303,0.0,2,0,0,0
216074851,49.09188524653742,2.1113121741743583,144.02788,189.6246,-0.0,0.6200539,0.8221479,0.0,2,0,0,0
216274887,49.09191884197653,2.1113111896076506,145.01405,190.61691,-0.0,0.6200048,0.82166725,0.0,2,0,0,0
216474851,49.09195309433738,2.111307435695705,145.90717,191.51929,-0.0,0.6199435,0.82119304,0.0,2,0,0,0
216674895,49.09198794063476,2.1113007159747306,146.74948,192.37303,-0.0,0.6198807,0.8218988,0.0,2,0,0,0
216874902,49.09202314840827,2.111291000258076,147.563,193.21698,-0.0,0.61982715,0.8214318,0.0,2,0,0,0
217074852,49.09205862791184,2.1112782607715608,148.37184,194.0435,-0.0,0.6198263,0.82098,0.0,2,0,0,0
217274941,49.09209427979324,2.1112624845143086,149.20996,194.89975,-0.0,0.61983377,0.8217108,0.0,2,0,0,0
217474851,49.09212986555196,2.111243828326816,150.0588,195.76886,-0.0,0.61984366,0.821285,0.0,2,0,0,0
217674851,49.09216531959039,2.111222609467433,150.89877,196.62802,-0.0,0.6198009,0.820876,0.0,2,0,0,0
218074861,49.09223545211866,2.1111714377647495,152.57251,198.3408,-0.0,0.619815,0.82125264,0.0,2,0,0,0
218274935,49.092270093830024,2.1111412132212535,153.3843,199.17351,-0.0,0.61984944,0.8208499,0.0,2,0,0,0
218474854,49.09230405271901,2.111107924981171,154.19254,199.98175,-0.0,0.6198599,0.82162374,0.0,2,0,0,0
218674851,49.092337087816375,2.1110713234557434,155.03781,200.84708,-0.0,0.6198659,0.8212379,0.0,2,0,0,0
218874851,49.092369134621926,2.1110315866044678,155.91351,201.74278,-0.0,0.61990005,0.8208651,0.0,2,0,0,0
219074866,49.09240029851827,2.1109893314089563,156.79883,202.64815,-0.0,0.6199272,0.82166624,0.0,2,0,0,0
219274852,49.092430319322794,2.1109445893493617,157.73795,203.62721,-0.0,0.61996454,0.8213059,0.0,2,0,0,0
219474851,49.092458947556125,2.110897443510405,158.75214,204.6414,-0.0,0.6200128,0.8209566,0.0,2,0,0,0
219674891,49.092486173881206,2.1108485355520403,159.83511,205.76437,-0.0,0.6200198,0.82177037,0.0,2,0,0,0
219874854,49.092511883574744,2.110797990160323,160.97467,206.92395,-0.0,0.62008077,0.82139546,0.0,2,0,0,0
220274851,49.09255935108272,2.1106936743053812,163.48047,209.46973,-0.0,0.6202021,0.82181317,0.0,2,0,0,0
220474894,49.09258117613326,2.110640517638242,164.87064,210.8799,-0.0,0.6202724,0.8214424,0.0,2,0,0,0
220674888,49.09260181086551,2.1105869427489212,166.32053,212.3498,-0.0,0.62033373,0.8210698,0.0,2,0,0,0
220874895,49.09262142022377,2.110533105774035,167.78961,213.83884,-0.0,0.6203902,0.82070494,0.0,2,0,0,0
221074870,49.092640032750744,2.1104789058544835,169.23837,215.2876,-0.0,0.6204254,0.8215054,0.0,2,0,0,0
221274854,49.09265760727837,2.1104240976546187,170.66248,216.75175,-0.0,0.62044996,0.8211298,0.0,2,0,0,0
221474856,49.092674482478564,2.110368625109458,171.9972,218.10686,-0.0,0.6204481,0.82192814,0.0,2,0,0,0
221674851,49.092690994278584,2.1103124860511566,173.1839,219.29356,-0.0,0.62036306,0.82155585,0.0,2,0,0,0
221874894,49.092706934642955,2.110255055852276,174.22545,220.37473,-0.0,0.62029296,0.82119274,0.0,2,0,0,0
222074851,49.09272190698726,2.11019591757021,175.1264,221.29561,-0.0,0.62020236,0.8208345,0.0,2,0,0,0
222274851,49.092735633014975,2.1101348630230596,175.8956,222.0849,-0.0,0.6200928,0.82165414,0.0,2,0,0,0
222674854,49.092755639366985,2.110005694660725,177.13544,223.36423,-0.0,0.6198715,0.82098144,0.0,2,0,0,0
222874920,49.092760766441245,2.109938053213379,177.62607,223.87485,-0.0,0.61978465,0.821814,0.0,2,0,0,0
223074851,49.09276234728682,2.1098690783223693,178.02356,224.29286,-0.0,0.61972237,0.82148385,0.0,2,0,0,0
223274888,49.092761130606725,2.1097993175666554,178.28958,224.57835,-0.0,0.6197409,0.8223473,0.0,2,0,0,0
223474851,49.09275674397114,2.1097291094498205,178.47049,224.77975,-0.0,0.6197591,0.8220378,0.0,2,0,0,0
223674855,49.09274846063429,2.1096587477421647,178.61923,224.94852,-0.0,0.6197777,0.8217505,0.0,2,0,0,0
223874851,49.09273612251903,2.109589293135417,178.78929,225.1385,-0.0,0.61976767,0.8214787,0.0,2,0,0,0
224074854,49.092719563865245,2.1095216895977926,179.05797,225.42723,-0.0,0.6198025,0.8224177,0.0,2,0,0,0
224274856,49.09269916397289,2.1094566047858683,179.46439,225.85364,-0.0,0.619875,0.8221829,0.0,2,0,0,0
224474851,49.092675477790834,2.1093945644787455,180.09558,226.50482,-0.0,0.6199781,0.8219489,0.0,2,0,0,0
225474857,49.092529622107506,2.1091340439981763,186.11569,232.60489,-0.0,0.62052244,0.8230646,0.0,2,0,0,0
225674851,49.09249713869163,2.1090899329495816,187.36887,233.89813,-0.0,0.6205626,0.8227609,0.0,2,0,0,0
225874851,49.092463659855866,2.1090485993330943,188.64798,235.19717,-0.0,0.6205819,0.82363117,0.0,2,0,0,0
226074874,49.09242957230634,2.109010168868533,190.02986,236.59866,-0.0,0.6206577,0.82326245,0.0,2,0,0,0
226274851,49.09239517161373,2.1089732876047838,191.42523,238.01392,-0.0,0.6207318,0.8228772,0.0,2,0,0,0
226474851,49.09236056123591,2.1089369975538945,192.76164,239.35033,-0.0,0.62078613,0.8236922,0.0,2,0,0,0
226674851,49.092325964846594,2.1089009359684145,194.0362,240.6654,-0.0,0.6207345,0.8232738,0.0,2,0,0,0
226874912,49.09229116946926,2.1088648990618832,195.25308,241.90234,-0.0,0.62069297,0.82284164,0.0,2,0,0,0
227074851,49.09225611802231,2.108829207141178,196.43336,243.10258,-0.0,0.620579,0.8224017,0.0,2,0,0,0
227274851,49.09222069167333,2.1087942044036176,197.57355,244.24277,-0.0,0.62047285,0.823155,0.0,2,0,0,0
227474851,49.09218477762403,2.108759928257644,198.62129,245.33096,-0.0,0.620363,0.8226812,0.0,2,0,0,0
227674851,49.09214847440708,2.1087266689324418,199.65414,246.3834,-0.0,0.6202081,0.82340956,0.0,2,0,0,0
227874851,49.09211165660024,2.108694496841012,200.67737,247.42703,-0.0,0.62012017,0.8229378,0.0,2,0,0,0
228074850,49.0920744411227,2.108663558456334,201.70859,248.45825,-0.0,0.61999947,0.82246834,0.0,2,0,0,0
228274884,49.092036917714054,2.1086333863630102,202.72794,249.49762,-0.0,0.6198935,0.8220022,0.0,2,0,0,0
228474943,49.091999189010586,2.1086033807083018,203.69485,250.50418,-0.0,0.61979955,0.82273954,0.0,2,0,0,0
228674863,49.091961228658164,2.108573090533566,204.60849,251.41782,-0.0,0.61974394,0.82229406,0.0,2,0,0,0
228874885,49.09192326939083,2.1085424933043857,205.61308,252.44275,-0.0,0.6196591,0.8218437,0.0,2,0,0,0
229074853,49.09188531641747,2.108511246715813,206.64006,253.48973,-0.0,0.61960506,0.8225766,0.0,2,0,0,0
229274901,49.091847125887234,2.108479323536607,207.5747,254.46437,-0.0,0.6195523,0.82211643,0.0,2,0,0,0
229474863,49.09180867584502,2.108446818487615,208.4127,255.30237,-0.0,0.619494,0.8216666,0.0,2,0,0,0
229674866,49.09177016554451,2.1084138868416162,209.2009,256.1131,-0.0,0.619346,0.8223943,0.0,2,0,0,0
229874851,49.09173129226374,2.108380414405508,209.97829,256.9085,-0.0,0.6193005,0.82194775,0.0,2,0,0,0
230074851,49.09169202019454,2.1083468733046855,210.78769,257.73737,-0.0,0.6192672,0.82150805,0.0,2,0,0,0
230274851,49.091652336584694,2.1083138201118303,211.62178,258.59146,-0.0,0.6192353,0.82107735,0.0,2,0,0,0
230474885,49.09161219327358,2.1082815438011346,212.54178,259.5316,-0.0,0.6191954,0.82182425,0.0,2,0,0,0
230674851,49.09157178540445,2.1082504724782134,213.55466,260.58432,-0.0,0.61918145,0.82256055,0.0,2,0,0,0
230874851,49.09153105178105,2.1082209003541053,214.60645,261.6361,-0.0,0.6191855,0.82209074,0.0,2,0,0,0
231074874,49.0914898805643,2.1081927547161223,215.62631,262.67612,-0.0,0.61917526,0.8216289,0.0,2,0,0,0
231274851,49.09144818297142,2.108166093611148,216.67093,263.74023,-0.0,0.6192005,0.8223677,0.0,2,0,0,0
231474851,49.09140633335446,2.1081408983695393,217.71732,264.807,-0.0,0.6191958,0.8219239,0.0,2,0,0,0
231674851,49.091364368755,2.1081166365165824,218.61075,265.72116,-0.0,0.61919004,0.8214966,0.0,2,0,0,0
233474904,49.09099109006021,2.107952842529387,225.10681,272.41653,-0.0,0.61875576,0.8222707,0.0,2,0,0,0
233674851,49.090952896982266,2.107944264163781,225.97504,273.28476,-0.0,0.61877984,0.82186425,0.0,2,0,0,0
233874859,49.09091576730652,2.107937686745821,226.90546,274.23578,-0.0,0.61884284,0.82146895,0.0,2,0,0,0
234074854,49.09087954979613,2.1079324126888714,227.80713,275.17682,-0.0,0.61891544,0.8222638,0.0,2,0,0,0
234274851,49.09084419078517,2.1079279216822595,228.67587,276.04553,-0.0,0.61898506,0.8218827,0.0,2,0,0,0
234474851,49.09080962467369,2.1079239167965715,229.48724,276.87692,-0.0,0.61904097,0.8215134,0.0,2,0,0,0
234674846,49.09077581427342,2.10792039027912,230.207,277.61667,-0.0,0.61907166,0.8211466,0.0,2,0,0,0
234874888,49.0907427410528,2.1079170489712333,230.90814,278.33774,-0.0,0.6190807,0.82196265,0.0,2,0,0,0
235074851,49.090710405005936,2.1079136131252403,231.62451,279.0752,-0.0,0.6190414,0.8216024,0.0,2,0,0,0
235274851,49.09067848036381,2.1079102973346546,232.2468,279.71658,-0.0,0.6190446,0.8223969,0.0,2,0,0,0
235474886,49.09064678709108,2.1079073193285685,232.71182,280.20203,-0.0,0.6189982,0.8220082,0.0,2,0,0,0
235674851,49.09061544628923,2.107904674280717,233.1326,280.6434,-0.0,0.6188836,0.8216213,0.0,2,0,0,0
235874851,49.09058429638131,2.1079026534699645,233.5224,281.072,-0.0,0.61882496,0.82242274,0.0,2,0,0,0
236074872,49.09055303781379,2.1079017231536805,233.79538,281.34497,-0.0,0.61875266,0.8220442,0.0,2,0,0,0
236274896,49.090521482865185,2.1079020293937765,233.97336,281.56213,-0.0,0.61866355,0.82167023,0.0,2,0,0,0
236474864,49.09048949739924,2.107903656223052,234.0307,281.63998,-0.0,0.6186061,0.8213039,0.0,2,0,0,0
236674851,49.090457125190134,2.1079065688518956,233.98181,281.61148,-0.0,0.6185301,0.82212204,0.0,2,0,0,0
236874887,49.090424583469414,2.107910935114363,233.87466,281.50433,-0.0,0.61841387,0.82176304,0.0,2,0,0,0
237074851,49.09039199183294,2.107916942336776,233.77136,281.42163,-0.0,0.6183167,0.82140326,0.0,2,0,0,0
237274887,49.09035935638873,2.1079246722388962,233.73563,281.4253,-0.0,0.6182674,0.8210513,0.0,2,0,0,0
237474851,49.09032679350098,2.1079339927971477,233.68994,281.39914,-0.0,0.6182614,0.82187337,0.0,2,0,0,0
237674898,49.090294302489454,2.1079452068034152,233.62442,281.35364,-0.0,0.61830765,0.82152736,0.0,2,0,0,0
237874851,49.09026207506418,2.1079586245832047,233.57788,281.32715,-0.0,0.6183785,0.82118493,0.0,2,0,0,0
238074851,49.09023023568924,2.1079743064758394,233.52924,281.29803,-0.0,0.61847055,0.8220201,0.0,2,0,0,0
238274887,49.09019898265509,2.107992272165253,233.46442,281.25363,-0.0,0.6185741,0.82166827,0.0,2,0,0,0
238474853,49.09016865508295,2.1080126976505427,233.4303,281.2395,-0.0,0.6186886,0.8213168,0.0,2,0,0,0
238674851,49.09013953548865,2.1080357811456922,233.47507,281.30377,-0.0,0.61882794,0.8221476,0.0,2,0,0,0
238874851,49.09011183532982,2.1080612477137257,233.59448,281.44318,-0.0,0.6189918,0.8218022,0.0,2,0,0,0
239074851,49.09008554159559,2.108088732534211,233.77008,281.63937,-0.0,0.6191608,0.8214615,0.0,2,0,0,0
239274863,49.09006071002479,2.108117838724237,234.00958,281.89883,-0.0,0.61932224,0.8211246,0.0,2,0,0,0
239474899,49.09003734860432,2.108148290940687,234.28958,282.19888,-0.0,0.6194788,0.8219686,0.0,2,0,0,0
239674851,49.09001522366767,2.1081798440263624,234.54993,282.45923,-0.0,0.61960346,0.8216377,0.0,2,0,0,0
239874854,49.08999413661041,2.1082122932648493,234.75534,282.68515,-0.0,0.61964816,0.82247764,0.0,2,0,0,0
240074851,49.08997388866115,2.1082456734500004,234.8906,282.83987,-0.0,0.6196989,0.82212526,0.0,2,0,0,0
240274851,49.08995461560239,2.108279904530419,235.00516,282.99442,-0.0,0.6197188,0.8217789,0.0,2,0,0,0
240474922,49.0899363651171,2.1083148641307994,235.10928,283.11853,-0.0,0.6197232,0.82143027,0.0,2,0,0,0
240674853,49.08991916996467,2.108350404312344,235.21143,283.24066,-0.0,0.6197115,0.82226723,0.0,2,0,0,0
240874888,49.08990303990566,2.1083865789294,235.32816,283.37738,-0.0,0.6196923,0.8219216,0.0,2,0,0,0
241074854,49.089888056278,2.1084232718926095,235.45862,283.52798,-0.0,0.6196709,0.8215771,0.0,2,0,0,0
241274851,49.089874223386296,2.1084604620398464,235.58658,283.67587,-0.0,0.61964697,0.8212375,0.0,2,0,0,0
241474887,49.089861458000634,2.1084980169440475,235.68921,283.79846,-0.0,0.6196177,0.8220655,0.0,2,0,0,0
241674851,49.08984964013414,2.1085359426885444,235.7344,283.86322,-0.0,0.6195764,0.82170194,0.0,2,0,0,0
241874891,49.08983878289493,2.108574462859021,235.70364,283.85284,-0.0,0.619519,0.8225251,0.0,2,0,0,0
242074854,49.089828818526776,2.1086135455041295,235.56207,283.73132,-0.0,0.61945045,0.8221581,0.0,2,0,0,0
242274851,49.08981978931153,2.1086531754322038,235.29474,283.48395,-0.0,0.6193638,0.82179403,0.0,2,0,0,0
242474851,49.089811751478244,2.10869345186269,234.89682,283.10608,-0.0,0.6192452,0.82142127,0.0,2,0,0,0
242674853,49.08980498718114,2.1087345138213367,234.38467,282.61395,-0.0,0.61911994,0.82222915,0.0,2,0,0,0
242874854,49.089799641331346,2.108776488080855,233.73096,281.9803,-0.0,0.61899626,0.82183844,0.0,2,0,0,0
243074851,49.08979631448048,2.108819526964902,232.95715,281.22638,-0.0,0.61887425,0.82260275,0.0,2,0,0,0
243274886,49.0897957612651,2.108863623959998,232.12161,280.4109,-0.0,0.61879027,0.8221485,0.0,2,0,0,0
243474851,49.08979831285375,2.1089082138173643,231.29593,279.60483,-0.0,0.6187569,0.8229017,0.0,2,0,0,0
243674851,49.089804221391866,2.1089528007558025,230.5586,278.88788,-0.0,0.61879194,0.8224671,0.0,2,0,0,0
243874851,49.089813341979806,2.1089968213227683,229.9508,278.29962,-0.0,0.6188958,0.82205176,0.0,2,0,0,0
244074858,49.089825707543994,2.1090395408619234,229.53415,277.90305,-0.0,0.6190543,0.82284904,0.0,2,0,0,0
244274854,49.08984124387508,2.1090804042985036,229.34619,277.73462,-0.0,0.6192741,0.82247144,0.0,2,0,0,0
244474851,49.08985912154719,2.109119219401814,229.33185,277.7411,-0.0,0.61956805,0.82328784,0.0,2,0,0,0
244674866,49.089878295676996,2.109156148492857,229.39844,277.82767,-0.0,0.61977786,0.82287365,0.0,2,0,0,0
244874858,49.08989819548056,2.1091915975791355,229.45148,277.90073,-0.0,0.6199328,0.8224564,0.0,2,0,0,0
245074854,49.08991879536895,2.1092258025039996,229.47052,277.93982,-0.0,0.62003976,0.823248,0.0,2,0,0,0
245274870,49.08993986959357,2.109259137100917,229.39246,277.88126,-0.0,0.6200861,0.8228371,0.0,2,0,0,0
245474902,49.08996131139669,2.109291933606037,229.17023,277.6795,-0.0,0.62007064,0.82242393,0.0,2,0,0,0
245674890,49.08998324791871,2.109324240840827,228.79614,277.32455,-0.0,0.62000155,0.8220174,0.0,2,0,0,0
245874889,49.09000588060837,2.1093561906056495,228.267,276.8158,-0.0,0.6199358,0.8228105,0.0,2,0,0,0
246074873,49.09002930987925,2.109387601013868,227.59442,276.1629,-0.0,0.619789,0.8235837,0.0,2,0,0,0
246274864,49.09005359706983,2.1094182523564555,226.80923,275.39804,-0.0,0.61962837,0.8231221,0.0,2,0,0,0
248074864,49.09030993355366,2.1096708493663945,218.72482,267.4941,-0.0,0.6186467,0.822732,0.0,2,0,0,0
248274887,49.090339573623744,2.1096997577825993,218.09024,266.87952,-0.0,0.6186432,0.82345825,0.0,2,0,0,0
248474858,49.090369505910346,2.1097290080531734,217.4968,266.306,-0.0,0.6186661,0.8229747,0.0,2,0,0,0
248674851,49.09040006469515,2.1097586851466086,216.88159,265.71088,-0.0,0.61870444,0.8224975,0.0,2,0,0,0
248874851,49.09043119858737,2.1097888909053633,216.27841,265.12775,-0.0,0.6187521,0.8220291,0.0,2,0,0,0
249074854,49.09046270963903,2.109819705695029,215.73914,264.60834,-0.0,0.61882263,0.8227567,0.0,2,0,0,0
249274854,49.09049432435964,2.109851261692327,215.21515,264.10437,-0.0,0.618909,0.82346576,0.0,2,0,0,0
249474859,49.09052604377853,2.1098837494824485,214.72498,263.6142,-0.0,0.61899483,0.82295334,0.0,2,0,0,0
249674877,49.090557701028374,2.109917095596159,214.24948,263.17874,-0.0,0.6190915,0.8224489,0.0,2,0,0,0
249874887,49.0905891122259,2.1099512406820136,213.76773,262.71698,-0.0,0.61917406,0.82195973,0.0,2,0,0,0
250074851,49.09062031243252,2.109986494400391,213.33885,262.30814,-0.0,0.6192692,0.82267165,0.0,2,0,0,0
250274893,49.09065130795958,2.110022847192254,212.91905,261.90836,-0.0,0.6193627,0.8221973,0.0,2,0,0,0
250474943,49.090682059696505,2.1100601956211578,212.4945,261.50378,-0.0,0.6194436,0.8217381,0.0,2,0,0,0
250674851,49.090712577728496,2.1100985900323637,212.07324,261.10254,-0.0,0.61951745,0.82246286,0.0,2,0,0,0
250874851,49.09074295166291,2.110138066469223,211.66833,260.69763,-0.0,0.61958104,0.8231737,0.0,2,0,0,0
251074855,49.09077318252737,2.1101783342238534,211.28235,260.35156,-0.0,0.6196399,0.8226655,0.0,2,0,0,0
251274860,49.090803322741046,2.110219216267748,210.92882,260.01697,-0.0,0.6196879,0.82216084,0.0,2,0,0,0
251474851,49.09083330986546,2.110260501343837,210.63458,259.7404,-0.0,0.6197271,0.82286996,0.0,2,0,0,0
251674851,49.09086329532858,2.110302090954426,210.39993,259.5214,-0.0,0.6197632,0.8223924,0.0,2,0,0,0
251874887,49.09089333305972,2.1103438121507505,210.20703,259.34204,-0.0,0.6197886,0.8219297,0.0,2,0,0,0
252074851,49.09092339424141,2.1103854927826586,210.0502,259.19562,-0.0,0.6197983,0.82267046,0.0,2,0,0,0
252274851,49.09095350700502,2.1104269990323874,209.92993,259.08328,-0.0,0.6197945,0.8222087,0.0,2,0,0,0
252474854,49.090983718144784,2.1104682261307968,209.88992,259.0482,-0.0,0.61978155,0.8229254,0.0,2,0,0,0
252674851,49.09101422252168,2.110508899577937,209.89606,259.05768,-0.0,0.61977804,0.82243073,0.0,2,0,0,0
252874863,49.091045220074086,2.110548960274696,209.95412,259.118,-0.0,0.6197906,0.8231516,0.0,2,0,0,0
253074851,49.091076707235416,2.1105880995277952,210.07623,259.2403,-0.0,0.61975753,0.82267916,0.0,2,0,0,0
253274879,49.091108756873616,2.110626213779997,210.22507,259.38766,-0.0,0.6197149,0.82221997,0.0,2,0,0,0
253474851,49.091141335506975,2.1106631827616575,210.4376,259.59683,-0.0,0.6196672,0.8217732,0.0,2,0,0,0
253674856,49.09117435435193,2.11069890955403,210.78696,259.9405,-0.0,0.6196361,0.82252383,0.0,2,0,0,0
253874851,49.09120734615746,2.1107331083250878,211.43353,260.57803,-0.0,0.6196457,0.8232608,0.0,2,0,0,0
254074898,49.09124016930884,2.1107655702009254,212.32939,261.46246,-0.0,0.6197285,0.82277143,0.0,2,0,0,0
254274851,49.091273167831986,2.1107963192529895,213.21901,262.34006,-0.0,0.61981356,0.8222836,0.0,2,0,0,0
