timestamp,gyro_rad[0],gyro_rad[1],gyro_rad[2],gyro_integral_dt,accelerometer_timestamp_relative,accelerometer_m_s2[0],accelerometer_m_s2[1],accelerometer_m_s2[2],accelerometer_integral_dt,accelerometer_clipping
128109851,0.0027029961,-0.0007025822,-0.003365695,4996,0,-0.26938546,-0.089989506,-9.812921,4996,0
128164857,0.0015794642,0.0028419646,-0.00063056214,4991,0,-0.29447004,-0.09021517,-9.856873,4991,0
128169848,0.0010846213,0.0016344229,-0.002593047,4991,0,-0.2755297,-0.102074936,-9.87464,4991,0
128174886,0.0034085638,0.0017993158,-0.0016239542,5038,0,-0.26032028,-0.095610805,-9.847462,5038,0
128179872,0.0037693407,0.0017730996,-0.00048962556,4986,0,-0.25412732,-0.10052003,-9.883105,4986,0
128184879,0.0066997446,0.0017516761,0.001366497,5007,0,-0.25435746,-0.07976604,-9.885993,5007,0
128189870,0.006313977,0.0019519024,0.0009749581,4991,0,-0.2361049,-0.085945755,-9.857189,4991,0
128194892,0.004940567,-0.002140065,0.00055904605,5022,0,-0.24056911,-0.079422764,-9.875593,5022,0
128199878,0.005093427,-0.0020621985,0.003932781,4986,0,-0.25610834,-0.05619309,-9.891136,4986,0
128204875,0.004643515,-0.0025128508,0.001990321,4997,0,-0.2375141,-0.049934544,-9.870162,4997,0
128209892,0.004853085,-0.0025126787,0.0021875184,5017,0,-0.2245599,-0.04879196,-9.853937,5017,0
128214898,0.0061740982,-0.0020199544,-0.00034938118,5006,0,-0.23557831,-0.04268745,-9.8527775,5006,0
128219898,0.0036152494,-0.0016311083,-0.00027614235,5000,0,-0.2750807,-0.037203982,-9.893188,5000,0
128224892,0.004432345,-0.0025930398,0.00014316129,4994,0,-0.27064672,-0.046765763,-9.878995,4994,0
128229879,0.004515682,-0.0029608477,-0.0012511914,4987,0,-0.2807513,-0.04762025,-9.840296,4987,0
128234854,0.007393726,-0.0034201527,0.00033276764,4975,0,-0.27945164,-0.04206776,-9.833617,4975,0
128239852,0.0065941415,-0.0014520086,-0.0021552106,4998,0,-0.29106927,-0.039682753,-9.843606,4998,0
128244853,0.004922028,-0.0007588755,-0.00039121267,5001,0,-0.30692518,-0.043129243,-9.824881,5001,0
128249849,0.008471817,0.0010794825,0.00017927829,4996,0,-0.28003585,-0.026126472,-9.780414,4996,0
128254851,0.0068381536,0.0009705912,-0.0015204897,5002,0,-0.26900586,-0.03871864,-9.785332,5002,0
128259854,0.0054065473,-0.0012847155,-0.0016112078,5003,0,-0.25960562,-0.04219448,-9.824032,5003,0
128264879,0.0034460966,-0.001057333,-0.0016122074,5025,0,-0.25174278,-0.07965161,-9.82454,5025,0
128269859,0.0058558276,0.00059497636,-0.0016346198,4980,0,-0.24238332,-0.06300971,-9.81146,4980,0
128274851,0.0054847663,0.0013623495,-0.003802178,4992,0,-0.27606353,-0.061152954,-9.8231325,4992,0
128279857,0.007927677,0.00059255766,-0.0038931547,5006,0,-0.27387097,-0.06524844,-9.805581,5006,0
128284849,0.008579018,0.0012958121,-0.0018240107,4992,0,-0.25999752,-0.05775814,-9.822609,4992,0
128289848,0.008186553,0.0030740805,-0.0034327107,4999,0,-0.2501746,-0.05699968,-9.812544,4999,0
128294851,0.006411731,0.0029279196,-0.0034976143,5003,0,-0.2609211,-0.054467738,-9.787979,5003,0
128299849,0.006462909,0.0032253335,-0.004095342,4998,0,-0.2670534,-0.04707502,-9.8435545,4998,0
128304852,0.006758207,0.0030122106,-0.0055564893,5003,0,-0.27355337,-0.063507386,-9.820597,5003,0
128309851,0.006013343,0.002549085,-0.004306621,4999,0,-0.28836447,-0.053330984,-9.857623,4999,0
128314854,0.009516314,0.002079349,-0.005258829,5003,0,-0.29296327,-0.06886122,-9.834034,5003,0
128319851,0.010276423,0.001624999,-0.0053248587,4997,0,-0.3178312,-0.06963764,-9.866888,4997,0
128324851,0.0059164255,0.00073635945,-0.0037424986,5000,0,-0.29694167,-0.070143744,-9.837203,5000,0
128329851,0.0077084266,0.0018837311,-0.0049062427,5000,0,-0.28236645,-0.0475427,-9.804494,5000,0
128334854,0.009947624,0.0025716661,-0.0066656447,5003,0,-0.28667554,-0.06831321,-9.821132,5003,0
128339852,0.007842123,0.0019374739,-0.0060805953,4998,0,-0.28258064,-0.044991117,-9.8471775,4998,0
128344851,0.0073696515,0.0030442113,-0.0053256163,4999,0,-0.2844869,-0.07096265,-9.899998,4999,0
128349848,0.006535987,0.0005361663,-0.004811028,4997,0,-0.27364683,-0.08020954,-9.890025,4997,0
128354851,0.0070301993,-0.0003818345,-0.0036319706,5003,0,-0.27201197,-0.074970074,-9.877512,5003,0
128359848,0.006499671,0.002377932,-0.004845162,4997,0,-0.25017834,-0.09253767,-9.901739,4997,0
128364848,0.00488913,-0.0005939577,-0.003761308,5000,0,-0.26981696,-0.093006305,-9.923625,5000,0
128369878,0.008123115,-0.0015308853,-0.0036276944,5030,0,-0.27170882,-0.10684734,-9.931704,5030,0
128374866,0.010711315,-0.0016153824,-0.0033104294,4988,0,-0.25231165,-0.12610196,-9.927805,4988,0
128379848,0.0061937165,-0.0011546747,-0.0019517996,4982,0,-0.25610015,-0.1326202,-9.938341,4982,0
128384849,0.006533942,-0.005211436,-0.0022470208,5001,0,-0.2736744,-0.12843798,-9.911492,5001,0
128389848,0.0071387775,-0.001583361,-0.002991148,4999,0,-0.26983947,-0.12065456,-9.885013,4999,0
128394855,0.0071401056,-0.0035088223,-0.0031053054,5007,0,-0.26316312,-0.115962684,-9.924051,5007,0
128399848,0.0032081346,-0.0027932,-0.0011607988,4993,0,-0.27264175,-0.14452323,-9.880106,4993,0
128404848,0.007716917,-0.003244713,-0.0023863348,5000,0,-0.28483874,-0.12971814,-9.839594,5000,0
128409848,0.00220423,-0.0052923197,-0.000683438,5000,0,-0.29085928,-0.16084446,-9.868535,5000,0
128414851,0.003987509,-0.004934041,0.002981637,5003,0,-0.30090702,-0.1467923,-9.848192,5003,0
128419848,0.002989927,-0.008221138,0.0029432445,4997,0,-0.30231524,-0.13844047,-9.861518,4997,0
128424848,0.0026851723,-0.0047679716,0.003754035,5000,0,-0.29611942,-0.12753843,-9.841167,5000,0
128429848,-0.0004354892,-0.0023761026,0.0058155865,5000,0,-0.2740258,-0.13575216,-9.79558,5000,0
128434851,-0.0010453314,-0.002057294,0.006445956,5003,0,-0.28093687,-0.12951405,-9.821735,5003,0
128439848,0.002542389,-0.00019120138,0.005894092,4997,0,-0.29873276,-0.122582,-9.861566,4997,0
128444848,0.0016015669,0.00072379335,0.004482099,5000,0,-0.2992984,-0.086360544,-9.775123,5000,0
128449848,-0.0028747567,0.000815792,0.0059137363,5000,0,-0.3060975,-0.0791671,-9.769693,5000,0
128454851,0.0037933644,-0.000986933,0.005055374,5003,0,-0.31834438,-0.08450581,-9.831006,5003,0
128459848,-0.0011823557,0.0009735299,0.007424871,4997,0,-0.31491894,-0.073849924,-9.7983675,4997,0
128464848,0.00081432157,0.0021789232,0.0058203675,5000,0,-0.32135668,-0.033257183,-9.823918,5000,0
128469848,0.0017732951,0.0014155299,0.006694789,5000,0,-0.29295108,-0.03574842,-9.780171,5000,0
128474895,0.0010245853,0.0036793796,0.008095317,5047,0,-0.26860145,0.004305178,-9.783917,5047,0
128479848,-0.0017773148,0.0044555524,0.0035360039,4953,0,-0.2518002,0.025837855,-9.797842,4953,0
128484851,-0.00038316523,0.0071755876,0.0030796838,5003,0,-0.2547245,0.0052971845,-9.729507,5003,0
128489848,-0.0021306658,0.009812929,0.00081362156,4997,0,-0.24527308,-0.0073574996,-9.793634,4997,0
128494900,-6.382891e-06,0.010284217,-0.0003254622,5052,0,-0.25374725,0.00051511044,-9.804943,5052,0
128499848,-0.0016908934,0.011648007,-0.0002994558,4948,0,-0.24199088,0.00022711726,-9.759856,4948,0
128504848,-0.00075454207,0.014318482,-0.0008849996,5000,0,-0.22409683,-0.008979398,-9.7230625,5000,0
128509859,0.0034720923,0.012373019,-0.003713256,5011,0,-0.3437495,-0.02768037,-9.7774515,5011,0
128514856,0.0015957379,0.013757844,-0.0014174539,4997,0,-0.29310396,-0.074471734,-9.751028,4997,0
128519864,0.0027108032,0.0127850035,-0.002228464,5008,0,-0.20335226,-0.046655387,-9.769942,5008,0
128524848,0.00036916888,0.015099977,-0.004227623,4984,0,-0.3981873,-0.07165538,-9.795683,4984,0
128529906,-0.004859634,0.020076154,-0.0025335932,5058,0,-0.20948774,-0.053356826,-9.674417,5058,0
128534851,-0.004974542,0.016955387,-0.0034588748,4945,0,-0.32944328,-0.049938153,-9.913155,4945,0
128539848,-0.0017488024,0.016568484,-0.0010269183,4997,0,-0.28105548,-0.11866273,-9.822398,4997,0
128544848,-0.004767176,0.014326854,-0.00012253679,5000,0,-0.2899837,-0.04091701,-9.782026,5000,0
128549848,-0.009024666,0.016134845,-0.0033194162,5000,0,-0.30895066,-0.049995817,-9.913402,5000,0
128554851,-0.0032103425,0.015241611,-0.0010291223,5003,0,-0.25715512,-0.1490025,-9.872724,5003,0
128559848,-0.004807982,0.014164802,-0.00413107,4997,0,-0.2640637,-0.052396674,-9.919231,4997,0
128564848,-0.00039687334,0.01640042,-0.0037190104,5000,0,-0.24490473,-0.065320395,-9.816643,5000,0
128569848,0.0009910672,0.017657757,-0.0026393968,5000,0,-0.20674558,-0.11883643,-9.895282,5000,0
128574851,0.00043188423,0.02013996,-0.0041345344,5003,0,-0.21277416,0.009396568,-9.918934,5003,0
128579889,0.00016004844,0.016532686,-0.007842486,5038,0,-0.2537513,-0.03668004,-9.896542,5038,0
128584848,-0.0014860326,0.013501931,-0.0042019486,4959,0,-0.28264093,-0.06738181,-9.906853,4959,0
128589848,-0.0008845007,0.010270807,-0.0016032143,5000,0,-0.2352443,-0.004790283,-9.875104,5000,0
128594851,-0.003967619,0.010542431,-0.006016089,5003,0,-0.18381931,-0.0005569937,-9.89066,5003,0
128599849,-0.0056791916,0.0081241755,-0.0075533036,4998,0,-0.2124851,-0.012419987,-9.919175,4998,0
128604848,-0.0032258779,0.008266249,-0.0061114226,4999,0,-0.27750194,-0.019189278,-9.987593,4999,0
128609848,-0.004774599,0.0055488585,-0.005575591,5000,0,-0.25465018,-0.033822667,-9.976899,5000,0
128614851,-0.0031591712,0.0024299466,-0.008388884,5003,0,-0.24344938,-0.03871619,-9.969628,5003,0
128619848,-0.0038667554,0.0019892226,-0.011049755,4997,0,-0.26870957,-0.052402277,-9.94496,4997,0
128624848,-0.0023631223,0.0019335783,-0.011136227,5000,0,-0.25129983,-0.04539972,-9.959289,5000,0
128629849,-0.0019966518,0.0018704378,-0.011788216,5001,0,-0.2181009,-0.027230218,-9.99508,5001,0
128634851,-0.0024452263,0.00032408658,-0.0123767555,5002,0,-0.21707824,-0.06354896,-10.024901,5002,0
128639851,-0.00088169536,-0.00039766368,-0.01302711,5000,0,-0.21546246,-0.040210575,-10.000923,5000,0
128644851,-0.0030164376,-0.0051954626,-0.012292937,5000,0,-0.2004779,-0.043972902,-9.905591,5000,0
128649851,-0.0005372271,-0.0043871906,-0.011415538,5000,0,-0.1734471,-0.07432415,-9.859538,5000,0
128654854,0.0010565282,-0.00421435,-0.011150058,5003,0,-0.13990687,-0.089524016,-9.899093,5003,0
128659860,0.0026610398,-0.00471254,-0.012375586,5006,0,-0.20244582,-0.07716005,-9.906156,5006,0
128664851,0.0031224706,-0.0052759983,-0.012721122,4991,0,-0.19688997,-0.078296855,-9.82582,4991,0
128669851,0.0034609835,-0.005854707,-0.014199348,5000,0,-0.20042236,-0.103341,-9.786405,5000,0
128674854,0.0019107751,-0.005366232,-0.0112740295,5003,0,-0.21129885,-0.09428935,-9.778903,5003,0
128679854,5.513503e-05,-0.0052049877,-0.011668252,5000,0,-0.17037812,-0.06909579,-9.782709,5000,0
128684882,-0.0013421822,-0.004049357,-0.009197416,5028,0,-0.21341811,-0.084438786,-9.775055,5028,0
128689848,-0.0027500212,-0.0030908568,-0.007830745,4966,0,-0.20977065,-0.0848256,-9.802592,4966,0
128694851,-0.005892876,-0.0024173,-0.0064766477,5003,0,-0.22657216,-0.09973266,-9.826627,5003,0
128699848,-0.0042827385,-0.003154423,-0.0074097766,4997,0,-0.20206963,-0.10193285,-9.770233,4997,0
128704871,-0.00019513853,0.00040862206,-0.0048340173,5023,0,-0.208485,-0.093339525,-9.721499,5023,0
128709848,0.00232536,9.134641e-05,-0.0053783883,4977,0,-0.23542573,-0.12520415,-9.757573,4977,0
128714851,0.0031204252,0.0031238308,-0.003876987,5003,0,-0.24230553,-0.12829019,-9.750199,5003,0
128719856,0.004510593,0.0043496466,-0.0044734403,5005,0,-0.22922514,-0.11140494,-9.737077,5005,0
128724852,0.008979099,0.0050325864,-0.0027489434,4996,0,-0.2599453,-0.069391504,-9.746052,4996,0
128729849,0.007744096,0.0035445187,-0.00070282,4997,0,-0.24359092,-0.081501134,-9.73142,4997,0
128734851,0.009192057,0.0060649267,-0.00035176807,5002,0,-0.2658565,-0.067677274,-9.71535,5002,0
128739848,0.0074329367,0.007455005,-0.00016285347,4997,0,-0.27008075,-0.089204356,-9.687867,4997,0
128744848,0.008572252,0.006856789,0.0009938193,5000,0,-0.307401,-0.08996722,-9.731226,5000,0
128749857,0.0043292125,0.00698111,0.002507802,5009,0,-0.3104935,-0.08066165,-9.784154,5009,0
128754851,0.003729807,0.007239695,0.005599712,4994,0,-0.2969751,-0.071859784,-9.810049,4994,0
128759848,0.0034142982,0.008615301,0.0036521975,4997,0,-0.2852531,-0.053132992,-9.833827,4997,0
128764851,0.0053605814,0.009920463,0.0043354435,5003,0,-0.31985697,-0.059693858,-9.832437,5003,0
128769848,0.0056406916,0.008545852,0.0054065213,4997,0,-0.29116157,-0.05750376,-9.8701,4997,0
128774851,0.0057576136,0.0105776265,0.005816611,5003,0,-0.29651976,-0.055317126,-9.90423,5003,0
128779848,0.0062079118,0.008447122,0.0052508223,4997,0,-0.25563684,-0.036433004,-9.969972,4997,0
128784848,0.008310607,0.006044672,0.005024515,5000,0,-0.2369802,-0.05138333,-9.947421,5000,0
128789892,0.009324191,0.0024853298,0.0039414014,5044,0,-0.2613989,-0.03588285,-9.97222,5044,0
128794851,0.010426806,0.001042125,0.006211328,4959,0,-0.2161286,-0.050523035,-9.99338,4959,0
128799848,0.012716417,-0.0015616206,0.005971375,4997,0,-0.24308614,-0.04467658,-9.955208,4997,0
128804850,0.0097093,-0.000724675,0.005058066,5002,0,-0.255605,-0.040793788,-9.9756155,5002,0
128809853,0.012448498,-0.0026618496,0.004123574,5003,0,-0.27397338,-0.07477028,-10.013843,5003,0
128814851,0.015935376,-0.001590277,0.0033030366,4998,0,-0.26551813,-0.07087203,-9.967466,4998,0
128819850,0.012869494,-0.00073679467,-7.8861434e-05,4999,0,-0.27185762,-0.034774743,-9.942932,4999,0
128824864,0.011569506,5.5811128e-05,-0.00021671795,5014,0,-0.29505995,-0.03420326,-9.875338,5014,0
128829850,0.0073241624,-0.00018335323,-0.00075246027,4986,0,-0.31825337,-0.023338236,-9.916716,4986,0
128834862,0.0074114418,-0.0003452864,0.00058968324,5012,0,-0.3252598,-0.017883878,-9.919768,5012,0
128839848,0.0067483843,-0.00053407706,-0.00018237326,4986,0,-0.33265182,-0.043738082,-9.916094,4986,0
128844871,0.008782319,0.0022751598,-0.0015810895,5023,0,-0.2960575,-0.03385686,-9.896127,5023,0
128849848,0.009248531,0.0052073365,-0.0024279046,4977,0,-0.2883517,-0.017214853,-9.877025,4977,0
128854851,0.011598155,0.007695553,-0.002860981,5003,0,-0.25692993,-0.061983038,-9.87127,5003,0
128859848,0.016613245,0.0077837277,-0.005902274,4997,0,-0.27779204,-0.07600217,-9.878193,4997,0
128864886,0.013791548,0.009407865,-0.006499558,5038,0,-0.25162998,-0.055069856,-9.873758,5038,0
128869848,0.011351621,0.009029044,-0.007398025,4962,0,-0.22909366,-0.07390291,-9.834167,4962,0
128874893,0.015622721,0.009917969,-0.008865567,5045,0,-0.21809494,-0.07369729,-9.7946825,5045,0
128879850,0.0087206215,0.010359688,-0.0073263273,4957,0,-0.20857899,-0.058048204,-9.756072,4957,0
128884857,0.007802813,0.008301402,-0.007262467,5007,0,-0.16885324,-0.051077705,-9.759898,5007,0
128889853,0.0038159029,0.00839667,-0.007511998,4996,0,-0.14775805,-0.07075349,-9.737194,4996,0
128894887,0.00041992753,0.005673308,-0.004617629,5034,0,-0.13691074,-0.0811973,-9.737973,5034,0
128899863,-0.00049451046,0.0058405735,-0.0038709505,4976,0,-0.15154755,-0.06674049,-9.730534,4976,0
128904884,0.002546144,0.0038758225,-0.0044265017,5021,0,-0.14987843,-0.10034719,-9.748128,5021,0
128909875,0.008038821,0.0008657606,-0.005858058,4991,0,-0.17002815,-0.11181082,-9.735061,4991,0
128914888,0.007588247,-0.0006799965,-0.0037788448,5013,0,-0.16614649,-0.11342256,-9.745208,5013,0
128919885,0.013586974,-0.0020038742,-0.0057200375,4997,0,-0.18413275,-0.09098202,-9.771062,4997,0
128924879,0.01248645,-0.0024945845,-0.004609068,4994,0,-0.19466443,-0.092455566,-9.861365,4994,0
128929897,0.014176008,-0.006393539,-0.001785093,5018,0,-0.19758287,-0.086169384,-9.825032,5018,0
128934894,0.012285598,-0.009353604,-0.0037444595,4997,0,-0.20323832,-0.08122852,-9.849225,4997,0
128939885,0.009934581,-0.009103141,-0.0025310733,4991,0,-0.21387583,-0.09328409,-9.878835,4991,0
128944875,0.0041711815,-0.011621292,-0.001726471,4990,0,-0.20208219,-0.07043565,-9.911143,4990,0
128949858,0.00452579,-0.01113073,-0.0022377712,4983,0,-0.19910166,-0.0898322,-9.9505625,4983,0
128954854,0.0038885747,-0.0127163725,-0.0012311814,4996,0,-0.23453808,-0.09198601,-9.9588175,4996,0
128959848,0.0045847907,-0.011794983,2.5088433e-05,4994,0,-0.26881173,-0.107979,-9.933859,4994,0
128964848,0.0047386,-0.01144719,0.00017520903,5000,0,-0.28332505,-0.094565205,-9.965001,5000,0
128969848,0.006991176,-0.010337025,-0.0014524129,5000,0,-0.28825545,-0.07567284,-9.933315,5000,0
128974852,0.0069129285,-0.008303346,-0.0017093503,5004,0,-0.3056644,-0.085537784,-9.9534645,5004,0
128979851,0.005587131,-0.005774928,-0.00039399051,4999,0,-0.28520152,-0.07209375,-9.95,4999,0
128984858,0.003218524,-0.006472085,0.00038490776,5007,0,-0.31558192,-0.07858523,-9.929556,5007,0
128989851,0.0021889445,-0.0036848409,-0.0021813477,4993,0,-0.2980992,-0.08708448,-9.9267845,4993,0
128994854,0.0023292967,-0.0038179576,-0.00013611098,5003,0,-0.29278916,-0.080265686,-9.901586,5003,0
128999889,0.0037554211,-0.0011376479,0.0011393786,5035,0,-0.29768598,-0.09120546,-9.913961,5035,0
129004851,0.004909428,-0.0007190367,-0.0012318667,4962,0,-0.3156803,-0.095413,-9.933613,4962,0
129009855,0.0029574842,0.00073804194,-0.0026857166,5004,0,-0.30961004,-0.12000498,-9.923226,5004,0
129014857,0.0044262074,0.0026466416,-0.0018206129,5002,0,-0.32253543,-0.11234046,-9.915971,5002,0
129019851,0.005030845,0.003364971,-0.0014057047,4994,0,-0.3240605,-0.10762353,-9.874361,4994,0
129024848,0.00035633604,0.0015461468,-0.000429805,4997,0,-0.29431617,-0.10034218,-9.833834,4997,0
129029848,-0.00022184949,0.0047240397,-0.0015967299,5000,0,-0.31008893,-0.09092373,-9.821927,5000,0
129034851,-0.0041697016,0.0043084933,0.00025567086,5003,0,-0.28638572,-0.09477328,-9.775824,5003,0
129039848,-0.0035332527,0.0031167672,-0.0013268096,4997,0,-0.285825,-0.11605082,-9.7621355,4997,0
129044863,-0.0016352081,0.00081278494,-0.00038136065,5015,0,-0.2664146,-0.10720001,-9.7443695,5015,0
129049848,-0.0024711431,0.0010647711,-3.2107815e-05,4985,0,-0.24477857,-0.11269164,-9.737376,4985,0
129054851,-0.0006160697,-0.0009032055,0.00021916306,5003,0,-0.23208576,-0.09435425,-9.739472,5003,0
129059848,-0.0012823965,-0.0026656135,-0.0014315257,4997,0,-0.20751326,-0.08948967,-9.73423,4997,0
129064848,-0.0009899875,-0.0023896834,0.00019551221,5000,0,-0.17265913,-0.10425093,-9.722626,5000,0
129069848,-0.002282482,-0.0064793844,0.0013455206,5000,0,-0.20791739,-0.078820646,-9.780664,5000,0
129074851,-0.0025391153,-0.004395913,3.096744e-05,5003,0,-0.18633367,-0.08325954,-9.791892,5003,0
129079848,-0.0016062565,-0.0023197432,0.0019560766,4997,0,-0.19602288,-0.07964758,-9.791402,4997,0
129084852,-0.006128298,-0.0013881442,0.00050050684,5004,0,-0.18608606,-0.079492904,-9.784768,5004,0
129089851,-0.004946005,-0.0022496963,0.00096598564,4999,0,-0.20062578,-0.0921606,-9.850779,4999,0
129094851,-0.005063601,-0.0051927073,0.0032260013,5000,0,-0.17012152,-0.09482728,-9.8318,5000,0
129099848,-0.005817815,-0.005304093,0.0020467753,4997,0,-0.176472,-0.08162053,-9.857345,4997,0
129104886,-0.004720109,-0.0032504774,0.0027805488,5038,0,-0.20826858,-0.075147144,-9.907456,5038,0
129109848,-0.0026792965,-0.0021065269,0.002915428,4962,0,-0.17615025,-0.09043613,-9.899124,4962,0
129134863,-0.009515057,0.00081523915,0.0019534274,5015,0,-0.20766318,-0.039167084,-9.890072,5015,0
129139852,-0.0059811813,-0.0017847049,0.0023336464,4989,0,-0.22160849,-0.04900567,-9.891364,4989,0
129144852,-0.007992533,-0.0024557917,0.002934678,5000,0,-0.23517278,-0.036439985,-9.867535,5000,0
129149848,-0.005390622,-0.0016702072,-0.0005977597,4996,0,-0.23524405,-0.04308744,-9.897038,4996,0
129154851,-0.0060158293,-0.003483555,-0.0011857903,5003,0,-0.26930577,-0.059048977,-9.934334,5003,0
129159851,-0.0054865642,-0.0038516547,0.0010120654,5000,0,-0.29340145,-0.040978916,-9.907905,5000,0
129164848,-0.004972543,-0.0027750912,-0.0011706522,4997,0,-0.31357265,-0.043735158,-9.899803,4997,0
129169848,-0.006356066,0.0008281862,-0.002519736,5000,0,-0.2954286,-0.06660721,-9.881228,5000,0
129174851,-0.007718663,-0.0009826168,-0.0029937015,5003,0,-0.28146046,-0.04907231,-9.885915,5003,0
129179848,-0.006184555,-0.0011006544,-0.00026369558,4997,0,-0.28555515,-0.034364447,-9.90341,4997,0
129184848,-0.0073224735,0.00028100854,-0.00020617837,5000,0,-0.27967176,-0.046757475,-9.830057,5000,0
129189858,-0.0067653256,0.0014565428,-0.001317375,5010,0,-0.2746694,-0.069137245,-9.819071,5010,0
129194851,-0.005322069,-0.0004024547,-0.0046109813,4993,0,-0.26796013,-0.048405446,-9.85183,4993,0
129199848,-0.007261407,-0.002036228,-0.0037421214,4997,0,-0.26053247,-0.0544259,-9.823016,4997,0
129204848,-0.0034539308,-0.00014015984,-0.0027844734,5000,0,-0.24278583,-0.07416162,-9.8256855,5000,0
129209889,-0.0068411846,-0.0017677497,-0.00249689,5041,0,-0.2268102,-0.048286323,-9.814896,5041,0
129214851,-0.008037119,-1.0931297e-05,-0.002148477,4962,0,-0.22027192,-0.04249345,-9.840909,4962,0
129219848,-0.0069251517,0.00034741499,-0.004657228,4997,0,-0.23600613,-0.036758155,-9.8015585,4997,0
129224856,-0.00762294,-0.0030994094,-0.0025395136,5008,0,-0.23192106,-0.046807088,-9.814122,5008,0
129229849,-0.005396091,-0.0036599871,-0.0024281335,4993,0,-0.2516704,-0.060497537,-9.855039,4993,0
129234860,-0.00514579,-0.0026431745,-0.0036934153,5011,0,-0.25938162,-0.034313194,-9.864813,5011,0
129239848,-0.0063920994,-0.0013804807,-0.0035935077,4988,0,-0.25380364,-0.040989902,-9.863322,4988,0
129244851,-0.004355793,0.00028337422,-0.0043832883,5003,0,-0.24461228,-0.07243687,-9.843719,5003,0
129249848,-0.0023387163,-1.6231164e-05,-0.0023987293,4997,0,-0.2359927,-0.053148348,-9.841162,4997,0
129254851,-0.0020746225,0.00032806225,-0.0040963553,5003,0,-0.2348943,-0.056466043,-9.857568,5003,0
129259849,-0.0006602814,-0.0014541053,-0.003483495,4998,0,-0.2578652,-0.04864319,-9.83921,4998,0
129264853,-0.0015821777,-0.003586322,-0.0059494544,5004,0,-0.24515279,-0.045239907,-9.855769,5004,0
129269848,-0.0032279196,-0.001710478,-0.0053153676,4995,0,-0.24860679,-0.04189119,-9.853161,4995,0
129274853,-0.0047991057,-0.0019113172,-0.0043058204,5005,0,-0.23217341,-0.06827538,-9.843421,5005,0
129279849,-0.0023504794,-0.0014540417,-0.0028330192,4996,0,-0.22522594,-0.053570982,-9.836247,4996,0
129284900,-0.0052481573,0.0016696493,-0.002159623,5051,0,-0.21175975,-0.049055107,-9.828303,5051,0
129289850,-0.006062614,0.0009182327,-0.0032134338,4950,0,-0.21802041,-0.07738035,-9.840502,4950,0
129294851,-0.0020299095,-0.0015691649,-0.003960859,5001,0,-0.22667862,-0.06748882,-9.849889,5001,0
129299849,-0.0013425446,0.00012484119,-0.004107698,4998,0,-0.21677229,-0.08076798,-9.877431,4998,0
129304848,0.000504565,0.001452275,-0.0035246415,4999,0,-0.20936255,-0.07582642,-9.849908,4999,0
129309848,-0.00027943382,0.00058323226,-0.0030756015,5000,0,-0.2474288,-0.052886467,-9.857984,5000,0
129314895,0.0028264017,0.0007111391,-0.002809899,5047,0,-0.23451382,-0.06893373,-9.84807,5047,0
129319851,0.001618174,0.0020445455,-0.00280928,4956,0,-0.23667434,-0.053220585,-9.874892,4956,0
129324853,0.0045871665,0.0022800285,-0.0027507371,5002,0,-0.22784378,-0.07125306,-9.860835,5002,0
129329852,0.004404391,0.0003128777,-0.0014345645,4999,0,-0.23289424,-0.073272936,-9.857071,4999,0
129334887,0.0005029367,0.0019428766,0.0010190026,5035,0,-0.24549912,-0.06136557,-9.843813,5035,0
129339854,0.0032305182,0.0017741076,-1.0662297e-05,4967,0,-0.25730568,-0.059046872,-9.854017,4967,0
129344863,0.0028294346,0.0012722629,1.3601428e-05,5009,0,-0.2576164,-0.055598505,-9.8636,5009,0
129349859,0.0023154968,0.001706001,-6.313336e-05,4996,0,-0.24667062,-0.06146116,-9.831698,4996,0
129354861,0.0039231842,0.00018229768,-7.30765e-06,5002,0,-0.26973668,-0.04385074,-9.802099,5002,0
129359848,0.004101197,-0.0006851182,0.0017144041,4987,0,-0.26359746,-0.050423115,-9.790378,4987,0
129364848,0.0057058595,0.00019916431,3.78091e-05,5000,0,-0.25920773,-0.048426833,-9.805888,5000,0
129369848,0.0050690235,0.0020864257,0.0020468852,5000,0,-0.23470348,-0.043202676,-9.806035,5000,0
129374859,0.005675692,0.00036843153,-0.00030470605,5011,0,-0.23206006,-0.04566286,-9.842392,5011,0
129379848,0.0043898886,0.001579877,-0.0008173464,4989,0,-0.22728947,-0.028770935,-9.843842,4989,0
129384865,0.006284997,0.0012276758,-9.459144e-05,5017,0,-0.23982197,-0.04681199,-9.838561,5017,0
129389859,0.0068780784,0.0014908893,-0.000121328034,4994,0,-0.23858254,-0.061970465,-9.847011,4994,0
129394851,0.007779924,0.0003500198,-0.001122872,4992,0,-0.22437444,-0.03873126,-9.861897,4992,0
129399848,0.008862028,-0.0024567177,0.00085033505,4997,0,-0.2128685,-0.021387143,-9.854861,4997,0
129404871,0.010404849,-0.00042156366,-0.002274805,5023,0,-0.22986373,-0.032143068,-9.865802,5023,0
129409848,0.010864405,0.001066063,-0.0029707255,4977,0,-0.22334242,-0.032699134,-9.871868,4977,0
129414851,0.009849404,-0.00031984635,-0.0023347905,5003,0,-0.2117528,-0.04481712,-9.881229,5003,0
129419895,0.009310749,-0.0023820882,-0.00084996095,5044,0,-0.23450835,-0.03790283,-9.854635,5044,0
129424858,0.00792129,-0.003048798,-0.0018884615,4963,0,-0.25667897,-0.054904465,-9.873342,4963,0
129429848,0.0073401793,-0.0034543255,-0.0045035887,4990,0,-0.2617088,-0.046426572,-9.871157,4990,0
129434851,0.0101983305,-0.0011060905,-0.00273023,5003,0,-0.2600202,-0.05983585,-9.850207,5003,0
129439859,0.007770998,-0.0031399988,-0.0039555957,5008,0,-0.2565749,-0.069045536,-9.865042,5008,0
129444848,0.011960659,-0.0017075799,-0.0049259285,4989,0,-0.25197056,-0.04877299,-9.84953,4989,0
129449848,0.009941671,-0.0012183732,-0.0019094583,5000,0,-0.2728098,-0.05260294,-9.864346,5000,0
129454851,0.010119383,-0.0010400396,-0.0050647845,5003,0,-0.27453053,-0.056904502,-9.851982,5003,0
129459851,0.012688691,0.0016185662,-0.003187363,5000,0,-0.26036888,-0.053544883,-9.809468,5000,0
129464849,0.011024528,0.0009533367,-0.0039473237,4998,0,-0.27724165,-0.06979386,-9.815059,4998,0
129469848,0.012211712,0.0012051138,-0.0041051526,4999,0,-0.261312,-0.06806769,-9.8829975,4999,0
129474851,0.01386562,-0.00013889786,-0.004812183,5003,0,-0.2595478,-0.08518833,-9.882912,5003,0
129479851,0.010314787,0.002001871,-0.0036154627,5000,0,-0.2504193,-0.082030736,-9.857884,5000,0
129484848,0.012229601,0.00034254103,-0.0033768578,4997,0,-0.25130272,-0.061394755,-9.825239,4997,0
129489850,0.011477074,0.0015438198,-0.00014645528,5002,0,-0.27997413,-0.047160454,-9.864189,5002,0
129494851,0.011924211,2.4632009e-05,0.00061048334,5001,0,-0.24451023,-0.050380744,-9.849262,5001,0
129499848,0.0096055,0.0019874338,-0.0015643713,4997,0,-0.24246866,-0.07646063,-9.827656,4997,0
129504848,0.010369343,0.0027804319,-0.004589555,5000,0,-0.242903,-0.05298329,-9.798058,5000,0
129509850,0.009058909,0.0026447487,-0.003282215,5002,0,-0.2599831,-0.050784625,-9.78207,5002,0
129514851,0.010014589,0.00019855678,-0.0017146114,5001,0,-0.26185656,-0.06853748,-9.807084,5001,0
129519858,0.009340144,0.000421262,-0.0043149646,5007,0,-0.25071186,-0.07967685,-9.78302,5007,0
129524881,0.011210124,0.001024632,-0.0024691217,5023,0,-0.2544425,-0.07731644,-9.806383,5023,0
129529848,0.013220915,0.00056306133,-0.0031653645,4967,0,-0.2417166,-0.048653364,-9.810181,4967,0
129534868,0.012742086,0.0006833535,-0.0052733533,5020,0,-0.25551113,-0.071256354,-9.823704,5020,0
129539848,0.013742321,0.00079784077,-0.0049664658,4980,0,-0.23101379,-0.069055066,-9.876597,4980,0
129544863,0.011089342,3.4510125e-05,-0.0035428042,5015,0,-0.20955947,-0.049702194,-9.861957,5015,0
129549848,0.011660934,0.0025728056,-0.0045882156,4985,0,-0.22165172,-0.07836367,-9.880269,4985,0
129554870,0.011098221,0.0010800898,-0.0057007275,5022,0,-0.22243106,-0.097591184,-9.844418,5022,0
129559850,0.009602887,-0.0014017926,-0.005551747,4980,0,-0.22154714,-0.074025415,-9.882229,4980,0
129564862,0.008873062,-0.00094251416,-0.0036340016,5012,0,-0.21032365,-0.09010657,-9.8808365,5012,0
129569850,0.005180814,-0.002045046,-0.0023380648,4988,0,-0.2341416,-0.080383696,-9.868969,4988,0
129574850,0.008084217,-0.0024188026,-0.0050146547,5000,0,-0.23164731,-0.062267866,-9.880582,5000,0
129579860,0.0077258996,-0.0024757395,-0.0033346221,5010,0,-0.205527,-0.06920388,-9.862825,5010,0
129584909,0.007909407,-0.0021962957,-0.0017299036,5049,0,-0.2049866,-0.095947795,-9.87331,5049,0
129589861,0.008562446,-0.0028278118,-0.0032767626,4952,0,-0.23623654,-0.081978284,-9.853334,4952,0
129594886,0.0090245595,-0.004332044,-0.0042643356,5025,0,-0.25162035,-0.07123731,-9.894682,5025,0
129599852,0.008710536,-0.002720409,-0.003047052,4966,0,-0.24229921,-0.08550057,-9.845519,4966,0
129604857,0.008413096,-0.0031327563,-0.0033643786,5005,0,-0.25583178,-0.077737875,-9.878357,5005,0
129609892,0.008968831,-0.0022558323,-0.0065750247,5035,0,-0.2645061,-0.050127767,-9.845162,5035,0
129614887,0.007424442,-0.0028446114,-0.005132783,4995,0,-0.26458272,-0.06306888,-9.879218,4995,0
129619868,0.0062748287,-0.0035393732,-0.004676845,4981,0,-0.2605831,-0.060853302,-9.871731,4981,0
129624879,0.004906671,-0.00024397741,-0.0028881663,5011,0,-0.267911,-0.07154351,-9.85503,5011,0
129629911,0.0054435697,-0.00038961368,-0.0036340426,5032,0,-0.2819081,-0.08017332,-9.838479,5032,0
129634889,0.0033443703,-0.000103325605,-0.004638558,4978,0,-0.25614735,-0.08550812,-9.84974,4978,0
129639888,-2.7472923e-05,0.00096646504,-0.005525549,4999,0,-0.2598895,-0.10443959,-9.843175,4999,0
129644878,0.00084533205,-0.0004573906,-0.0034180554,4990,0,-0.27076045,-0.103289776,-9.82839,4990,0
129649879,0.00031795132,0.0010521463,-0.0022211522,5001,0,-0.24754551,-0.10642661,-9.785192,5001,0
129654880,-1.4241223e-05,0.0010705141,-0.0026084273,5001,0,-0.23183079,-0.09901851,-9.801374,5001,0
129659882,0.0010323826,0.0006342435,-0.00312497,5002,0,-0.21738318,-0.10718817,-9.809361,5002,0
129664861,0.0026642086,0.0008848962,-0.00085251196,4979,0,-0.20415875,-0.09923502,-9.828984,4979,0
129669856,0.0027514473,0.0016002379,-0.0017999642,4995,0,-0.21413903,-0.091342434,-9.854277,4995,0
129674860,0.0049024317,0.0007205068,-0.0009048064,5004,0,-0.21952525,-0.10487668,-9.852419,5004,0
129679851,0.003812811,0.00050980895,-0.0015045641,4991,0,-0.23622295,-0.10788836,-9.823922,4991,0
129684852,0.001518501,1.9857393e-05,-0.0010222413,5001,0,-0.2256551,-0.08506885,-9.806262,5001,0
129689851,0.0022967237,-2.9702554e-05,-0.0026805094,4999,0,-0.2441148,-0.07896458,-9.821392,4999,0
129694854,-0.00047363198,7.1641916e-05,-0.0025904789,5003,0,-0.2250602,-0.11401704,-9.822689,5003,0
129699848,-0.0035496182,-0.0029381015,0.0006463368,4994,0,-0.22718528,-0.10267197,-9.817784,4994,0
129704848,-0.0032120214,-0.0016561977,0.001079055,5000,0,-0.2582295,-0.08598641,-9.835599,5000,0
129709848,-0.0031524599,-0.00055518415,-0.00016740864,5000,0,-0.25646865,-0.076437846,-9.85829,5000,0
129714851,-0.0038417412,-0.0023802116,0.0011384657,5003,0,-0.25506923,-0.073029265,-9.835025,5003,0
129719848,-0.0051301783,-0.0030676213,-0.00029193354,4997,0,-0.26930234,-0.079129964,-9.869867,4997,0
129724855,-0.0018204685,-0.0040198755,0.0011055794,5007,0,-0.24877858,-0.08129152,-9.855498,5007,0
129729850,-0.0031242645,-0.0014868483,-0.0009012052,4995,0,-0.23953569,-0.101019,-9.875086,4995,0
129734895,-0.004166033,-0.0032385583,0.0013202624,5045,0,-0.23958889,-0.07520903,-9.870683,5045,0
129739863,-0.00077251863,-0.003897437,3.4397438e-06,4968,0,-0.23458363,-0.0862933,-9.900479,4968,0
129744848,0.0013230181,-0.002180433,-0.0002402137,4985,0,-0.21759619,-0.07674795,-9.87133,4985,0
129749863,-0.0020267386,-0.002242604,-0.00014494923,5015,0,-0.21868981,-0.07576392,-9.87296,5015,0
129754889,-0.0027181795,-0.003206542,-0.0014022965,5026,0,-0.21586952,-0.0813293,-9.864453,5026,0
129759848,-0.0038958206,-0.0016940791,0.00014315,4959,0,-0.21841513,-0.092425734,-9.917187,4959,0
129764848,-0.004761284,-0.0017916807,0.000511754,5000,0,-0.22286434,-0.08261419,-9.878599,5000,0
129769850,-0.0035972453,0.00074705586,-0.0010603131,5002,0,-0.23533872,-0.064722486,-9.848931,5002,0
129774856,-0.004720553,-0.00029328928,-0.0010553967,5006,0,-0.22809047,-0.061012313,-9.852927,5006,0
129779848,-0.0049433582,0.0014603735,0.00040078195,4992,0,-0.23005542,-0.07659931,-9.843445,4992,0
129784848,-0.0033643965,0.0017253113,-0.0013930739,5000,0,-0.23866917,-0.075330846,-9.838989,5000,0
129789848,-0.0034124337,0.0015981566,0.0008355134,5000,0,-0.24698736,-0.07269961,-9.81885,5000,0
129794851,-0.0036596565,0.0031652832,-0.00094046677,5003,0,-0.24274483,-0.0939179,-9.80292,5003,0
129799848,-0.006201606,0.00093974336,-0.0015378855,4997,0,-0.27159816,-0.08101875,-9.814329,4997,0
129804848,-0.004482263,0.00022561153,-0.0013895023,5000,0,-0.257567,-0.070564516,-9.800979,5000,0
129809848,-0.0057840073,0.0001728339,-0.0015564152,5000,0,-0.24687879,-0.044241168,-9.767624,5000,0
129814851,-0.005307521,0.0001241269,-0.0012612074,5003,0,-0.25126255,-0.07444244,-9.781447,5003,0
129819848,-0.0047858595,-0.001453464,-0.0024450794,4997,0,-0.27458632,-0.061937615,-9.801779,4997,0
129824853,-0.0010257246,-0.0015899072,-0.0014383508,5005,0,-0.25895074,-0.067227,-9.819447,5005,0
129829848,-0.0066762837,-0.0036460503,-0.0007363795,4995,0,-0.25750783,-0.07315284,-9.836959,4995,0
129834851,-0.0054072603,-0.0025700047,-0.002273377,5003,0,-0.24214244,-0.067711845,-9.82513,5003,0
129839889,-0.0054540616,-0.0005128158,-0.0015841991,5038,0,-0.2652827,-0.056133404,-9.834964,5038,0
129844848,-0.0037064366,-0.0032125202,-0.0014544403,4959,0,-0.25546142,-0.04061936,-9.855433,4959,0
129849848,-0.004157941,-0.0030362173,-0.0005832845,5000,0,-0.25112778,-0.043409217,-9.862979,5000,0
129854851,-0.0047623687,-0.0034075165,-0.0007768097,5003,0,-0.22067966,-0.06948636,-9.851625,5003,0
129859848,-0.0035186317,-0.0026146565,-0.0022073546,4997,0,-0.23966534,-0.04474861,-9.842751,4997,0
129864848,-0.002335289,-0.0013183763,-0.00053971005,5000,0,-0.23573454,-0.041260757,-9.865397,5000,0
129869848,-0.0033539003,-0.0014309385,-0.0010566674,5000,0,-0.2251281,-0.040301036,-9.85652,5000,0
129874851,-0.0030509825,-0.0013400401,-0.0039661718,5003,0,-0.23431888,-0.053310387,-9.891046,5003,0
129879848,-0.0009354378,0.00080966833,-0.00031965543,4997,0,-0.2337471,-0.06294382,-9.857563,4997,0
129884848,-0.0016609223,-0.0021690992,-0.0020434507,5000,0,-0.22733791,-0.041714206,-9.860999,5000,0
129889848,-0.0004888358,-0.0026316242,-0.0017109916,5000,0,-0.22364905,-0.04784871,-9.879675,5000,0
129894851,-0.002158119,0.0006410834,-0.003641086,5003,0,-0.23104413,-0.04163529,-9.87906,5003,0
129899851,-0.0027293738,-0.00059550116,-0.0023086693,5000,0,-0.22961849,-0.056743465,-9.902638,5000,0
129904861,3.4415214e-05,-0.00054587505,-0.003376614,5010,0,-0.23415573,-0.0530162,-9.913205,5010,0
129909848,-0.001468626,0.0025633317,-0.0005700845,4987,0,-0.23863006,-0.056918696,-9.858514,4987,0
129914851,-0.0034607777,0.001337974,-0.0030179552,5003,0,-0.23559128,-0.07822174,-9.855903,5003,0
129919848,-0.0010702158,0.0010239924,-0.00013471318,4997,0,-0.25376788,-0.09262932,-9.833626,4997,0
129924849,-0.001982123,2.4920791e-05,-0.001922404,5001,0,-0.26566163,-0.094723195,-9.833491,5001,0
129929848,0.0008076096,-0.00050701987,-0.0027256596,4999,0,-0.25581154,-0.07220242,-9.845607,4999,0
129934851,0.003494124,-0.00057631644,-0.0033439808,5003,0,-0.23478673,-0.07121436,-9.85653,5003,0
129939848,-0.00025405578,-0.0007643351,-0.0011160999,4997,0,-0.22303587,-0.07169643,-9.834905,4997,0
129944880,0.0012306906,-0.0012452025,-0.0014411773,5032,0,-0.22916305,-0.09941561,-9.839214,5032,0
129949848,0.0012710593,-0.0022849124,-0.0010803946,4968,0,-0.21165502,-0.07374631,-9.813353,4968,0
129954851,0.001201718,-0.001686527,-0.0007147797,5003,0,-0.22616611,-0.071187116,-9.790516,5003,0
129959850,0.00031084096,-0.0019986948,-0.0008828284,4999,0,-0.23388158,-0.07875332,-9.819885,4999,0
129964868,0.0017236059,-0.0029160932,-0.0013050153,5018,0,-0.23740686,-0.08414013,-9.807237,5018,0
129969848,0.002475409,-0.0037952063,9.009352e-06,4980,0,-0.23909608,-0.061333027,-9.819283,4980,0
129974851,0.0010084393,-0.0026572852,-0.0010977419,5003,0,-0.240812,-0.05611915,-9.814991,5003,0
129979851,0.0018782321,-0.0011885936,0.0008270248,5000,0,-0.22613655,-0.056493834,-9.83034,5000,0
129984858,0.0034928108,-0.0016987531,0.000533424,5007,0,-0.26305208,-0.04406805,-9.85224,5007,0
129989850,0.0029587669,-0.0014568415,0.00058275764,4992,0,-0.27146974,-0.03511874,-9.849893,4992,0
129994854,0.005595678,-0.002125805,-0.00091760396,5004,0,-0.25263846,-0.05841732,-9.862031,5004,0
129999851,0.003471863,-0.0039440314,0.00045648712,4997,0,-0.27360013,-0.049515273,-9.848219,4997,0
130004851,0.004052727,-0.0033364736,0.001060621,5000,0,-0.27017832,-0.029484348,-9.856586,5000,0
130009851,0.0029399588,-0.002015774,-0.0011542955,5000,0,-0.25449952,-0.04597385,-9.839214,5000,0
130014853,0.0059516886,-0.0027688057,0.00020151294,5002,0,-0.2627093,-0.0384588,-9.83932,5002,0
130019854,0.0065441346,-0.00087315275,-0.001735959,5001,0,-0.24218263,-0.07283819,-9.835215,5001,0
130024851,0.0049241893,-0.0022362452,-0.003137746,4997,0,-0.26043475,-0.06604353,-9.837618,4997,0
130029852,0.00406932,-0.0018615233,-0.00040047124,5001,0,-0.25462595,-0.057260614,-9.8611,5001,0
130034854,0.006651609,-0.0009395265,-0.0024140684,5002,0,-0.23501162,-0.056108605,-9.844946,5002,0
130039894,0.007231342,-0.0007732965,-0.0010450912,5040,0,-0.2567569,-0.042361286,-9.880563,5040,0
130044848,0.007358378,0.00041310172,-0.0022928726,4954,0,-0.24621502,-0.03737733,-9.877363,4954,0
130049960,0.004632838,0.00055083894,-0.0033292093,5112,0,-0.23196396,-0.020789742,-9.8601675,5112,0
130054851,0.005623432,6.6590546e-05,-0.0025920412,4891,0,-0.24086475,-0.032995537,-9.829428,4891,0
130059848,0.006735438,0.0014538113,-0.0015857314,4997,0,-0.22321288,-0.018559495,-9.82609,4997,0
130064848,0.00905226,-0.0024880725,-0.002240407,5000,0,-0.24036127,-0.037287794,-9.882343,5000,0
130069848,0.008142764,-0.0012852506,-0.0041823424,5000,0,-0.24140093,-0.038610414,-9.911917,5000,0
130074851,0.011958989,-0.0003514832,-0.00493664,5003,0,-0.26402324,-0.05762431,-9.886709,5003,0
130079848,0.009298993,-0.0014706372,-0.005787736,4997,0,-0.2319718,-0.04317296,-9.844377,4997,0
130084848,0.009106982,-0.0016279937,-0.0044766455,5000,0,-0.2305975,-0.04123851,-9.860394,5000,0
130089848,0.010478664,-0.0008316855,-0.005941715,5000,0,-0.2483468,-0.03545761,-9.833023,5000,0
130094851,0.0075173415,-0.00018128232,-0.0033093782,5003,0,-0.24431503,-0.026436638,-9.859875,5003,0
130099848,0.010185818,-0.00021832903,-0.0043527964,4997,0,-0.237486,-0.044102702,-9.843761,4997,0
130104849,0.0075776116,-0.0011663816,-0.0027133669,5001,0,-0.22793789,-0.042011935,-9.833325,5001,0
130109848,0.006623595,0.0006120601,-0.0037415633,4999,0,-0.24073476,-0.04959628,-9.8231535,4999,0
130114854,0.009457154,-0.0017006028,-0.0043696864,5006,0,-0.23046605,-0.06392369,-9.8153,5006,0
130119848,0.009020338,-0.0005863274,-0.004496383,4994,0,-0.21774496,-0.07510259,-9.838148,4994,0
130124851,0.011238793,-0.0015886221,-0.0039990377,5003,0,-0.22788255,-0.06034213,-9.854995,5003,0
130129850,0.01118049,-0.0018317475,-0.0036798888,4999,0,-0.21990135,-0.07496172,-9.817798,4999,0
130134851,0.010745997,-0.0012287229,-0.004681412,5001,0,-0.23302712,-0.06884012,-9.846733,5001,0
130139857,0.010075036,-0.0016604471,-0.005642154,5006,0,-0.23337209,-0.08990155,-9.812761,5006,0
130144848,0.011460158,-0.0014771319,-0.0047105476,4991,0,-0.22504142,-0.080425225,-9.868673,4991,0
130149848,0.011039689,-0.0009829637,-0.0036960868,5000,0,-0.23003362,-0.08943768,-9.834665,5000,0
130154898,0.012009991,-0.0010277416,-0.0043899124,5050,0,-0.22745451,-0.089263365,-9.840931,5050,0
130159848,0.008381379,-0.0001938512,-0.005018748,4950,0,-0.25564092,-0.06867031,-9.843637,4950,0
130164849,0.011114565,-0.00097629346,-0.0032403574,5001,0,-0.23002745,-0.087387644,-9.853708,5001,0
130169848,0.01241914,-0.0015602799,-0.003355889,4999,0,-0.23200844,-0.07791409,-9.8440275,4999,0
130174887,0.009382786,-0.0015738866,-0.0041052825,5039,0,-0.22451149,-0.08679986,-9.826275,5039,0
130179848,0.008767765,-0.00065695215,-0.0028813782,4961,0,-0.24352431,-0.095450334,-9.844703,4961,0
130184848,0.0077886013,2.1048458e-05,-0.002554459,5000,0,-0.24337499,-0.10978704,-9.858476,5000,0
130189851,0.0059725316,-0.00062209845,-0.0033578204,5003,0,-0.23377395,-0.09978374,-9.84813,5003,0
130194857,0.0049827425,0.00034899625,-0.0018933344,5006,0,-0.24720779,-0.08366139,-9.854082,5006,0
130199857,0.009230939,0.0022449102,-0.0028001938,5000,0,-0.23463254,-0.08576335,-9.833959,5000,0
130204849,0.007271212,0.0008456468,-0.0024775476,4992,0,-0.24485439,-0.07283965,-9.851985,4992,0
130209854,0.007868943,0.0027990774,-0.001681901,5005,0,-0.23851685,-0.08781603,-9.823478,5005,0
130214851,0.009074689,0.0015770828,-0.0027827094,4997,0,-0.23461929,-0.09184031,-9.840458,4997,0
130219859,0.0067297732,0.002392754,-0.0022237017,5008,0,-0.23918997,-0.102615036,-9.839139,5008,0
130224860,0.0063096667,0.0001429987,-0.0029098876,5001,0,-0.25015843,-0.09522308,-9.892848,5001,0
130229848,0.009579753,-0.00031286577,-3.8579965e-05,4988,0,-0.23433153,-0.090897545,-9.894569,4988,0
130234851,0.0065192534,0.0005235526,-0.00012477883,5003,0,-0.26307526,-0.06959724,-9.907833,5003,0
130239857,0.005445983,0.0006001952,-0.0005139622,5006,0,-0.24880235,-0.087348774,-9.871642,5006,0
130244848,0.0074076243,0.00013501664,-0.0020941396,4991,0,-0.25599113,-0.07983614,-9.852311,4991,0
130249848,0.0073921196,-0.00011596096,-0.003421136,5000,0,-0.2758579,-0.10120341,-9.86924,5000,0
130254872,0.0068698907,-0.0008018416,-0.0023440628,5024,0,-0.25744835,-0.058541156,-9.840708,5024,0
130259889,0.006924577,-0.0007469667,-0.0012608939,5017,0,-0.24448235,-0.06160302,-9.831779,5017,0
130264861,0.006785502,-0.002226016,-0.0016468372,4972,0,-0.23800544,-0.061951507,-9.843851,4972,0
130269852,0.003539935,-0.0034141284,-0.0013583628,4991,0,-0.22717376,-0.06367687,-9.859063,4991,0
130274851,0.0035441057,-0.0018100295,-0.0005177243,4999,0,-0.23429722,-0.08538803,-9.843225,4999,0
130279875,0.0026946538,-0.001369301,-0.002757699,5024,0,-0.23186249,-0.08341349,-9.838293,5024,0
130284886,0.0025990799,-0.0014243755,-0.0022791591,5011,0,-0.24079777,-0.063457444,-9.834643,5011,0
130289849,0.0036099337,-0.0014930291,-0.00092698657,4963,0,-0.2286314,-0.07760522,-9.845614,4963,0
130294851,0.003949904,-0.0008514312,-0.0026120308,5002,0,-0.22377597,-0.07550245,-9.854583,5002,0
130299862,0.0051403,-1.1089694e-05,-0.0026308843,5011,0,-0.20821856,-0.06271509,-9.824382,5011,0
130304849,0.0050136833,0.0018646566,-0.0025501072,4987,0,-0.21705711,-0.07142752,-9.848426,4987,0
130309851,0.003083878,-0.00033317928,-0.0026686422,5002,0,-0.209117,-0.085155055,-9.840913,5002,0
130314890,0.0012154761,-0.0015441525,-0.0014591197,5039,0,-0.22680892,-0.063375205,-9.911922,5039,0
130319849,0.0021333087,-0.004122815,-0.0018444054,4959,0,-0.23781681,-0.07310663,-9.862128,4959,0
130324850,0.0010941371,-0.004018286,-0.0016811563,5001,0,-0.2404918,-0.066434756,-9.862163,5001,0
130329872,0.0005630792,-0.0027731156,-0.0020262739,5022,0,-0.2377365,-0.051666968,-9.848327,5022,0
130334899,0.0009198696,-0.0018919407,-0.00089208275,5027,0,-0.22110511,-0.06946964,-9.859873,5027,0
130339873,-0.0015921239,-0.0007408529,-0.003410804,4974,0,-0.25145411,-0.07744264,-9.839479,4974,0
130344893,0.00039440228,-0.0012763956,-0.0026792097,5020,0,-0.2551001,-0.065924115,-9.856192,5020,0
130349883,0.0012504394,-0.0027741694,-0.003050764,4990,0,-0.25147492,-0.08525951,-9.85146,4990,0
130354885,-0.00022444739,-0.0008277917,-0.001909913,5002,0,-0.25885522,-0.08907151,-9.858079,5002,0
130359903,-0.0009527089,-0.0011441256,-0.0018025739,5018,0,-0.28032902,-0.085715435,-9.833537,5018,0
130364931,0.0002625955,-0.001152437,-0.0009425062,5028,0,-0.25919417,-0.080900475,-9.797642,5028,0
130369873,-0.0017846761,-0.00067825965,-0.0026163117,4942,0,-0.26962987,-0.07275034,-9.866447,4942,0
130374881,-0.003244848,-0.0008986513,-0.001843171,5008,0,-0.24528864,-0.07756131,-9.844615,5008,0
130379851,-0.002209598,-0.0021270548,-0.0011283478,4970,0,-0.23691191,-0.05494377,-9.852626,4970,0
130384853,-0.0010950619,9.531528e-05,-0.0025359322,5002,0,-0.24652715,-0.08761179,-9.880983,5002,0
130389849,-0.0026741982,0.0013525191,-0.0016629623,4996,0,-0.26102802,-0.09294638,-9.900319,4996,0
130394851,-0.0006302116,0.0012172776,-0.00015068338,5002,0,-0.23880227,-0.10107733,-9.868463,5002,0
130399848,-0.00048111664,-0.00041294046,-0.0023817776,4997,0,-0.24898985,-0.10789267,-9.890777,4997,0
130404852,-0.0023235157,-0.0020347144,-0.001746855,5004,0,-0.23699328,-0.088013574,-9.873227,5004,0
130409848,-0.0022416504,-0.0010220392,-0.0002424429,4996,0,-0.2380136,-0.08734873,-9.830594,4996,0
130414854,-0.0045568035,0.0006330487,-0.0016731255,5006,0,-0.24023075,-0.094768375,-9.864183,5006,0
130419848,-0.004964335,-0.0011542793,-0.0019892766,4994,0,-0.22702412,-0.09830492,-9.844473,4994,0
130424852,-0.0046641007,0.00034548962,-0.00082916993,5004,0,-0.2169164,-0.090639904,-9.830634,5004,0
130429848,-0.004003019,0.0020545868,-0.0011938531,4996,0,-0.22753903,-0.10941515,-9.829716,4996,0
130434851,-0.00506132,4.803493e-05,0.00077042833,5003,0,-0.21957527,-0.10090202,-9.810122,5003,0
130439848,-0.003837285,-0.0026321027,0.00016769179,4997,0,-0.23755682,-0.089698486,-9.879041,4997,0
130444848,-0.0042704297,-0.0008601553,-0.000652942,5000,0,-0.2306989,-0.094799764,-9.870364,5000,0
130449848,-0.00309573,-0.0027423585,-0.00043574354,5000,0,-0.22673386,-0.078537725,-9.888006,5000,0
130454851,-0.004198597,-0.0025577934,0.0006615505,5003,0,-0.22715972,-0.08028295,-9.879895,5003,0
130459848,-0.0017742047,-0.0047668964,-0.00030258734,4997,0,-0.21483974,-0.07392788,-9.86869,4997,0
130464869,-0.006398494,-0.0033465207,0.0016349563,5021,0,-0.23403792,-0.062055655,-9.886716,5021,0
130469892,-0.004687682,-0.0023566235,0.0013457026,5023,0,-0.22670339,-0.057600368,-9.878895,5023,0
130474851,-0.003217918,-0.0009712041,0.00086712564,4959,0,-0.23859335,-0.07405186,-9.886419,4959,0
130479848,-0.0038067019,-0.002840714,-0.0010230246,4997,0,-0.2424058,-0.058684867,-9.898055,4997,0
130484848,-0.002982629,-0.0026414527,-0.0010878476,5000,0,-0.22008291,-0.06321759,-9.888771,5000,0
130489852,-0.0039799497,-0.0026813764,0.0002839262,5004,0,-0.25867832,-0.07400185,-9.85728,5004,0
130494851,-0.0026389044,-0.0052329726,0.00024124638,4999,0,-0.2202868,-0.065209255,-9.826927,4999,0
130499848,-0.006664817,-0.006227651,0.001152249,4997,0,-0.24676707,-0.042495728,-9.821291,4997,0
130504848,-0.004840556,-0.0036845987,-0.0031508913,5000,0,-0.24425595,-0.038843285,-9.848234,5000,0
130509848,-0.0021593657,-0.0031748419,-0.0014129366,5000,0,-0.26306388,-0.047038753,-9.819965,5000,0
130514851,-0.0028012497,-0.0041187806,-0.0010334887,5003,0,-0.24521232,-0.06325132,-9.796597,5003,0
130519848,-0.0018984881,-0.0030272275,-0.0010622838,4997,0,-0.2563949,-0.057781942,-9.80552,4997,0
130524849,-0.003059636,-0.002059675,-0.0011182749,5001,0,-0.24570586,-0.050029244,-9.793216,5001,0
130529848,-0.0017265506,-0.0012354444,-0.0020319447,4999,0,-0.25989428,-0.064127624,-9.826455,4999,0
130534851,-0.00328217,-0.0026211557,-0.0013723478,5003,0,-0.297551,-0.07161357,-9.833104,5003,0
130539848,-0.0020358893,-0.0028423273,-0.0025923138,4997,0,-0.29303047,-0.050415494,-9.826125,4997,0
130544848,-0.003283548,-0.0025710578,-0.0011824778,5000,0,-0.2750573,-0.051899068,-9.863856,5000,0
130549848,-0.002565311,-0.002420125,-0.0012961471,5000,0,-0.27216348,-0.047386855,-9.877121,5000,0
130554851,-0.0016273329,-0.0014680632,-0.0035289829,5003,0,-0.24978562,-0.05794235,-9.8443775,5003,0
130559848,0.003538997,-0.0010488889,-0.0016624575,4997,0,-0.23743644,-0.03825394,-9.854752,4997,0
130564851,-0.002998256,0.00045311195,-0.0020861872,5003,0,-0.2565082,-0.04462696,-9.836876,5003,0
130569848,0.001299103,-0.0015158046,-0.002199395,4997,0,-0.24470042,-0.045511797,-9.843945,4997,0
130574895,-0.0014784262,-0.0023414623,-0.002700562,5047,0,-0.2501276,-0.064180054,-9.822684,5047,0
130579848,0.0012192937,-0.00039485842,-0.0050543305,4953,0,-0.2454572,-0.031397957,-9.853837,4953,0
130584848,-0.0007455219,0.00029006903,-0.0026713258,5000,0,-0.24627505,-0.033509158,-9.842069,5000,0
130589850,0.00037274053,0.0015026502,-0.0026497769,5002,0,-0.22753514,-0.039854575,-9.837052,5002,0
130594887,0.0010477218,0.0014376501,-0.0039589885,5037,0,-0.23565389,-0.068739526,-9.833182,5037,0
130599848,0.0017699456,-0.0017681587,-0.00377526,4961,0,-0.21795046,-0.045663472,-9.836591,4961,0
130604852,0.0036716694,-0.0012987932,-0.0035464824,5004,0,-0.21676992,-0.04465646,-9.864579,5004,0
130609848,0.0037510856,-0.0006450149,-0.0038105035,4996,0,-0.22762553,-0.06858572,-9.868312,4996,0
130614864,0.003799956,-8.9426976e-05,-0.0028827386,5016,0,-0.21296388,-0.0805035,-9.875955,5016,0
130619858,0.0034724218,-0.0029396862,-0.0037313106,4994,0,-0.20391202,-0.05899948,-9.908366,4994,0
130624848,0.005167602,-0.0036623143,-0.004820611,4990,0,-0.2221912,-0.073868066,-9.874548,4990,0
130629848,0.0036527799,-0.0014555138,-0.0028610374,5000,0,-0.22279708,-0.06842279,-9.880396,5000,0
130634851,0.0009871676,-0.0009506939,3.7293935e-06,5003,0,-0.22501099,-0.063969694,-9.852597,5003,0
130639848,0.0019986932,-0.000991806,-0.002322468,4997,0,-0.23547179,-0.062287852,-9.881378,4997,0
130644855,0.0031054914,0.00011864873,-0.0028791234,5007,0,-0.21613458,-0.08689181,-9.863343,5007,0
130649848,0.0040142382,0.00042396283,-0.00045057808,4993,0,-0.23006001,-0.09647365,-9.869802,4993,0
130654851,0.0050188005,-0.002389579,-0.0012398422,5003,0,-0.23645402,-0.09414681,-9.867635,5003,0
130659848,0.0030856119,-0.00026089573,-0.0021037895,4997,0,-0.24459349,-0.06795428,-9.810828,4997,0
130664850,0.0042880015,-0.000817682,-0.001366481,5002,0,-0.25790817,-0.08566486,-9.860381,5002,0
130669851,0.0045589046,-0.0006302719,0.00033190157,5001,0,-0.2620262,-0.07462311,-9.863243,5001,0
130674854,0.0075028623,-0.000905714,0.00021126689,5003,0,-0.2547006,-0.068219095,-9.846704,5003,0
130679889,0.004986469,-0.0018331206,0.0004815489,5035,0,-0.27291703,-0.07090606,-9.850454,5035,0
130684851,0.003691476,-0.001826347,0.0010950431,4962,0,-0.26422688,-0.07046294,-9.859508,4962,0
130689851,0.005163571,-0.0007731594,0.0007315857,5000,0,-0.2652077,-0.072927095,-9.839995,5000,0
130699852,0.006883569,-0.0011282908,0.001761231,4998,0,-0.24980918,-0.044397503,-9.858246,4998,0
130704861,0.0067895977,-0.0012009504,0.0009438296,5009,0,-0.26459473,-0.06796949,-9.851063,5009,0
130709848,0.00593248,-0.0014464197,-0.0021080507,4987,0,-0.24473214,-0.07011579,-9.860549,4987,0
130714854,0.006205809,-0.0008641932,-0.0017852038,5006,0,-0.2606863,-0.060396895,-9.847348,5006,0
130719855,0.0073819654,-0.0030944,-0.00039598998,5001,0,-0.24808401,-0.062814586,-9.825411,5001,0
130724862,0.0055880775,0.00022051917,0.0016550263,5007,0,-0.23601095,-0.059893,-9.847197,5007,0
130729848,0.0068213926,-0.0017903876,0.00087819574,4986,0,-0.23287496,-0.032965712,-9.849821,4986,0
130734851,0.008849112,-0.0013164406,-0.00031922726,5003,0,-0.22670756,-0.03576347,-9.854794,5003,0
130744850,0.008617509,-0.0009963639,-0.0006411177,5002,0,-0.24491332,-0.028784048,-9.877926,5002,0
130749848,0.011625188,-0.0009787469,-0.0019175604,4998,0,-0.24809407,-0.034433883,-9.884948,4998,0
130754851,0.009924881,-0.0035411334,-0.0008938341,5003,0,-0.25126785,-0.04831102,-9.848317,5003,0
130759848,0.0068351063,-0.0027962707,-0.0029184076,4997,0,-0.25248873,-0.035960007,-9.850806,4997,0
130764849,0.0062113917,-0.0008525959,-0.0010622775,5001,0,-0.23741587,-0.053067554,-9.865041,5001,0
130769848,0.0074314745,-0.0002329285,-0.0029936163,4999,0,-0.23694505,-0.03871942,-9.892119,4999,0
130774855,0.009620024,-0.000101895006,-0.001985143,5007,0,-0.24617672,-0.046455476,-9.878664,5007,0
130779851,0.0068887793,-0.0015079324,-0.0027622017,4996,0,-0.23058203,-0.06169055,-9.870924,4996,0
130784889,0.004760337,-0.0014695019,-0.0038172475,5038,0,-0.22637784,-0.046441123,-9.835365,5038,0
130789848,0.009273237,0.0008493981,-0.0040884754,4959,0,-0.2596713,-0.056864507,-9.877628,4959,0
130794883,0.008187524,-0.00032229553,-0.0041584866,5035,0,-0.23290941,-0.06870678,-9.832391,5035,0
130799848,0.009284617,-0.0045725405,-0.003475523,4965,0,-0.22396791,-0.067791715,-9.840186,4965,0
130804868,0.007201231,-0.0011283199,-0.002476595,5020,0,-0.22705366,-0.053966206,-9.840545,5020,0
130809848,0.009940639,0.0022101065,-0.0027386306,4980,0,-0.23508482,-0.06321528,-9.854047,4980,0
130814851,0.008686157,0.00089183106,-0.0017923518,5003,0,-0.22518454,-0.07930334,-9.845065,5003,0
130819855,0.008446114,0.0007232784,-0.0027873523,5004,0,-0.23818326,-0.07512794,-9.834079,5004,0
130824863,0.009288913,-0.0032604013,-0.004375319,5008,0,-0.25086933,-0.06648258,-9.804276,5008,0
130829848,0.008009754,-0.0034124204,-0.004528332,4985,0,-0.23372212,-0.081004046,-9.815945,4985,0
130834851,0.00924478,-0.001577153,-0.0025251196,5003,0,-0.25775322,-0.089373074,-9.860222,5003,0
130839849,0.0067640203,-0.00041638807,-0.0032405097,4998,0,-0.24820334,-0.06038217,-9.826745,4998,0
130844849,0.007645435,-0.0003614314,-0.0038402483,5000,0,-0.23289129,-0.050589133,-9.81988,5000,0
130849848,0.0074071847,0.00082696055,-0.0041653677,4999,0,-0.24125682,-0.06609359,-9.828223,4999,0
130854851,0.005970164,0.0007223583,-0.0061560753,5003,0,-0.25428715,-0.08339161,-9.846599,5003,0
130859848,0.0090432055,0.0015827767,-0.005863955,4997,0,-0.27415657,-0.07734052,-9.851158,4997,0
130864872,0.0067831916,-0.0003484188,-0.0044126003,5024,0,-0.24936388,-0.06852029,-9.871851,5024,0
130869848,0.009163726,-0.0012350078,-0.005338838,4976,0,-0.2448461,-0.081525125,-9.895572,4976,0
130874851,0.00712333,-0.00016217788,-0.005131355,5003,0,-0.23996878,-0.07202626,-9.853265,5003,0
130879848,0.005402587,-0.00017168459,-0.0049280156,4997,0,-0.24402739,-0.07017513,-9.876621,4997,0
130884860,0.004988469,0.0021117914,-0.0037674857,5012,0,-0.221788,-0.10243958,-9.8844185,5012,0
130889898,0.005645745,-0.0011437079,-0.0023576568,5038,0,-0.2418768,-0.1032743,-9.85382,5038,0
130894851,0.0046904236,-0.0018939318,-0.0035419173,4953,0,-0.22003305,-0.10343135,-9.836142,4953,0
130899857,0.007991545,-0.0023760162,-0.0026607055,5006,0,-0.22688769,-0.09265747,-9.850546,5006,0
130904848,0.0049814824,-0.0012508397,-0.0022007725,4991,0,-0.2183165,-0.096451744,-9.852696,4991,0
130909865,0.0084859,8.246762e-05,-0.00013758216,5017,0,-0.21805683,-0.096816376,-9.866094,5017,0
130914851,0.0063424483,-0.0023439995,-0.0006198939,4986,0,-0.20791209,-0.09955236,-9.876748,4986,0
130919851,0.003437491,-0.0030068203,0.00017276821,5000,0,-0.19808163,-0.118487455,-9.864266,5000,0
130924848,0.0036577084,-0.004401008,-0.002416171,4997,0,-0.22043554,-0.1063534,-9.893054,4997,0
130929848,0.0043991175,-0.00330602,-0.0006533552,5000,0,-0.23501077,-0.08613058,-9.905279,5000,0
130934851,0.004008381,-0.0015973178,0.001502124,5003,0,-0.24764852,-0.08940777,-9.874486,5003,0
130939855,0.0044064526,-0.0035254357,0.0007574111,5004,0,-0.26296356,-0.096702956,-9.844586,5004,0
130944849,0.0022817345,-0.0032934453,-0.00040295607,4994,0,-0.23332511,-0.06827357,-9.85675,4994,0
130949848,0.0013425812,-0.0014193571,1.9389012e-05,4999,0,-0.23731996,-0.09053499,-9.850396,4999,0
130954851,0.0038870363,-0.0027394146,-0.0005370125,5003,0,-0.25018746,-0.06434702,-9.860969,5003,0
130959849,0.0027510046,-0.0013959594,0.00015514773,4998,0,-0.24365075,-0.09209099,-9.865142,4998,0
130964863,0.0032961452,-0.0033556921,-0.0006573886,5014,0,-0.25035492,-0.076495305,-9.840827,5014,0
130969848,0.00094860216,-0.002637485,-0.0013834011,4985,0,-0.27038252,-0.07744808,-9.832293,4985,0
130974865,0.0027730581,-0.0009829156,-0.0018938688,5017,0,-0.26913887,-0.07746958,-9.821537,5017,0
130979851,0.003880588,-0.00023363628,0.00045534802,4986,0,-0.2836073,-0.08210275,-9.814121,4986,0
130984866,0.0014944429,0.0011606775,0.00013251707,5015,0,-0.2586466,-0.07384946,-9.843917,5015,0
130989849,0.00092466,0.0021401572,-0.0012660126,4983,0,-0.27818316,-0.07714055,-9.853606,4983,0
130994895,0.0005706183,0.0012160267,-0.0011549982,5046,0,-0.27507383,-0.07160534,-9.826887,5046,0
130999859,-0.0011647359,-0.0007568408,-0.00028203506,4964,0,-0.2679094,-0.08894485,-9.820512,4964,0
131004886,0.00038881757,0.0018956563,-0.0008233267,5027,0,-0.2599143,-0.06469629,-9.8193035,5027,0
131009852,0.0018832047,-0.0016260251,0.00026313873,4966,0,-0.24186864,-0.06832313,-9.83465,4966,0
131014888,0.0004828677,-0.002525847,-0.00072341214,5036,0,-0.23836412,-0.0539091,-9.841415,5036,0
131019851,-0.0008839206,-0.00210649,-0.0028808282,4963,0,-0.26658675,-0.06383878,-9.853927,4963,0
131024872,-0.0012362582,-0.002030543,-0.0020244778,5021,0,-0.22903883,-0.07481697,-9.853711,5021,0
131029851,-0.0004486219,-0.0031773776,-0.0021770492,4979,0,-0.23016697,-0.0689516,-9.879227,4979,0
131034872,-0.0025796527,-0.00022915515,-0.0014527248,5021,0,-0.2420794,-0.06565225,-9.863056,5021,0
131039865,0.0020822133,-0.0005603732,-0.0030865567,4993,0,-0.22889997,-0.05941025,-9.857961,4993,0
131044898,-0.0011821572,-0.003592402,-0.003447292,5033,0,-0.23001224,-0.075292155,-9.852433,5033,0
131049872,-0.000826398,-0.0021922877,-0.0020650467,4974,0,-0.2586706,-0.05295529,-9.902722,4974,0
131054887,-0.0015140019,-0.002360171,-0.0024571079,5015,0,-0.2275879,-0.054408737,-9.856873,5015,0
131059878,-0.00089642033,-0.0016311005,-0.0019465954,4991,0,-0.22017835,-0.051347457,-9.864587,4991,0
131064883,-0.002069662,-0.0010794417,-0.00244433,5005,0,-0.2406178,-0.05779096,-9.867168,5005,0
131069888,-0.0016647304,-0.0028334926,-0.0021980498,5005,0,-0.23771992,-0.06310247,-9.886762,5005,0
131074899,-0.0016987196,-0.003355024,-0.004129234,5011,0,-0.22682567,-0.06753722,-9.882867,5011,0
131079874,-0.002549002,-0.002461521,-0.0024911813,4975,0,-0.242102,-0.074082986,-9.888581,4975,0
131084884,-0.0016609142,-0.0012878344,-0.00094413146,5010,0,-0.25194964,-0.077313475,-9.8741865,5010,0
131089882,-0.0027555188,-0.0022167207,-0.0034372688,4998,0,-0.24903469,-0.09000367,-9.85266,4998,0
131094854,-0.0034229448,-0.002688094,-0.0021392226,4972,0,-0.25466385,-0.088252,-9.845587,4972,0
131099898,-0.00051678135,-0.0034360858,-0.0037869862,5044,0,-0.2425425,-0.071840756,-9.833131,5044,0
131104848,-0.0038690125,-0.0028624933,-0.0016655402,4950,0,-0.23233595,-0.08673526,-9.843129,4950,0
131109878,-0.0033449451,-0.0021980011,-0.0014528035,5030,0,-0.238707,-0.07772171,-9.866462,5030,0
131114851,-0.0031720581,-0.002873821,-0.0013061649,4973,0,-0.24017763,-0.05832926,-9.8734045,4973,0
131119873,-0.003136441,-0.002367711,-0.00043988237,5022,0,-0.2722454,-0.070119664,-9.855773,5022,0
131124861,-0.0007028283,-0.00082445546,-0.0018091383,4988,0,-0.2503593,-0.07591361,-9.812787,4988,0
131129858,-0.00017166058,-0.0012958024,-0.0027504812,4997,0,-0.241991,-0.055304144,-9.853495,4997,0
131134851,-0.0020609996,-0.0030341235,-0.00095824513,4993,0,-0.24435726,-0.090001844,-9.819482,4993,0
131139851,-0.004179692,-0.0009213172,-0.00094986305,5000,0,-0.2463821,-0.06641448,-9.83867,5000,0
131144848,-0.003129753,-0.0014213914,0.00020932613,4997,0,-0.23545806,-0.073453695,-9.8128395,4997,0
131149857,-0.0027002462,-0.0019064245,-0.0002209054,5009,0,-0.23483399,-0.082658224,-9.855082,5009,0
131154851,-0.0020895144,-0.0015706384,0.00015659297,4994,0,-0.23855309,-0.09722073,-9.831433,4994,0
131159851,0.00025281834,-0.0012114639,-0.0002204757,5000,0,-0.24123845,-0.049624655,-9.856801,5000,0
131164849,-0.0010412531,-0.0018609066,-0.0010032743,4998,0,-0.23280078,-0.071065746,-9.827382,4998,0
131169850,-0.0018477082,-0.0025551708,-0.0012474904,5001,0,-0.23145984,-0.06781127,-9.841211,5001,0
131174851,5.626065e-05,-0.002414719,-8.377375e-05,5001,0,-0.23981112,-0.063262485,-9.838687,5001,0
131179851,-0.0018869058,-0.0009567548,0.00054453127,5000,0,-0.23453024,-0.078972965,-9.853974,5000,0
131184848,-0.00079266814,0.0015404128,-0.0011790046,4997,0,-0.22263645,-0.05478812,-9.862884,4997,0
131189848,-0.00094215584,-0.0014256102,0.00029028626,5000,0,-0.23207888,-0.06683187,-9.853358,5000,0
131194851,-0.0021138415,0.0016184157,-0.0007981334,5003,0,-0.24575688,-0.06932951,-9.836178,5003,0
131199851,-0.0028365166,0.0010824165,-0.0010356196,5000,0,-0.2313959,-0.05309468,-9.840603,5000,0
131204886,0.00021334957,0.0009819686,-0.0013318734,5035,0,-0.22740707,-0.061224826,-9.849073,5035,0
131209848,-0.0037224996,-0.0011600849,-0.0011007695,4962,0,-0.25256994,-0.05050533,-9.85218,4962,0
131214851,0.0018559529,-0.002635344,-0.0010170075,5003,0,-0.24651745,-0.04683229,-9.879105,5003,0
131219848,-0.00090701395,-0.0017366915,-0.0017230225,4997,0,-0.23326404,-0.040079087,-9.877776,4997,0
131224857,0.0016527574,-0.0014390651,-0.003619902,5009,0,-0.21905749,-0.05833339,-9.8462305,5009,0
