timestamp,yaw_composite,yaw_variance,yaw[0],yaw[1],yaw[2],yaw[3],yaw[4],innov_vn[0],innov_vn[1],innov_vn[2],innov_vn[3],innov_vn[4],innov_ve[0],innov_ve[1],innov_ve[2],innov_ve[3],innov_ve[4],weight[0],weight[1],weight[2],weight[3],weight[4]
201584861,-0.40772858,3.7218962,-2.5100987,-1.2534618,0.0031712046,1.2598063,2.516446,0.0,0.0,0.0,0.0,0.0,0.0,0.0,0.0,0.0,0.0,0.2,0.2,0.2,0.2,0.2
201594856,-0.33163783,3.6658442,-2.5090678,-1.2524307,0.004201465,1.2608356,2.5174758,0.0,0.0,0.0,0.0,0.0,0.0,0.0,0.0,0.0,0.0,0.2,0.2,0.2,0.2,0.2
202274849,0.42133874,0.042035356,-2.263452,0.15374772,0.407295,0.44318587,0.9449425,-3.7858567,-0.041823387,-0.28175735,-0.47974682,-2.2733731,-2.7490072,-1.8585727,-0.41679144,0.08875561,1.1842589,4.0628758e-05,0.00013887072,0.60760885,0.392171,4.0628758e-05
203474864,0.24971928,0.0056853136,-2.4703913,0.2741428,0.25495774,0.23740521,0.13211666,-10.062884,-0.38035774,-0.7887745,-0.8562174,-1.0326099,0.1655457,-0.5250821,-0.46699524,-0.52028537,-0.32922578,7.272078e-05,0.00039053697,0.70281273,0.29665133,7.272078e-05
203674887,0.2330093,0.004596119,-2.5581746,0.2429412,0.23565601,0.22544684,0.14397728,-10.6553135,-0.2781124,-0.63737106,-0.70966244,-0.9851885,2.0584824,-0.6198038,-0.55678904,-0.59989035,-0.4861827,5.82255e-05,0.0005604273,0.7421679,0.25715527,5.82255e-05
203874851,0.28231505,0.0038646662,-2.5651398,0.28289464,0.2833392,0.2789697,0.220286,-11.728806,-0.361125,-0.64567757,-0.70003986,-0.94233227,2.8813052,-0.5853901,-0.51417506,-0.5488019,-0.5019131,5.496618e-05,0.0007619808,0.7692677,0.22986053,5.496618e-05
204074898,0.30539513,0.003199198,-2.5777502,0.30045366,0.3055798,0.30479676,0.26125288,-12.421179,-0.23967266,-0.46472454,-0.50145435,-0.68803596,3.6369061,-0.43536758,-0.35934222,-0.38341105,-0.3639481,3.3909593e-05,0.00088195025,0.7822377,0.21680748,3.8985603e-05
204274861,0.3037349,0.002821106,-2.6046827,0.29552868,0.30342898,0.30497006,0.27237034,-13.2629,-0.32158852,-0.49870872,-0.5227356,-0.6637573,4.255006,-0.2635525,-0.18649447,-0.2019825,-0.1966281,3.10395e-05,0.0010547389,0.78969055,0.20919259,3.10395e-05
204474851,0.30774876,0.0024959645,-2.6120088,0.29808834,0.30721945,0.30987388,0.2836056,-14.207975,-0.23305893,-0.37423897,-0.38936996,-0.49363708,4.724362,-0.06586152,0.010196328,0.0018762946,-0.0038481355,2.5097404e-05,0.0012097224,0.79286057,0.20587827,2.634136e-05
204674894,0.3229052,0.0022740727,-2.601523,0.3127487,0.3222731,0.32546434,0.30313066,-15.0582485,-0.20528793,-0.319273,-0.32922935,-0.40888023,4.9534006,0.0039960444,0.076286376,0.073046684,0.061985582,2.3733022e-05,0.0013533566,0.79474515,0.20385396,2.3733022e-05
204874854,0.34018913,0.0021280695,-2.589133,0.32960197,0.33948222,0.3430794,0.32392743,-15.656048,-0.27355385,-0.3666191,-0.37340736,-0.43634224,5.038505,-0.043846935,0.021904647,0.021711558,0.009886473,2.452382e-05,0.0014957176,0.79628825,0.20216694,2.452382e-05
205074851,0.33138943,0.0021483079,-2.6031494,0.32100612,0.3305943,0.33469245,0.31890026,-16.162956,-0.5666275,-0.6440563,-0.6488533,-0.69665146,4.9910336,-0.0033319741,0.05483821,0.05657664,0.047069684,3.8726743e-05,0.0017650229,0.7979552,0.20020226,3.8726743e-05
205274855,0.329324,0.0023785331,-2.6137078,0.31882122,0.3284293,0.33311135,0.32067674,-16.24977,-0.8295555,-0.89468956,-0.8980274,-0.9332981,4.8016105,-0.095350385,-0.046142757,-0.04360099,-0.047348663,7.205954e-05,0.0021121283,0.7991828,0.19856097,7.205954e-05
205474857,0.33151367,0.0026979642,-2.621801,0.32079986,0.33051804,0.33578578,0.32642633,-16.045948,-0.97779274,-1.032032,-1.0338135,-1.0598831,4.811331,-0.12410314,-0.08333975,-0.08057189,-0.07875453,0.00011188607,0.0025033562,0.79961073,0.19766219,0.00011188607
205674850,0.33780193,0.0033857787,-2.6293063,0.32671574,0.3366918,0.34261572,0.33635333,-15.697917,-1.1240673,-1.1683769,-1.1685181,-1.1880188,4.896553,-0.21722823,-0.18427569,-0.18196712,-0.17610325,0.00019054952,0.002899964,0.79887813,0.19784085,0.00019054952
205874889,0.33696032,0.008304532,-2.6490989,0.3253573,0.33577043,0.34248176,0.33954144,-15.063181,-1.3941746,-1.4300404,-1.4287338,-1.4423351,4.836256,-0.44169497,-0.4173991,-0.41693667,-0.40769616,0.00073957787,0.0033046708,0.79627216,0.19894406,0.00073957787
206074851,0.34300998,0.023389246,-2.6650114,0.33093306,0.34185863,0.3493126,0.34926027,-14.0548525,-1.5374107,-1.5659828,-1.5632114,-1.571434,4.7262344,-0.700403,-0.6849893,-0.68752444,-0.67746395,0.0023948592,0.0036725025,0.7916626,0.19987515,0.0023948592
206274851,0.34894416,0.08812295,-2.682376,0.33697626,0.3483923,0.35646716,0.35869306,-13.093849,-1.6783447,-1.7002506,-1.6959743,-1.6999149,4.6407795,-0.9305384,-0.92285687,-0.92852455,-0.9206999,0.009401434,0.009401434,0.77466846,0.19712733,0.009401434
206474851,0.33171472,0.2148208,-2.7243698,0.32025447,0.33205435,0.34055173,0.34428725,-11.79531,-1.8026695,-1.8186951,-1.8130417,-1.8136406,4.7132106,-0.98530906,-0.9865186,-0.99669397,-0.99291086,0.022813872,0.022813872,0.7424823,0.18907605,0.022813872
206674864,0.31170446,1.2452437,-2.7586417,0.3094867,0.32130405,0.32965115,0.33277926,-9.889938,-1.9317551,-1.9433403,-1.9370155,-1.9354763,4.3742504,-1.3268317,-1.3396486,-1.3565971,-1.3585031,0.13189176,0.13189176,0.47243297,0.13189176,0.13189176
206874922,0.2821384,1.7273986,-2.8098044,0.280169,0.29179078,0.29971132,0.30129725,-8.590968,-1.8938179,-1.9017143,-1.8952713,-1.8940773,4.144808,-1.4594467,-1.4771416,-1.4958469,-1.4982662,0.18048976,0.18048976,0.27804092,0.18048976,0.18048976
207074851,0.27352348,1.0448018,-2.8494754,0.26344302,0.27503532,0.28280687,0.28384608,-8.260476,-1.8652954,-1.8705139,-1.8644733,-1.864727,4.145763,-1.2573289,-1.2729349,-1.2885721,-1.287946,0.10694159,0.21514197,0.30012083,0.18906446,0.18873115
207274851,0.2918857,0.21679755,-2.8527558,0.28003556,0.29158324,0.29921085,0.2997379,-7.649294,-1.693449,-1.697649,-1.6925945,-1.6932907,3.884587,-1.1163784,-1.1312966,-1.1453887,-1.1441612,0.021828564,0.25305417,0.32572815,0.20001084,0.19937818
207474856,0.43359703,0.7184258,-2.7232013,0.4218485,0.4332627,0.44030488,0.43881527,-6.338867,-1.7299385,-1.7342854,-1.7306442,-1.7316666,3.0585544,-1.394346,-1.4139173,-1.4301057,-1.4285753,0.0733239,0.26639625,0.30526832,0.17743832,0.17757328
207674851,0.44557026,0.09946708,-2.723495,0.43543443,0.4466828,0.4534623,0.45107648,-5.9927034,-1.6097336,-1.6130905,-1.6100922,-1.6122017,3.0166721,-1.0728791,-1.0892091,-1.102147,-1.0974654,0.0100787645,0.30335206,0.32225698,0.18163328,0.18267891
207874888,0.46398196,0.07388961,-2.714833,0.45454273,0.4655988,0.4720929,0.4687253,-5.378086,-1.5965271,-1.5999298,-1.597868,-1.6000633,2.5423598,-1.056647,-1.0726955,-1.0847148,-1.0788864,0.0074893455,0.32267258,0.31884646,0.17421551,0.17677602
208074851,0.48255157,0.082404315,-2.700912,0.4739175,0.48468587,0.49077293,0.48601708,-4.585452,-1.5531693,-1.5569286,-1.5558052,-1.5578747,1.8905175,-1.1744759,-1.1910661,-1.2027314,-1.1953664,0.008399347,0.3433514,0.31314445,0.1647061,0.17039874
208274898,0.49786782,0.059905153,-2.6846235,0.490251,0.500684,0.50631535,0.5000415,-3.8250542,-1.557291,-1.5623398,-1.5625553,-1.5640087,1.2525737,-1.1020243,-1.1189309,-1.1300492,-1.1202968,0.0060551306,0.3657107,0.30723077,0.15540645,0.16559696
208474851,0.49790123,0.09499498,-2.6662245,0.4916873,0.5015225,0.50638133,0.49767506,-2.422966,-1.5989666,-1.6071949,-1.6096001,-1.6087456,0.046958685,-1.2059433,-1.2265211,-1.2388824,-1.2242489,0.009593482,0.39339724,0.29488105,0.14115119,0.160977
208674851,0.4816221,3.1452987,-2.6402466,0.48661786,0.49566987,0.49955466,0.48792592,-1.0439548,-1.763998,-1.7747154,-1.7785912,-1.7740765,-0.9133694,-1.1800811,-1.2035189,-1.2160664,-1.1929412,0.32255286,0.29085588,0.19038321,0.08577098,0.11043717
208874854,-2.6055715,0.88787967,-2.611967,0.47139654,0.47949576,0.482217,0.46720892,0.05659485,-1.8561344,-1.8681498,-1.8724928,-1.8631935,-1.8018017,-1.3491566,-1.3732207,-1.3842545,-1.3507695,0.9065441,0.042953517,0.024091925,0.010221014,0.016189469
209074860,-2.5858104,0.3361913,-2.5895915,0.453215,0.46051133,0.46226385,0.44451,0.4594574,-1.906003,-1.9176702,-1.921422,-1.9076815,-1.9792843,-1.1931698,-1.2142105,-1.2217352,-1.1797957,0.9638065,0.011995127,0.008066136,0.008066136,0.008066136
209274851,-0.59076685,2.4296978,-2.5650432,0.43804038,0.4445722,0.4454332,0.4252891,1.2658443,-1.7144833,-1.7256165,-1.7286615,-1.7109289,-2.2450447,-1.222086,-1.2414727,-1.2463641,-1.1959138,0.48229784,0.1403042,0.12579931,0.12579931,0.12579931
209474851,0.41313753,0.116935305,-2.5491881,0.4175815,0.42345312,0.42355877,0.40146938,1.7419643,-1.7035065,-1.7137527,-1.715972,-1.6952152,-2.2469819,-1.1221261,-1.139606,-1.1419411,-1.0843911,0.013142552,0.26840073,0.21781276,0.21482646,0.28581747
209674888,0.38547647,0.051943816,-2.5401912,0.39154756,0.39679804,0.3962011,0.37235126,2.201357,-1.6393824,-1.6487103,-1.6501665,-1.6271954,-2.3581746,-1.200592,-1.2164035,-1.2165437,-1.15308,0.005880114,0.26152632,0.19390467,0.19065705,0.3480318
209874851,0.31571773,0.020279948,-2.579133,0.3238532,0.3283701,0.32725334,0.3022241,2.6647568,-1.4982777,-1.5061274,-1.5069342,-1.4848528,-2.0466123,-1.1006455,-1.1148119,-1.1128888,-1.044116,0.0022263383,0.2468532,0.17036638,0.16835089,0.4122032
210074851,0.34668955,0.013785866,-2.5218787,0.35703027,0.3613994,0.35982993,0.33365974,2.329546,-1.3968191,-1.4029417,-1.4034615,-1.3858595,-1.7092662,-1.1112418,-1.1223998,-1.1192493,-1.0552487,0.0014758575,0.22901352,0.14965904,0.14921086,0.4706408
210274892,0.344699,0.006087634,-2.5094788,0.35633835,0.3605144,0.35871798,0.33194324,1.2803497,-1.2747288,-1.279459,-1.2799492,-1.267314,-1.2333889,-0.8915973,-0.89893293,-0.89576626,-0.84669876,0.0005432503,0.21705164,0.13724898,0.13768488,0.5074712
210474851,0.35368848,0.011432196,-2.4933047,0.36629647,0.37039134,0.36849293,0.3414093,0.05170822,-1.0554619,-1.0592155,-1.059742,-1.0509605,-1.0085974,-0.7334509,-0.73712873,-0.73500204,-0.70637417,0.0012025139,0.21083245,0.13102177,0.13178849,0.52515477
210674851,0.3782226,0.006935782,-2.4656608,0.3909334,0.39500487,0.39308098,0.36590543,-1.0652885,-1.0196762,-1.0227737,-1.0232849,-1.0168095,-0.7828803,-0.47924805,-0.48024607,-0.4792738,-0.46800613,0.00064647035,0.20911749,0.12874609,0.12947996,0.53201
210874854,0.38832924,0.0028649115,-2.4487908,0.40147766,0.40548098,0.4034806,0.37609687,-0.738245,-0.96406555,-0.9681473,-0.9678898,-0.9522915,-1.6420846,-0.6804409,-0.68162966,-0.68061924,-0.6687789,0.00014086935,0.20437638,0.124331556,0.12534223,0.5458089
211074851,0.3931823,0.0031300648,-2.4311333,0.40741307,0.41128096,0.40913543,0.38140458,-0.09646416,-1.0300541,-1.0354366,-1.0342083,-1.0069599,-2.443468,-0.7245512,-0.72677374,-0.7252593,-0.70684624,0.00017260086,0.19496284,0.116527945,0.118191645,0.57014495
211274891,0.39726123,0.003408416,-2.4084184,0.4130527,0.4167204,0.4143687,0.38619033,0.61063194,-1.0834084,-1.0896149,-1.0874939,-1.0509243,-3.0341983,-0.7745547,-0.77787876,-0.77565765,-0.74916744,0.00020809464,0.18086384,0.10569313,0.10831344,0.60492146
211474866,0.40154922,0.0035318462,-2.3826125,0.41923866,0.42265964,0.4200643,0.39140597,1.3280926,-1.0590878,-1.065485,-1.0626163,-1.0202904,-3.3799891,-0.86880875,-0.87302256,-0.86995316,-0.8353195,0.00022608701,0.16317633,0.09301272,0.09671543,0.6468695
211674851,0.41181457,0.00416435,-2.3497162,0.43159205,0.43475872,0.4319082,0.4027236,1.6152649,-1.0771923,-1.0828075,-1.079752,-1.0391273,-3.3442526,-1.008667,-1.0130162,-1.0093436,-0.97080135,0.00031203878,0.1441169,0.080163635,0.084832445,0.69057494
211874878,0.4239443,0.0033597222,-2.3170407,0.44548592,0.44842494,0.44535473,0.4157521,2.0084095,-0.8740082,-0.87882423,-0.87568283,-0.8375988,-3.159801,-1.0441995,-1.04845,-1.0442424,-1.0030437,0.00020947437,0.12741207,0.06946347,0.074810036,0.72810495
212074896,0.43478394,0.002802838,-2.2884266,0.45774066,0.4605022,0.4572588,0.42731574,1.9429722,-0.86641693,-0.8704052,-0.8674183,-0.833498,-2.7006974,-0.85775805,-0.8615494,-0.8571987,-0.8170037,0.00013690059,0.11431041,0.06135923,0.0670969,0.7570965
212274854,0.44901744,0.002742738,-2.2589104,0.4732148,0.47582662,0.4724342,0.4421795,1.7393799,-0.8097496,-0.8130474,-0.81033325,-0.78079796,-2.433804,-0.88373756,-0.88695526,-0.8827858,-0.8459215,0.00012968686,0.10340625,0.054805547,0.060775716,0.7808828
212474894,0.46548736,0.0027096735,-2.2269266,0.4908962,0.49335915,0.4898208,0.45926732,1.9161339,-0.78281784,-0.7857895,-0.7830181,-0.75434685,-2.307116,-0.9003792,-0.9036236,-0.8990431,-0.8597059,0.00012635505,0.092970505,0.048686907,0.05479911,0.80341715
212674851,0.47503236,0.0025468604,-2.2027795,0.50150824,0.503836,0.5001667,0.46935856,1.9956837,-0.744297,-0.74699783,-0.74414444,-0.71588326,-2.1611466,-0.8418579,-0.8449621,-0.84015465,-0.8000841,0.000104888095,0.083823964,0.04343759,0.049601663,0.82303196
212874866,0.47485247,0.0027025894,-2.1888905,0.502399,0.50460136,0.5008018,0.4697105,1.753582,-0.85157394,-0.8539772,-0.85115814,-0.8242378,-2.0633707,-0.8450165,-0.84779453,-0.84308815,-0.80490303,0.00012766002,0.075284556,0.03862667,0.044767193,0.841194
213074851,0.464922,0.002370669,-2.1856909,0.49329895,0.49539,0.49148282,0.46020398,2.0881863,-0.6694088,-0.6716423,-0.6686764,-0.64149284,-1.925333,-0.7702122,-0.7730112,-0.76788616,-0.7272148,8.1600796e-05,0.06824457,0.034726944,0.040801927,0.85614496
213274896,0.44880176,0.0025584458,-2.1865551,0.4781677,0.4801347,0.4761022,0.44458503,2.2182732,-0.7835283,-0.7855587,-0.7825813,-0.7560015,-1.8593798,-0.8419666,-0.84490585,-0.8391485,-0.794302,0.00010996506,0.060575355,0.030544536,0.0364868,0.87228334
213474851,0.43235874,0.0024408402,-2.1873558,0.46260428,0.46444914,0.46029952,0.4285883,2.6121292,-0.7179613,-0.7196312,-0.7170086,-0.69385433,-1.495821,-0.8262663,-0.8294296,-0.8227072,-0.7713175,9.497304e-05,0.05361567,0.026805872,0.03257039,0.88691306
213674854,0.38983867,0.002360639,-2.2176936,0.42086563,0.42242473,0.41820797,0.38642135,2.513918,-0.66086006,-0.6619463,-0.66038036,-0.6459875,-0.91424465,-0.8018036,-0.80474377,-0.7979069,-0.7465801,8.4450665e-05,0.048206523,0.02393597,0.029517788,0.8982553
213874851,0.42596903,0.002288012,-2.1716642,0.4575309,0.45902067,0.45472863,0.4228044,2.2501965,-0.5792103,-0.5796747,-0.5795536,-0.5764942,-0.23880768,-0.7794428,-0.7820587,-0.77547264,-0.72669315,7.409546e-05,0.044309326,0.0218868,0.027310316,0.90641946
214074851,0.46331495,0.002220385,-2.1275377,0.4951957,0.496644,0.49230546,0.46030864,1.8797741,-0.53173923,-0.5315809,-0.5331669,-0.54301834,0.54911995,-0.7075319,-0.709836,-0.70365715,-0.65823746,6.377988e-05,0.041883588,0.020616056,0.025928434,0.9115081
214274854,0.49441752,0.0022505498,-2.0908852,0.5265092,0.5279274,0.5235581,0.49153328,1.4509525,-0.46340942,-0.4625883,-0.46618843,-0.4910221,1.2864332,-0.7819958,-0.7840061,-0.77839184,-0.7371788,6.803249e-05,0.04015286,0.019710641,0.02493849,0.91513
214474851,0.51790655,0.0022204532,-2.064225,0.54987717,0.5512893,0.5469334,0.5150532,0.9209404,-0.5112171,-0.50977325,-0.5153942,-0.5551071,2.1866274,-0.68577003,-0.6875243,-0.682467,-0.645246,6.35911e-05,0.03988372,0.019556453,0.024772668,0.91572356
214674887,0.5223266,0.0021065003,-2.0564995,0.5537454,0.5551614,0.55087495,0.51943576,0.53736115,-0.44221306,-0.43997383,-0.44809914,-0.50631523,3.4246836,-0.50140524,-0.50302124,-0.4983549,-0.463655,4.8002395e-05,0.040903263,0.020061517,0.025337571,0.9136497
214874888,0.53450906,0.0020500587,-2.0415134,0.56496793,0.56639606,0.5622313,0.53154355,-0.013765335,-0.40738297,-0.404356,-0.414752,-0.48999596,4.525384,-0.38973522,-0.3911047,-0.38720655,-0.35770702,4.2839758e-05,0.04302815,0.02113216,0.026526006,0.9092709
215674854,0.41941214,0.0017934537,-2.1410735,0.44323727,0.44481793,0.44145814,0.41602352,-3.7986078,-0.32333374,-0.31798172,-0.33236694,-0.44102287,8.242756,-0.13119078,-0.13027,-0.13220525,-0.14521742,3.4750028e-05,0.060021598,0.02984799,0.035973817,0.8741219
215874864,0.39921167,0.0016973455,-2.1539252,0.42128396,0.4228276,0.41968924,0.39583465,-4.658345,-0.20845604,-0.20300674,-0.21673203,-0.3214836,8.889375,-0.047303915,-0.045862675,-0.048789024,-0.06955814,3.063281e-05,0.06387942,0.03184184,0.038104314,0.8661438
216074851,0.38237727,0.0016167847,-2.1620634,0.4026438,0.4041335,0.40122628,0.37906876,-5.748823,-0.19827461,-0.1925621,-0.20637512,-0.31238365,9.990395,0.06010294,0.061978817,0.05829358,0.031602383,3.0145788e-05,0.06751637,0.033719547,0.040106345,0.85862756
216274887,0.361128,0.0015330791,-2.1723478,0.37979874,0.38121748,0.37851802,0.35797158,-6.6629553,-0.12090492,-0.11524773,-0.12845802,-0.23019981,10.872049,0.16236407,0.16453326,0.160416,0.13019693,2.9068915e-05,0.06955556,0.034750924,0.041227553,0.85443693
216474851,0.33140326,0.001478485,-2.190954,0.34853148,0.34988046,0.34738433,0.32841104,-7.643545,-0.17635155,-0.17090034,-0.18344307,-0.28007126,11.789193,0.30700547,0.30932587,0.30501783,0.27322125,3.19061e-05,0.07156567,0.035762258,0.042323694,0.85031646
216674895,0.28297406,0.0014134077,-2.2279823,0.29863334,0.29991382,0.29761294,0.28015774,-8.622752,-0.18502045,-0.17970467,-0.1917572,-0.2845993,12.801323,0.34976304,0.35216248,0.34781277,0.31559545,3.281991e-05,0.073369004,0.036662176,0.043300867,0.84663516
216874902,0.20987603,0.0013874853,-2.2877936,0.22425358,0.22545494,0.2233278,0.20730455,-9.397655,-0.11339569,-0.10821152,-0.11983299,-0.20929527,14.163984,0.56308734,0.56539476,0.5613091,0.53101635,3.9608305e-05,0.073195174,0.03650313,0.04319252,0.8470696
217074852,0.12450079,0.001385812,-2.3609118,0.13766654,0.1387955,0.13683434,0.12215285,-10.075379,-0.16208649,-0.15721321,-0.16826439,-0.25282288,15.415512,0.6921849,0.69424057,0.69063306,0.6640043,4.9302733e-05,0.07326304,0.03647221,0.043209627,0.8470058
217274941,0.042249538,0.0013478296,-2.431754,0.054308932,0.05536855,0.053560175,0.040103182,-10.587374,-0.14857101,-0.14396477,-0.15447807,-0.23452568,16.69771,0.7290547,0.7308121,0.7277677,0.70540357,5.2253235e-05,0.073292,0.036425978,0.0432052,0.8470246
217474851,-0.032355405,0.001338711,-2.4953585,-0.021286309,-0.020296326,-0.021965696,-0.03430241,-10.935099,-0.09314346,-0.08875275,-0.09882736,-0.1751442,18.19692,0.8073964,0.8088064,0.8063979,0.78880596,5.9218863e-05,0.07284692,0.036135163,0.042944834,0.8480138
217674851,-0.09805543,0.001242102,-2.5525281,-0.08795096,-0.08701837,-0.08855303,-0.09986093,-11.351915,-0.15855789,-0.15441704,-0.1640377,-0.2364788,19.547167,0.70297194,0.70406437,0.7022195,0.6888437,5.088238e-05,0.073699884,0.03654003,0.043392107,0.8463171
218074861,-0.1857753,0.0011802815,-2.6254783,-0.17726487,-0.17643285,-0.17774029,-0.18732357,-11.708895,-0.09731102,-0.09362602,-0.102108,-0.16567612,22.34068,0.73853874,0.7390752,0.7382102,0.731987,5.3099906e-05,0.07505074,0.037183683,0.044100687,0.84361184
218274935,-0.21341933,0.0012113145,-2.6470656,-0.2056065,-0.20481704,-0.2060234,-0.21485113,-11.914554,-0.11492729,-0.11147308,-0.11939049,-0.17861748,23.765785,0.8312626,0.83159924,0.8310642,0.82722855,6.366342e-05,0.07594193,0.03762871,0.044574775,0.841791
218474854,-0.2452867,0.0011445896,-2.673252,-0.238121,-0.2373732,-0.2384864,-0.24661666,-11.994329,-0.061552048,-0.058214188,-0.065792084,-0.12246895,25.419085,0.78399944,0.7841015,0.78393173,0.78277016,5.7556812e-05,0.07663731,0.037978094,0.044948526,0.8403785
218674851,-0.27436465,0.001154972,-2.6970701,-0.26778334,-0.2670765,-0.2681037,-0.27558574,-11.819452,0.016670227,0.019866943,0.012672424,-0.041131973,27.226952,0.84473705,0.84455395,0.84480286,0.84667206,6.424352e-05,0.07699994,0.038161375,0.04514996,0.83962446
218874851,-0.30775142,0.0011690578,-2.726941,-0.301737,-0.3010679,-0.30201128,-0.30887583,-11.57157,-0.007575989,-0.0045375824,-0.01137352,-0.0624218,29.1419,0.8927765,0.89228725,0.89295864,0.8978796,7.131819e-05,0.07792026,0.03865138,0.045660775,0.83769625
219074866,-0.33810017,0.0011121884,-2.7553194,-0.33261976,-0.33198458,-0.3328495,-0.33914775,-11.194981,-0.027576447,-0.024700165,-0.03109932,-0.07889938,30.918001,0.849514,0.8487463,0.84976864,0.857214,6.58731e-05,0.07921814,0.039352503,0.046382584,0.8349809
219274852,-0.36633524,0.001132235,-2.782732,-0.36131582,-0.36071008,-0.36150572,-0.36731,-10.807356,-0.03537941,-0.032749176,-0.038511276,-0.08168602,32.296444,0.89931774,0.8983879,0.8995733,0.9081774,7.26828e-05,0.08070508,0.04016652,0.0472139,0.83184177
219474851,-0.3863776,0.001254828,-2.8029761,-0.38175726,-0.38117874,-0.3819122,-0.38727212,-9.9691,0.063186646,0.06562233,0.060401917,0.021139145,33.888046,1.0335293,1.03234,1.0337887,1.0442924,9.645355e-05,0.081992045,0.040895626,0.047954053,0.8290618
219674891,-0.40298927,0.0011332163,-2.8225696,-0.3987644,-0.3982078,-0.39888358,-0.4038465,-9.0904255,-0.0716877,-0.06944847,-0.07416153,-0.10980606,35.26085,0.9310055,0.9295273,0.93125534,0.94377136,7.786164e-05,0.08410573,0.042079423,0.04914823,0.8245888
219874854,-0.28042018,0.0013802046,-2.7021394,-0.27632788,-0.27601033,-0.2766128,-0.28120568,-7.759682,0.2497158,0.25174713,0.2475996,0.21600437,36.527252,1.1146698,1.1129932,1.1148472,1.1283646,0.000121650504,0.08511451,0.042699814,0.04976974,0.8222943
220274851,-0.3334003,0.0013832122,-2.7673364,-0.32985917,-0.32956254,-0.3300831,-0.33411404,-5.6424303,0.04172802,0.043292046,0.040193558,0.016298294,38.03844,1.1528568,1.1509056,1.1529007,1.1674709,0.00012289405,0.089024976,0.045010027,0.052071664,0.8137704
220474894,-0.36669654,0.0015674926,-2.8093872,-0.36336452,-0.3630741,-0.3635607,-0.36736414,-4.18143,0.15287781,0.15423775,0.15162659,0.13127613,38.545937,1.2399654,1.237875,1.239912,1.2548637,0.00015315485,0.09114618,0.046295293,0.053342324,0.809063
220674888,-0.39370453,0.0018588932,-2.8467011,-0.3905427,-0.39025804,-0.39071435,-0.3943205,-2.8459635,0.23431969,0.2354784,0.23331547,0.21629238,38.78651,1.3373337,1.3351879,1.3371868,1.3519611,0.0002001108,0.09329389,0.04762289,0.054648507,0.80423456
220874895,-0.4035225,0.0014895282,-2.8680267,-0.400566,-0.40028822,-0.40071875,-0.4041633,-1.8357201,0.08468628,0.08566666,0.0838871,0.0697279,38.67093,1.2081528,1.206007,1.2079277,1.2222366,0.00013686987,0.09553738,0.04900154,0.056002196,0.799322
221074870,-0.39685988,0.0015552329,-2.8734362,-0.39403996,-0.39377177,-0.39417928,-0.3974819,-0.6744156,0.17555523,0.17639828,0.17491722,0.16298676,38.695312,1.226902,1.224762,1.2265968,1.2404423,0.00014544003,0.09759841,0.050293643,0.057265963,0.79469657
221274854,-0.38589403,0.0015929241,-2.8749328,-0.3831974,-0.38293883,-0.38332555,-0.38650256,0.2395916,0.18221188,0.18295193,0.18169308,0.17143822,38.744766,1.2373791,1.2352829,1.2370148,1.2501984,0.00014907183,0.09961689,0.05157327,0.058513515,0.79014724
221474856,-0.3818808,0.00155169,-2.8832529,-0.37930292,-0.37905318,-0.3794211,-0.38248318,1.2816257,0.27753544,0.278203,0.27709866,0.26799393,38.911186,1.1928463,1.190773,1.1924305,1.205204,0.00013997064,0.10139581,0.05272192,0.059630293,0.78611207
221674851,-0.5895263,0.0015347447,-3.1042237,-0.58716464,-0.58676547,-0.5871351,-0.590112,1.7732897,0.24389553,0.24450302,0.24351883,0.23530579,39.01913,1.1841011,1.1821613,1.1836586,1.1953526,0.00013454254,0.103064306,0.053807504,0.06068406,0.7823096
221874894,-0.6338447,0.0013796745,3.1249523,-0.6315679,-0.63118625,-0.6315419,-0.63443774,1.8664417,0.25246048,0.25302696,0.2521305,0.24457169,38.958973,1.0793343,1.0776272,1.0789032,1.0890198,0.000107556334,0.10434313,0.054650992,0.061502032,0.77939636
222074851,-0.68583995,0.0015672212,3.064939,-0.68360937,-0.6832481,-0.68359023,-0.6864076,2.318101,0.44871807,0.4492836,0.44839573,0.44083214,39.482483,1.1212177,1.119627,1.1207905,1.1300983,0.0001344563,0.10531465,0.055320952,0.06214941,0.77708054
222274851,-0.74143577,0.0013879696,3.0028517,-0.73928034,-0.73894143,-0.7392706,-0.74200875,2.7892323,0.4570961,0.45768833,0.45675945,0.4487667,40.232483,0.9936695,0.99209976,0.9932194,1.0022621,0.000104482715,0.106042325,0.05584082,0.06265135,0.77536106
222674854,-0.9198384,0.0013947963,2.8154063,-0.9178079,-0.917542,-0.9178394,-0.92037266,5.2653613,0.7806926,0.781384,0.78026867,0.77053595,43.07086,0.75670624,0.7548313,0.75613785,0.76677513,0.00010370942,0.10646627,0.0562826,0.06307194,0.7740755
222874920,-1.0144674,0.0013637247,2.7175052,-1.0125283,-1.0123075,-1.0125849,-1.01497,7.5422125,0.89911175,0.899827,0.89862823,0.8881149,45.00843,0.57920647,0.57697296,0.5785217,0.5910969,0.00010010913,0.10599919,0.05610694,0.06289563,0.7748981
223074851,-1.1102675,0.0012591113,2.618995,-1.1084418,-1.10827,-1.1085248,-1.110736,10.211589,0.9390693,0.9397435,0.9385357,0.9279046,46.755188,0.34018517,0.33761597,0.33939743,0.35378647,8.6732136e-05,0.10512235,0.055671673,0.06246731,0.7766519
223274888,-1.1945938,0.0014156833,2.5331028,-1.1928762,-1.1927543,-1.1929848,-1.1949975,13.534455,1.1279416,1.1285207,1.1273623,1.1171389,48.44248,0.14560509,0.1427269,0.14473152,0.16073036,0.00011483677,0.10366717,0.05488526,0.06169623,0.7796365
223474851,-1.2857565,0.0010757868,2.4391856,-1.2841797,-1.2841024,-1.2843106,-1.2861443,15.543379,0.85109663,0.8515124,0.8504991,0.8415449,49.274876,0.03711891,0.034303665,0.03627968,0.05187416,6.662539e-05,0.10258924,0.054295044,0.0611181,0.781931
223674855,-1.3956604,0.0012862001,2.3259132,-1.3941822,-1.3941487,-1.394334,-1.3959862,18.64946,1.0748723,1.0751488,1.0742701,1.06647,50.379646,0.109140396,0.10629463,0.10829735,0.12397766,0.00010266189,0.10153432,0.053745333,0.060576037,0.7840417
223874851,-1.5081666,0.0011440391,2.2107918,-1.5068151,-1.5068204,-1.506984,-1.5084596,22.213896,0.9731746,0.9733174,0.97259283,0.9661069,50.99315,-0.21335411,-0.21627235,-0.21421242,-0.19825363,8.5471875e-05,0.10013392,0.05293935,0.059787568,0.78705364
224074854,-1.6289605,0.0011815449,2.0855892,-1.627726,-1.6277629,-1.6279054,-1.6292077,26.27252,1.0247545,1.0247765,1.0242372,1.0193563,51.346848,-0.22124672,-0.22415161,-0.22208023,-0.20619202,9.5680094e-05,0.098919675,0.052242965,0.05910506,0.7896366
224274856,-1.7571038,0.0011538693,1.9521217,-1.755991,-1.75605,-1.7561735,-1.7573129,30.652409,0.9776001,0.9775524,0.97721577,0.9740906,50.91079,-0.38729858,-0.3901291,-0.38809967,-0.37259865,9.5970085e-05,0.09768976,0.051503334,0.058381848,0.7923291
224474851,-1.8872943,0.001047381,1.8150594,-1.886304,-1.8863729,-1.8864805,-1.8874768,34.657227,0.8676815,0.8676319,0.8674717,0.8659353,49.95144,-0.45860672,-0.46123886,-0.45933533,-0.4448719,8.384679e-05,0.09665278,0.050854582,0.057748754,0.79466003
225474857,-2.305384,0.0006873033,1.3305051,-2.3048105,-2.3048496,-2.3049138,-2.305498,47.56003,0.28808594,0.2888031,0.2890339,0.29154778,39.631554,0.08655739,0.08513832,0.08616638,0.09379768,3.8121718e-05,0.09608705,0.050353333,0.057269365,0.7962521
225674851,-2.3416119,0.0007118404,1.2774065,-2.3410807,-2.341114,-2.3411734,-2.3417156,48.67189,0.32214737,0.3229351,0.3231449,0.3255577,38.209908,0.26830673,0.26704597,0.2679367,0.2745247,4.1334017e-05,0.096457854,0.05055401,0.057467293,0.79547954
225874851,-2.380298,0.00071036955,1.222782,-2.3798048,-2.3798294,-2.3798862,-2.380395,49.583893,0.2720585,0.27289963,0.27309036,0.27540016,36.676056,0.26531982,0.26418877,0.26496887,0.27071762,4.042622e-05,0.09677197,0.050724383,0.057635255,0.79482794
226074874,-2.4193017,0.0006999014,1.1680046,-2.4188447,-2.4188592,-2.4189134,-2.4193933,50.68022,0.06490326,0.065862656,0.06605911,0.06850433,34.34397,0.2617712,0.26073647,0.2614336,0.2665615,3.822255e-05,0.096969455,0.050846815,0.05775474,0.79439074
226274851,-2.4612083,0.0007106629,1.1095562,-2.4607842,-2.4607866,-2.4608393,-2.461294,51.678154,0.12719536,0.12826538,0.12845421,0.13102722,31.864748,0.27091408,0.26996613,0.2705841,0.27511692,3.8854603e-05,0.09718612,0.05097158,0.05787723,0.7939262
226474851,-2.4837828,0.00074468774,1.0685847,-2.4833348,-2.4834008,-2.4834433,-2.483866,51.82231,0.070129395,0.07118797,0.07135582,0.07375908,30.521969,0.42221832,0.42136574,0.4219017,0.4258194,4.2178897e-05,0.09742049,0.051120877,0.058022626,0.79339385
226674851,-2.5723958,0.00080665044,0.96481967,-2.5719452,-2.5720336,-2.5720718,-2.572475,51.791687,0.06557655,0.06656647,0.06671333,0.06886482,29.763824,0.5883703,0.5876026,0.58807087,0.59146786,4.88516e-05,0.09768922,0.051297516,0.058194086,0.79277027
226874912,-2.6475515,0.00078279566,0.87636685,-2.6471026,-2.6472087,-2.6472433,-2.6476314,51.579136,0.1005497,0.10145569,0.101579666,0.10347557,29.001286,0.46818924,0.46750832,0.46791267,0.47085285,4.3843993e-05,0.097895846,0.051427055,0.05832041,0.79231286
227074851,-2.6852758,0.0008400101,0.8262778,-2.684829,-2.6849427,-2.6849751,-2.6853526,51.458557,0.12142563,0.1222496,0.12236023,0.12403488,28.600246,0.59113216,0.59052086,0.5908737,0.59345627,4.9276154e-05,0.09812228,0.051570155,0.058459878,0.7917984
227274851,-2.6822257,0.0008756732,0.8173926,-2.6817873,-2.6818993,-2.681931,-2.6823003,51.47838,0.1384201,0.13918877,0.13929176,0.14083672,27.92915,0.63481903,0.634264,0.63457966,0.6368828,5.1727257e-05,0.09834433,0.05170972,0.05859589,0.7912983
227474851,-2.6788216,0.00092018157,0.8110431,-2.6785069,-2.6784477,-2.678499,-2.6788855,51.56921,0.07828522,0.07902336,0.07912445,0.08059311,27.095966,0.70232487,0.70181465,0.70210075,0.7041836,5.5313918e-05,0.09854464,0.05184306,0.058725245,0.7908317
227674851,-2.6592443,0.00097541756,0.8189721,-2.658932,-2.6588764,-2.6589265,-2.659306,51.82222,0.034799576,0.035507202,0.035600662,0.03700447,26.348413,0.76733685,0.7668543,0.7671213,0.7690506,6.0112176e-05,0.09873035,0.051972836,0.05885063,0.79038614
227874851,-2.6416655,0.00094312156,0.8249434,-2.6413593,-2.6413069,-2.641356,-2.6417286,52.075195,0.04069519,0.04138565,0.04147911,0.04283905,25.34811,0.6797552,0.6792984,0.67954445,0.68133163,5.3802003e-05,0.098886035,0.052081034,0.05895538,0.79002374
228074850,-2.6259422,0.0009669938,0.82868034,-2.6256402,-2.6255903,-2.6256382,-2.6260047,52.3623,0.054605484,0.05529213,0.055379868,0.056728363,24.32164,0.6887245,0.6882906,0.6885166,0.6901827,5.4629963e-05,0.09903528,0.05218385,0.059055164,0.78967106
228274884,-2.6102393,0.0009778461,0.83220255,-2.6099415,-2.6098945,-2.6099415,-2.6103015,52.530815,0.039571762,0.04024887,0.040338516,0.04166794,23.278217,0.6750946,0.6746845,0.6748934,0.6764326,5.3842483e-05,0.09916597,0.052275814,0.059144318,0.78936005
228474943,-2.5943427,0.0009888737,0.83623016,-2.5940485,-2.5940046,-2.5940504,-2.594405,52.544693,0.091869354,0.09250641,0.092596054,0.09384537,22.566013,0.6549711,0.65459156,0.6547842,0.65618324,5.3036827e-05,0.099295825,0.052361798,0.059227772,0.7890616
228674863,-2.5832875,0.00096792093,0.8365555,-2.5829978,-2.5829556,-2.5830004,-2.5833507,52.240623,0.10811806,0.1086998,0.10878372,0.109910965,22.093237,0.5609436,0.56060696,0.56077576,0.5620098,4.8255468e-05,0.099402,0.052429378,0.059293564,0.7888268
228874885,-2.5959992,0.0010191672,0.8125068,-2.5956256,-2.5957098,-2.5957391,-2.5960677,51.979897,0.2769661,0.27746582,0.2775421,0.27850533,22.083683,0.580863,0.5805702,0.58071613,0.5817995,5.2101463e-05,0.09953313,0.052501515,0.059364304,0.78854895
229074853,-2.6283638,0.0010024894,0.7721702,-2.6279888,-2.6280804,-2.6281087,-2.628434,51.32753,0.32157516,0.32201195,0.3220787,0.32291222,21.854233,0.4554367,0.45519638,0.45531178,0.45620918,4.77076e-05,0.09964053,0.05255541,0.059417672,0.78833866
229274901,-2.661065,0.0010639314,0.7347719,-2.660796,-2.6607337,-2.6607802,-2.6611261,50.798706,0.46715736,0.46751404,0.46756554,0.4682274,22.085922,0.45715618,0.45696163,0.457057,0.45780182,5.2702155e-05,0.099749856,0.05260605,0.059467997,0.78812337
229474863,-2.7079093,0.0010902178,0.6831386,-2.7076485,-2.7075758,-2.7076232,-2.7079697,50.4467,0.4917202,0.4920025,0.49204445,0.49256706,22.332008,0.44408894,0.44391823,0.44400215,0.444664,5.3385047e-05,0.09984223,0.05264908,0.05951073,0.7879446
229674866,-2.758041,0.0011162928,0.62944967,-2.757788,-2.7577047,-2.7577534,-2.7581005,50.21425,0.54605675,0.5462856,0.54632187,0.54672813,22.473213,0.3906479,0.39048862,0.39056683,0.39116955,5.404581e-05,0.09992062,0.052684765,0.05954595,0.7877946
229874851,-2.7915146,0.0012320383,0.5933004,-2.791264,-2.7911744,-2.7912238,-2.7915711,49.937515,0.6044445,0.6046181,0.6046486,0.60497284,22.74332,0.5537729,0.5536289,0.55369854,0.55423737,6.538578e-05,0.09999794,0.05272327,0.05958368,0.78762984
230074851,-2.800592,0.0012883464,0.58188397,-2.8003418,-2.8002508,-2.8003004,-2.8006475,49.713936,0.5833359,0.58348465,0.58351326,0.5837898,22.765064,0.6368141,0.63667965,0.6367445,0.6372433,6.963325e-05,0.10007037,0.052761354,0.059620824,0.7874778
230274851,-2.7790098,0.0013502012,0.5992735,-2.7786114,-2.778735,-2.7787592,-2.7790759,49.580597,0.5433483,0.54351234,0.54353905,0.5438385,22.398075,0.7272978,0.72717,0.727231,0.72770405,7.44467e-05,0.10014589,0.052801512,0.059660215,0.787318
230474885,-2.7611487,0.0013650948,0.61322576,-2.760894,-2.7608104,-2.760859,-2.7612042,49.67121,0.5565014,0.55669594,0.55672455,0.5571003,21.623257,0.70886517,0.7087345,0.70879745,0.70927334,7.375016e-05,0.100230314,0.05284463,0.059702788,0.7871485
230674851,-2.7361517,0.0013584543,0.6311358,-2.7358959,-2.735817,-2.735865,-2.7362087,49.64822,0.43824196,0.4384842,0.43852806,0.439003,20.653309,0.75099754,0.750864,0.75093174,0.7514057,7.045835e-05,0.1003168,0.05288972,0.059746653,0.78697634
230874851,-2.7259881,0.0013838363,0.63216215,-2.7257323,-2.7256556,-2.725703,-2.7260454,49.620323,0.4132061,0.4134941,0.41355324,0.41412354,19.620995,0.76889133,0.7687578,0.76882076,0.7692833,7.09601e-05,0.10040806,0.052936405,0.059792083,0.7867925
231074874,-2.723174,0.001339068,0.6236057,-2.7229223,-2.7228456,-2.7228928,-2.7232335,49.728287,0.39585304,0.39619637,0.39626503,0.39694405,18.343138,0.6826296,0.6824894,0.68255615,0.6830282,6.338133e-05,0.10050289,0.05298291,0.059837356,0.7866135
231274851,-2.7239828,0.0013134346,0.6101261,-2.7237353,-2.7236578,-2.7237048,-2.7240434,49.905815,0.41942215,0.41979218,0.41986084,0.42059517,17.341587,0.58397007,0.58381844,0.58388996,0.58438396,5.819097e-05,0.10060136,0.053029034,0.059882447,0.7864289
231474851,-2.7309184,0.0012808447,0.58918333,-2.7306771,-2.730597,-2.730644,-2.7309802,49.901398,0.31337547,0.31378365,0.31385994,0.31466866,16.172977,0.5355444,0.53538513,0.5354595,0.53595924,5.241729e-05,0.10068488,0.053069435,0.059921786,0.7862715
231674851,-2.742843,0.0012654382,0.5621407,-2.7426085,-2.7425249,-2.7425718,-2.7429051,49.77439,0.3242054,0.3246441,0.32471848,0.3255806,14.987658,0.43535995,0.43521023,0.43527985,0.43575,4.877674e-05,0.100766934,0.053106077,0.059957806,0.78612036
233474904,-2.989259,0.0013518995,0.16374059,-2.9891007,-2.9889643,-2.9890134,-2.9893174,44.696297,-0.08509636,-0.08448601,-0.08441353,-0.083213806,5.1084743,0.463511,0.46354437,0.46353197,0.46349,4.4747598e-05,0.10113659,0.05326806,0.060118474,0.7854321
233674851,-2.997657,0.0014079446,0.13232183,-2.9975102,-2.99737,-2.9974184,-2.9977145,42.959328,-0.21583748,-0.21517944,-0.21510124,-0.21380234,3.2615867,0.5835841,0.5836928,0.58365345,0.58345103,5.119303e-05,0.10106544,0.05323724,0.06008779,0.78555834
233874859,-3.0116282,0.0014128147,0.09417241,-3.0114944,-3.0113494,-3.0113974,-3.0116844,41.35328,-0.22224045,-0.22155571,-0.22146606,-0.2201252,1.5278229,0.62858367,0.6287546,0.6286943,0.62837005,5.3687174e-05,0.10098383,0.05319756,0.06004896,0.785716
234074854,-3.036403,0.0013509858,0.045084987,-3.036283,-3.0361328,-3.03618,-3.0364573,39.695484,-0.2948017,-0.29410934,-0.2940216,-0.29267883,-0.08297348,0.5188476,0.5190717,0.5189949,0.51857877,4.946764e-05,0.1008803,0.053150184,0.06000226,0.7859178
234274851,-3.0655081,0.0013698419,-0.005198803,-3.065207,-3.0653307,-3.065345,-3.0655768,38.1845,-0.284441,-0.28378296,-0.28370285,-0.28244781,-0.8461485,0.60650206,0.60676956,0.606681,0.6062038,5.339241e-05,0.100778855,0.05309811,0.059951417,0.78611815
234474851,-3.1053526,0.0013071148,-0.065893546,-3.10506,-3.105183,-3.1051962,-3.1054196,36.58745,-0.35223007,-0.35162735,-0.35155106,-0.35040855,-1.4934205,0.47209668,0.47240484,0.47230577,0.47177708,4.8255064e-05,0.10066957,0.05304605,0.059900362,0.7863357
234674846,3.1412797,0.0012677116,-0.1213608,3.1415641,3.1414425,3.14143,3.141214,35.21015,-0.32323074,-0.32269478,-0.3226204,-0.3216076,-1.7618814,0.43081343,0.43114853,0.43104362,0.43048918,4.5066347e-05,0.100575835,0.05299888,0.059854537,0.7865256
234874888,3.1072085,0.0012280539,-0.17299947,3.1074858,3.1073658,3.107354,3.107144,33.94931,-0.26301765,-0.2625389,-0.26246834,-0.26156235,-2.0437608,0.3885895,0.38894176,0.38883388,0.38826954,4.1419236e-05,0.100503005,0.052959006,0.059816174,0.7866804
235074851,3.070625,0.001218587,-0.22569554,3.0707004,3.0708609,3.0708172,3.0705771,32.57765,-0.26554298,-0.26512527,-0.26506615,-0.2642746,-2.052411,0.39072818,0.39110142,0.39098954,0.39040953,4.071374e-05,0.1004351,0.0529194,0.059778165,0.7868266
235274851,3.0284953,0.0012084431,-0.28030598,3.0285676,3.0287259,3.0286827,3.028448,31.349892,-0.32240677,-0.32204628,-0.3219967,-0.3213272,-1.9528306,0.32744205,0.32781732,0.32770652,0.32713687,3.9451083e-05,0.10036667,0.052882496,0.059742533,0.78696877
235474886,2.9913244,0.0012099764,-0.32831004,2.9913948,2.9915502,2.9915078,2.9912777,30.45819,-0.29488754,-0.29456902,-0.29452324,-0.29394913,-1.8994871,0.36455816,0.3649134,0.3648094,0.3642791,3.9142615e-05,0.10030805,0.052847743,0.059709363,0.7870957
235674851,2.9638784,0.0012165975,-0.3658886,2.9639473,2.9641,2.9640584,2.963832,29.670895,-0.32118797,-0.32089424,-0.3208561,-0.32033348,-2.1049185,0.3618965,0.36222035,0.36212605,0.36164868,3.9174338e-05,0.10025028,0.05281476,0.059677687,0.78721815
235874851,2.9407012,0.0012121779,-0.39873815,2.9407692,2.9409192,2.9408786,2.9406552,28.953484,-0.32716942,-0.32690048,-0.32686234,-0.32639313,-2.3280299,0.32018012,0.3204723,0.32038707,0.31996083,3.772366e-05,0.10019774,0.05278639,0.05965051,0.78732765
236074872,2.9277694,0.0012195505,-0.42190272,2.928016,2.9279082,2.9278975,2.9277093,28.217747,-0.40291214,-0.40264893,-0.4026146,-0.40216255,-2.823899,0.2412414,0.24150154,0.24142537,0.24104977,3.755128e-05,0.10013888,0.05276013,0.059624866,0.7874386
236274896,2.9257414,0.0012507658,-0.43482193,2.9259844,2.925877,2.9258666,2.9256809,27.802223,-0.46300888,-0.46273613,-0.4627018,-0.46224976,-3.4438252,0.27834663,0.27855095,0.27849004,0.2781964,4.011497e-05,0.10007083,0.05273201,0.05959724,0.78755987
236474864,2.919415,0.0012304846,-0.45356807,2.9196553,2.9195492,2.919539,2.9193554,27.738735,-0.42139435,-0.42111397,-0.42108345,-0.42061996,-4.280162,0.18627593,0.1864101,0.18636784,0.1861737,3.6653317e-05,0.10001051,0.052710705,0.059575796,0.7876664
236674851,2.9038546,0.0012592264,-0.48243454,2.90409,2.9039872,2.9039767,2.9037948,27.548954,-0.50556755,-0.50527763,-0.505249,-0.50476646,-5.14378,0.1493038,0.14937711,0.14935082,0.14924157,3.9073293e-05,0.09993638,0.052687038,0.059551414,0.7877861
236874887,2.878487,0.0012981978,-0.52161837,2.8787153,2.8786173,2.8786068,2.8784266,27.365685,-0.60573196,-0.605423,-0.6053982,-0.6049042,-6.112615,0.032623887,0.0326401,0.032628298,0.03259623,4.2919753e-05,0.099845625,0.052660484,0.05952339,0.78792757
237074851,2.8463318,0.0013585413,-0.56783307,2.846551,2.8464594,2.8464487,2.8462698,27.045523,-0.7104378,-0.7101288,-0.71009827,-0.7095909,-7.025573,0.0129157305,0.012890339,0.012888908,0.01291132,4.9632185e-05,0.09973628,0.052628007,0.05948949,0.7880966
237274887,2.8142307,0.0013510252,-0.6149125,2.8144414,2.8143573,2.814346,2.8141694,26.771965,-0.69589424,-0.6955738,-0.6955433,-0.69500923,-8.052372,-0.0012824535,-0.0013420582,-0.0013356209,-0.0012712479,4.8451522e-05,0.09962513,0.052594945,0.05945487,0.7882766
237474851,2.7773147,0.0014210466,-0.6669937,2.7775128,2.7774374,2.7774258,2.7772515,26.276295,-0.7928829,-0.7925453,-0.7925129,-0.79195404,-9.232449,-0.0966413,-0.09672284,-0.09671259,-0.09662247,5.7180518e-05,0.09949119,0.052554008,0.05941206,0.7884856
237674898,2.7582371,0.0014503223,-0.6985653,2.758283,2.7584162,2.7583804,2.7581847,25.669361,-0.8181381,-0.81780434,-0.81777,-0.81720734,-10.15555,-0.16990519,-0.16999197,-0.169981,-0.16989017,6.0978513e-05,0.09935312,0.052510723,0.05936702,0.7887082
237874851,2.7289023,0.0013949566,-0.74360776,2.7289479,2.7290778,2.7290428,2.7288518,25.053097,-0.7463341,-0.74599266,-0.7459545,-0.7453842,-11.213682,-0.19223142,-0.19231582,-0.19230676,-0.19222283,5.449995e-05,0.09922686,0.05247113,0.059326146,0.7889213
238074851,2.7008586,0.0013850877,-0.78862226,2.7009017,2.7010283,2.7009943,2.7008083,24.177643,-0.7326412,-0.732275,-0.7322407,-0.73164177,-12.4885435,-0.22195101,-0.22201967,-0.22201538,-0.2219553,5.4131928e-05,0.099097595,0.05243126,0.059284396,0.78913265
238274887,2.6685216,0.0014040017,-0.83875144,2.668561,2.6686833,2.6686504,2.6684701,23.084667,-0.7670517,-0.7666683,-0.7666321,-0.7660122,-13.715729,-0.23926783,-0.23930788,-0.23931026,-0.23928595,5.7862075e-05,0.098958574,0.05238933,0.05924041,0.78935385
238474853,2.6280217,0.0014773534,-0.89734507,2.628055,2.6281712,2.6281397,2.627966,21.745127,-0.86478424,-0.8643894,-0.86434937,-0.8637104,-14.891074,-0.2549758,-0.25497437,-0.25498724,-0.25501013,6.917884e-05,0.09879795,0.05234197,0.059190746,0.78960013
238674851,2.5812397,0.0014994119,-0.9637177,2.5812697,2.5813777,2.581348,2.5811815,20.230364,-0.85562515,-0.855217,-0.85517883,-0.854517,-16.224068,-0.3832674,-0.38320494,-0.38323212,-0.38331604,7.447195e-05,0.098637566,0.052297827,0.059143502,0.7898466
238874851,2.5303674,0.0015326913,-1.0355072,2.5303938,2.5304918,2.530464,2.5303059,18.336763,-0.90597534,-0.9055538,-0.9055157,-0.90483856,-17.404964,-0.3854332,-0.3852868,-0.38533068,-0.38549328,8.200001e-05,0.098465174,0.05225401,0.059095975,0.79010284
239074851,2.4780493,0.0015161397,-1.1107967,2.4780746,2.4781613,2.4781356,2.4779866,16.35053,-0.8646679,-0.8642502,-0.8642101,-0.86353874,-18.416073,-0.4800434,-0.47980118,-0.47986507,-0.48010826,8.339331e-05,0.09830278,0.05221996,0.05905774,0.7903361
239274863,2.4247427,0.0014987729,-1.1872686,2.4247675,2.424842,2.4248188,2.4246788,14.286316,-0.92272663,-0.9223223,-0.9222841,-0.9216461,-18.897598,-0.37913513,-0.3788023,-0.37888145,-0.37919235,8.48249e-05,0.098133706,0.05218535,0.059018966,0.7905772
239474899,2.3735983,0.0016102408,-1.2616111,2.373615,2.3736763,2.3736556,2.3735242,12.212347,-0.9987879,-0.99840164,-0.99836826,-0.9977808,-19.253422,-0.43652916,-0.43610764,-0.43620205,-0.43656826,0.00010453941,0.0979591,0.052155804,0.05898422,0.79079634
239674851,2.3321772,0.0014754788,-1.3279163,2.332201,2.3322508,2.3322325,2.3321092,10.434921,-0.8626013,-0.86223316,-0.86220455,-0.86167336,-19.436829,-0.5319605,-0.53146076,-0.5315685,-0.5319748,8.913654e-05,0.097817086,0.052146077,0.0589688,0.79097885
239874854,2.2930603,0.0013609246,-1.3926458,2.293092,2.2931304,2.293114,2.2929983,8.911097,-0.73250866,-0.7321596,-0.73213863,-0.7316675,-19.400766,-0.5796623,-0.5791149,-0.5792322,-0.57965183,7.5761796e-05,0.097701706,0.052149918,0.05896621,0.79110634
240074851,2.2587805,0.001454824,-1.4521137,2.2588038,2.2588315,2.258817,2.2587085,7.5431848,-0.7390661,-0.7387409,-0.73872375,-0.7383137,-19.329178,-0.7134285,-0.71286297,-0.7129812,-0.7133932,9.277083e-05,0.09758701,0.052162893,0.058971465,0.79118586
240274851,2.2259505,0.0013356179,-1.5085516,2.2259836,2.2260008,2.2259884,2.2258859,6.410003,-0.7098255,-0.70952606,-0.70951176,-0.7091589,-18.95015,-0.61961365,-0.6190462,-0.61916256,-0.6195545,7.692179e-05,0.097488485,0.05217586,0.058977924,0.7912808
240474922,2.197567,0.0013965062,-1.5596062,2.1975946,2.197603,2.197592,2.1974947,5.1121154,-0.77807236,-0.77779293,-0.7777815,-0.77747536,-18.627098,-0.6366949,-0.6361189,-0.6362343,-0.6366186,8.829048e-05,0.09738504,0.0521893,0.05898448,0.7913529
240674853,2.173314,0.0014063106,-1.6055844,2.1733413,2.1733408,2.1733313,2.173239,3.9019318,-0.81652164,-0.8162632,-0.8162546,-0.81598854,-18.190952,-0.61299896,-0.6124172,-0.61253166,-0.61290646,9.1513604e-05,0.097285815,0.052203428,0.05899196,0.7914273
240874888,2.152573,0.0014246727,-1.6479975,2.1525984,2.1525903,2.1525822,2.152494,2.7999334,-0.7856016,-0.7853575,-0.7853508,-0.7851248,-17.805319,-0.68401814,-0.6834326,-0.683547,-0.68391323,9.5941534e-05,0.097194016,0.05222415,0.059005633,0.79148024
241074854,2.140204,0.001447095,-1.6814123,2.1402252,2.1402116,2.1402044,2.1401205,1.6175604,-0.8397331,-0.83950996,-0.8395033,-0.839303,-17.274723,-0.6527176,-0.65212536,-0.6522398,-0.6525984,0.00010095349,0.097104125,0.05224353,0.059018325,0.7915331
241274851,2.136598,0.0015610501,-1.7059032,2.1366053,2.1365871,2.1365812,2.1365006,0.42399216,-0.9201546,-0.9199486,-0.9199419,-0.91976833,-16.730047,-0.6682339,-0.66763496,-0.66774845,-0.6681032,0.00012137773,0.0970115,0.052263442,0.059031516,0.7915722
241474887,2.1423087,0.0014886021,-1.7205365,2.14232,2.1422997,2.1422944,2.142217,-0.59620285,-0.9262924,-0.92610455,-0.9260998,-0.92595005,-16.07355,-0.59310627,-0.5925064,-0.59261894,-0.59296703,0.00011049103,0.096930616,0.05228273,0.059044946,0.7916312
241674851,2.1495538,0.0016439765,-1.733555,2.1495433,2.1495214,2.1495166,2.1494417,-1.5594826,-0.9935026,-0.99333286,-0.99332905,-0.9931984,-15.536071,-0.64886,-0.6482744,-0.64838123,-0.64871883,0.00013860174,0.09684634,0.05230252,0.059058506,0.79165405
241874891,2.15337,0.0017999337,-1.7494861,2.153337,2.1533127,2.1533084,2.1532364,-2.3037562,-1.0344863,-1.0343318,-1.0343275,-1.0342155,-15.055567,-0.7116041,-0.7110462,-0.71114826,-0.7114649,0.00016741609,0.09676468,0.052324418,0.059074137,0.7916693
242074854,2.1556575,0.0018725682,-1.766173,2.155612,2.1555853,2.1555815,2.1555119,-3.0690231,-1.0874157,-1.0872684,-1.0872645,-1.0871668,-14.587764,-0.6835995,-0.6830654,-0.6831589,-0.6834612,0.00018193944,0.09668756,0.052345052,0.059089456,0.791696
242274851,2.1500628,0.001838838,-1.7893375,2.15002,2.1499887,2.1499858,2.1499186,-3.6926317,-1.1366973,-1.1365557,-1.1365528,-1.1364655,-14.076427,-0.5780363,-0.5775347,-0.57762337,-0.5779047,0.00017708578,0.09661845,0.052361295,0.05910132,0.79174185
242474851,2.1316428,0.002726429,-1.8260514,2.1314807,2.1314416,2.1314402,2.1313758,-4.531553,-1.2719316,-1.271791,-1.2717891,-1.2717085,-13.869652,-0.7595072,-0.7590246,-0.7591095,-0.7593775,0.00034249102,0.09652269,0.05237478,0.059108175,0.79165196
242674853,2.0948932,0.0023249139,-1.8805262,2.0947871,2.0947363,2.094736,2.094675,-5.0937214,-1.2196851,-1.219543,-1.2195425,-1.2194695,-13.480006,-0.70641136,-0.70595074,-0.7060299,-0.7062845,0.00027074214,0.09645598,0.05239861,0.059127536,0.79174715
242874854,2.042797,0.0031937526,-1.9515918,2.0425694,2.0425034,2.0425053,2.0424478,-6.0897055,-1.3329508,-1.3328035,-1.3328044,-1.3327343,-13.200518,-0.79107666,-0.7906132,-0.7906885,-0.790946,0.00043961196,0.09635739,0.052413035,0.059135538,0.7916544
243074851,1.9678456,0.0027610837,-2.0462966,1.9676836,1.9675984,1.9676027,1.9675496,-7.0285892,-1.3057292,-1.3055727,-1.3055756,-1.3055065,-12.78113,-0.724226,-0.7237549,-0.72383213,-0.7240925,0.0003620481,0.096283674,0.052438997,0.059156667,0.79175866
243274886,1.869156,0.0035494883,-2.1676729,1.8688745,1.8687676,1.8687748,1.8687266,-8.676176,-1.442137,-1.4419641,-1.4419677,-1.4418981,-12.250731,-0.6807184,-0.68019104,-0.6802759,-0.680563,0.0005253286,0.096173905,0.052453186,0.059164025,0.79168355
243474851,1.7579296,0.00401846,-2.304507,1.7575647,1.7574373,1.7574472,1.7574048,-10.960976,-1.5849452,-1.584753,-1.584759,-1.5846891,-11.205391,-0.43410683,-0.4334774,-0.4335785,-0.43391705,0.0006342086,0.096063204,0.052463572,0.059168354,0.79167074
243674851,1.6433225,0.004508514,-2.4487605,1.6428541,1.6427104,1.6427226,1.6426861,-13.278155,-1.6470053,-1.6468115,-1.6468174,-1.6467574,-9.939105,-0.37429714,-0.37356663,-0.37368584,-0.37407112,0.0007574224,0.09595015,0.052474316,0.059172925,0.79164517
243874851,1.5446589,0.004861469,-2.5816739,1.5440911,1.5439358,1.5439497,1.5439193,-15.5581455,-1.6685942,-1.6684211,-1.6684248,-1.6683823,-8.343538,-0.3965931,-0.39578056,-0.39591122,-0.3963375,0.0008639202,0.095844775,0.052491233,0.05918407,0.791616
244074858,1.4636964,0.0056122323,-2.6994247,1.462938,1.4627737,1.4627892,1.4627649,-17.50419,-1.7270601,-1.726939,-1.726938,-1.726917,-6.396159,-0.35248375,-0.3516407,-0.35177803,-0.3522148,0.0010692574,0.0957527,0.05250196,0.059189912,0.7914862
244274854,1.3990861,0.012005299,-2.8047495,1.3969663,1.3967943,1.3968112,1.3967928,-19.276934,-1.9265575,-1.9265289,-1.9265189,-1.9265189,-4.175048,-0.36880207,-0.36796856,-0.36810207,-0.36853313,0.0025984778,0.095568284,0.052442417,0.059119225,0.79027164
244474851,1.3546034,0.011646865,-2.8883686,1.3524152,1.352236,1.3522543,1.3522413,-20.439014,-1.9511542,-1.951251,-1.9512291,-1.9512415,-1.6960926,-0.20793152,-0.20714855,-0.20727539,-0.20767784,0.0026224738,0.09558969,0.052447382,0.05912779,0.79021263
244674866,1.3206123,0.004683934,-2.9609137,1.3198633,1.3196787,1.319698,1.3196895,-20.72017,-1.7212358,-1.7214789,-1.7214398,-1.7214584,0.38203335,-0.30070496,-0.30000782,-0.3001194,-0.30047798,0.000996346,0.09580985,0.05253735,0.059234843,0.7914216
244874858,1.2975858,0.0028403918,-3.020591,1.2972229,1.2970345,1.2970545,1.2970498,-20.49115,-1.584135,-1.5844975,-1.584444,-1.5844622,1.9241629,-0.27085972,-0.2702675,-0.2703638,-0.27066612,0.0005628527,0.09594648,0.05255735,0.05926627,0.7916671
245074854,1.2828915,0.0020360898,-3.0691981,1.282701,1.2825104,1.2825309,1.2825285,-20.033264,-1.4531994,-1.4536257,-1.4535646,-1.453578,2.7599907,-0.37078762,-0.37028885,-0.37037086,-0.37061882,0.0003709663,0.09606333,0.05256502,0.059283532,0.7917172
245274870,1.2819439,0.002144746,-3.10137,1.2817078,1.281514,1.281535,1.2815349,-19.773373,-1.5107889,-1.5112753,-1.5112066,-1.5112143,3.8124247,-0.26527786,-0.26484776,-0.26491642,-0.2651329,0.0004156162,0.09618119,0.052551687,0.059280656,0.79157084
245474902,1.279719,0.0015098411,-3.131523,1.2796398,1.2794446,1.2794658,1.2794672,-19.198227,-1.3440752,-1.3445807,-1.344512,-1.3445129,4.262702,-0.33139133,-0.33102417,-0.33108425,-0.3312664,0.0002475101,0.09630711,0.05255145,0.059290554,0.7916034
245674890,1.2668853,0.0013448319,3.1142306,1.2668438,1.2666494,1.2666707,1.266673,-18.730242,-1.2945013,-1.295002,-1.2949343,-1.2949324,4.606372,-0.2867422,-0.28642845,-0.28647995,-0.2866335,0.00020490175,0.0964164,0.052543066,0.05929118,0.79154444
245874889,1.2466855,0.0013189648,3.0719,1.2466447,1.2464529,1.246474,1.2464769,-18.388767,-1.2947512,-1.2952347,-1.2951708,-1.295167,4.9011974,-0.25374508,-0.25346947,-0.2535143,-0.2536478,0.00020020857,0.09651924,0.0525319,0.059288353,0.7914603
246074873,1.2244887,0.0012981467,3.0292823,1.2244483,1.2242601,1.2242808,1.2242838,-18.141077,-1.2944708,-1.2949381,-1.294877,-1.2948713,5.2411385,-0.2245388,-0.22429371,-0.22433376,-0.22445011,0.0001957652,0.09661864,0.05252016,0.059284564,0.7913809
246274864,1.195822,0.000981673,2.9826567,1.1958725,1.1956894,1.1957097,1.1957126,-17.725243,-1.0494833,-1.0499325,-1.0498772,-1.0498695,5.7038136,-0.08614445,-0.08591843,-0.08595371,-0.08605862,9.752408e-05,0.096706815,0.052514564,0.05928561,0.7913955
248074864,0.7859068,0.0014016393,2.4206495,0.7857429,0.7856623,0.78567094,0.78566444,-16.498495,-1.3473396,-1.3476372,-1.3475943,-1.3475885,7.69374,-0.27869606,-0.27857208,-0.27859497,-0.2786417,0.00023492187,0.09745631,0.052389592,0.05922394,0.7906952
248274887,0.75744367,0.0015998894,2.3825004,0.7572025,0.7571301,0.7571378,0.75713056,-16.06443,-1.3618422,-1.3620968,-1.3620605,-1.3620558,6.9736567,-0.5194416,-0.5193491,-0.5193682,-0.5193987,0.00030602582,0.09750305,0.052379277,0.05921758,0.79059404
248474858,0.76614,0.0018644109,2.3828359,0.76580304,0.7657283,0.7657364,0.7657295,-15.639022,-1.4038162,-1.4040546,-1.4040165,-1.4040127,6.540516,-0.6268797,-0.62680626,-0.6268225,-0.62684727,0.0004032784,0.09754485,0.052367393,0.059209973,0.79047453
248674851,0.81683826,0.0014942862,2.4264045,0.81664413,0.81657374,0.8165814,0.8165743,-15.095994,-1.19555,-1.1957874,-1.1957512,-1.1957483,6.339979,-0.72992706,-0.7298622,-0.7298775,-0.72989845,0.000256858,0.09760255,0.05237016,0.059217438,0.790553
248874851,0.86153305,0.0013455317,2.463381,0.8613927,0.86133486,0.86134094,0.86133236,-14.838548,-1.0555382,-1.0557613,-1.0557213,-1.0557232,6.257923,-0.7726469,-0.7725792,-0.7725935,-0.77261734,0.00019416826,0.09764332,0.05237005,0.059221536,0.7905709
249074854,0.9074035,0.0013117319,2.5017383,0.9072731,0.9072279,0.9072324,0.9072223,-14.683603,-1.0385265,-1.0387173,-1.038681,-1.0386868,6.135973,-0.73548317,-0.7354126,-0.7354307,-0.73545456,0.00017538328,0.09767428,0.05236904,0.05922372,0.79055756
249274854,0.9468832,0.0014389895,2.534903,0.9467009,0.94666636,0.94666964,0.9466583,-14.554962,-1.1042233,-1.1043682,-1.1043377,-1.1043453,5.748597,-0.76645756,-0.76639175,-0.7664089,-0.7664299,0.00021966701,0.09769279,0.05236565,0.0592227,0.79049927
249474859,0.97596824,0.0020792484,2.5601017,0.9755321,0.9755051,0.97550756,0.9754953,-14.460123,-1.3239727,-1.3240681,-1.3240414,-1.3240528,5.1045218,-0.83447456,-0.83442783,-0.83444214,-0.8344555,0.00046795604,0.09768664,0.052351695,0.059210155,0.79028356
249674877,0.9829205,0.0019732313,2.562733,0.98260754,0.9824734,0.9824886,0.98248965,-14.165106,-1.3379974,-1.3380356,-1.3380165,-1.338028,4.483423,-0.74598694,-0.74596024,-0.74597263,-0.7459793,0.00042004572,0.097698286,0.05235411,0.059215125,0.79031247
249874887,0.9831129,0.0018323845,2.5662968,0.9828658,0.9827316,0.98274684,0.98274803,-13.772819,-1.321703,-1.3216915,-1.3216801,-1.3216953,3.8127756,-0.6682701,-0.6682663,-0.6682768,-0.6682749,0.00035420436,0.09770291,0.052358773,0.059221525,0.7903626
250074851,0.9777128,0.003271234,2.5676749,0.9769056,0.9767731,0.976788,0.97678906,-13.542097,-1.5055256,-1.5054646,-1.5054607,-1.5054798,2.8409967,-0.85101414,-0.85103035,-0.85103893,-0.8510275,0.00091258687,0.09763582,0.05233249,0.059191555,0.78992754
250274893,0.97013146,0.0034980031,2.5711484,0.9692536,0.9691236,0.9691383,0.969139,-13.173561,-1.5432482,-1.54315,-1.54315,-1.5431671,2.0106773,-0.81609726,-0.8161335,-0.8161402,-0.81612015,0.0009816231,0.09760658,0.052331924,0.059190158,0.78988975
250474943,0.95695275,0.0030434325,2.5723782,0.9562704,0.9561442,0.95615834,0.95615864,-12.699673,-1.4751348,-1.4749947,-1.4750042,-1.4750242,1.1679144,-0.8238516,-0.82390594,-0.82390976,-0.82388496,0.00078410015,0.09759706,0.05234694,0.0592047,0.79006714
250674851,0.9404133,0.0032835675,2.572173,0.9396591,0.9395379,0.9395515,0.93955094,-12.299116,-1.460763,-1.460597,-1.4606113,-1.4606285,0.35657692,-0.8883381,-0.8884077,-0.88840675,-0.8883753,0.0008532681,0.09755595,0.052347317,0.059202336,0.79004115
250874851,0.92374575,0.0039709853,2.5734034,0.92275983,0.92264384,0.9226569,0.92265576,-11.949003,-1.4911184,-1.4909277,-1.490943,-1.490963,-0.42987156,-0.9500332,-0.9501133,-0.95011044,-0.9500742,0.0010825777,0.09749318,0.052339483,0.059190646,0.7898941
251074855,0.9072888,0.0029096804,2.575846,0.90670955,0.9065987,0.9066112,0.90660924,-11.47551,-1.394948,-1.394741,-1.3947573,-1.3947783,-1.016839,-0.88377,-0.8838587,-0.88385487,-0.8838167,0.000672994,0.097492196,0.052365083,0.059216883,0.79025286
251274860,0.8933645,0.003158846,2.5803814,0.8927149,0.8926086,0.8926207,0.8926181,-11.052952,-1.3651581,-1.3649483,-1.3649664,-1.3649855,-1.6016617,-0.9727726,-0.9728632,-0.9728594,-0.97282124,0.0007417544,0.097446196,0.052365005,0.059213817,0.79023325
251474851,0.88317144,0.0021711476,2.587628,0.88287747,0.8827745,0.8827861,0.88278323,-10.460897,-1.1864204,-1.1862278,-1.1862459,-1.1862631,-1.8960619,-0.92057323,-0.9206648,-0.9206619,-0.9206209,0.0003825705,0.09745172,0.052385855,0.059234727,0.79054505
251674851,0.8758477,0.0029613718,2.5966208,0.8753002,0.87519985,0.8752112,0.87520796,-10.090401,-1.275239,-1.2750711,-1.2750864,-1.2751036,-2.2376165,-1.0287619,-1.0288525,-1.0288506,-1.0288105,0.0006376694,0.097401604,0.052373882,0.059218742,0.79036814
251874887,0.87112236,0.0024761197,2.607145,0.8707502,0.8706512,0.87066233,0.87065893,-9.499445,-1.1368017,-1.1366663,-1.1366777,-1.1366949,-2.40061,-1.0585785,-1.0586634,-1.0586624,-1.0586233,0.00046080645,0.09740387,0.05238304,0.059227396,0.79052484
252074851,0.8689216,0.0021521428,2.6182256,0.8686661,0.86856765,0.8685789,0.86857545,-8.919036,-1.0120134,-1.011919,-1.0119257,-1.011941,-2.3993483,-1.0680008,-1.0680771,-1.0680771,-1.0680408,0.00034285078,0.09740955,0.052387822,0.059231848,0.79062784
252274851,0.86773586,0.0018759896,2.6283495,0.867578,0.86747986,0.867491,0.8674876,-8.325687,-0.90129566,-0.9012461,-0.901248,-0.9012623,-2.2588549,-1.0323114,-1.0323782,-1.0323792,-1.0323467,0.0002439385,0.09742101,0.05239099,0.05923504,0.7907091
252474854,0.86369604,0.0016520533,2.6338153,0.8636163,0.863519,0.86353016,0.8635265,-7.6704826,-0.745945,-0.74594116,-0.74593735,-0.74594975,-2.0502176,-0.9925566,-0.99261284,-0.9926138,-0.99258614,0.00016420693,0.097436085,0.052392542,0.059237044,0.7907702
252674851,0.8534634,0.0017012709,2.630942,0.8533739,0.85327905,0.8532901,0.853286,-7.222763,-0.7795181,-0.7795582,-0.7795477,-0.7795582,-1.7873907,-0.9886093,-0.98865414,-0.9886551,-0.9886322,0.00017261087,0.09744688,0.05238902,0.05923407,0.7907574
252874863,0.8361742,0.0015712678,2.618186,0.83612806,0.836038,0.8360486,0.83604383,-6.6497927,-0.6526966,-0.652792,-0.6527691,-0.6527786,-1.3252859,-0.9399996,-0.9400282,-0.94003105,-0.94001293,0.00012491932,0.09746568,0.052388106,0.05923475,0.79078656
253074851,0.82045376,0.0015166476,2.605219,0.82041276,0.82034767,0.8203553,0.8203476,-6.1860075,-0.5981083,-0.5982628,-0.5982342,-0.5982399,-0.68490696,-0.88224983,-0.8822603,-0.8822632,-0.88225555,0.00010166016,0.09748556,0.052386258,0.059234697,0.79079187
253274879,0.8063104,0.0014802414,2.5862536,0.8062881,0.80621886,0.8062269,0.8062198,-5.690445,-0.5074806,-0.50769806,-0.5076599,-0.5076637,-0.013642311,-0.85510254,-0.85509396,-0.8550987,-0.8550987,8.543354e-05,0.09750576,0.052384462,0.059234794,0.79078954
253474851,0.7814222,0.0014340606,2.5509827,0.7814224,0.7813465,0.7813552,0.781349,-5.253414,-0.42878342,-0.42905235,-0.4290104,-0.4290142,0.7403984,-0.7740917,-0.77406406,-0.7740698,-0.7740803,6.7125e-05,0.09752596,0.052383833,0.059235964,0.79078704
253674856,0.73851436,0.0014396365,2.4913554,0.73850507,0.73844326,0.73845005,0.73844206,-4.8233852,-0.4505539,-0.4508915,-0.4508419,-0.4508381,1.4209118,-0.7589598,-0.75891685,-0.75892544,-0.7589388,6.6738285e-05,0.09754898,0.05238161,0.05923564,0.7907671
253874851,0.682853,0.0013871586,2.4161775,0.68288875,0.68278754,0.6827987,0.68279624,-3.9951487,-0.22474861,-0.22514725,-0.22509575,-0.2250843,2.1147346,-0.6767206,-0.6766672,-0.6766777,-0.67669296,4.8670783e-05,0.0975621,0.05238224,0.059236947,0.79077
254074898,0.62468636,0.0013991867,2.3337817,0.6247261,0.62461114,0.6246239,0.6246235,-2.9143581,-0.15777779,-0.1582737,-0.15820885,-0.1581955,2.5568056,-0.7554903,-0.75543976,-0.75545025,-0.75546265,5.3984284e-05,0.09757042,0.052382007,0.059236974,0.79075664
254274851,0.58842206,0.0014082264,2.269722,0.58845866,0.5883373,0.58835083,0.5883515,-1.6411991,-0.031232834,-0.031822205,-0.031749725,-0.03173256,2.8895044,-0.835413,-0.835371,-0.83538055,-0.83538914,6.1252904e-05,0.0975682,0.052383147,0.05923742,0.79075
254474898,0.5904926,0.0014062284,2.2452965,0.5904458,0.59043473,0.590436,0.5904224,-0.91906166,0.02425003,0.023614883,0.023687363,0.02371025,3.2144709,-0.8763685,-0.876317,-0.8763304,-0.8763418,6.669819e-05,0.097559154,0.052386116,0.059238855,0.79074913
254674868,0.63990426,0.001338551,2.2623208,0.63993776,0.6398375,0.63984865,0.63984716,-0.8108063,0.078409195,0.07777786,0.07785225,0.07788086,3.7455854,-0.70355606,-0.7034712,-0.70348835,-0.7035103,4.868677e-05,0.09754443,0.052392073,0.059243046,0.7907718
254874851,0.70330244,0.00129892,2.2996604,0.7033306,0.703251,0.70325977,0.7032559,-0.71616745,0.20295525,0.20236015,0.20242691,0.20246124,4.111353,-0.5139618,-0.5138531,-0.51387024,-0.51390076,3.9281746e-05,0.09751757,0.052399136,0.059247967,0.790796
255074851,0.75636256,0.0012911703,2.3308358,0.7563767,0.75631464,0.7563215,0.7563157,-0.3642807,0.3894062,0.38884163,0.38890648,0.38894272,4.2165174,-0.40466404,-0.40454292,-0.40456104,-0.40459633,4.0638864e-05,0.097475894,0.052407935,0.059253644,0.7908219
