timestamp,gps_hvel[0],gps_hvel[1],gps_vvel,gps_hpos[0],gps_hpos[1],gps_vpos,ev_hvel[0],ev_hvel[1],ev_vvel,ev_hpos[0],ev_hpos[1],ev_vpos,fake_hvel[0],fake_hvel[1],fake_vvel,fake_hpos[0],fake_hpos[1],fake_vpos,rng_vpos,baro_vpos,aux_hvel[0],aux_hvel[1],aux_vvel,flow[0],flow[1],heading,mag_field[0],mag_field[1],mag_field[2],drag[0],drag[1],airspeed,beta,hagl
128104855,0.007981736,-0.02388965,0.016333392,0.008898258,-0.023835257,0.0,0.0,0.0,0.0,0.0,0.0,0.0,nan,nan,nan,nan,nan,nan,0.0,0.03702736,0.0,0.0,nan,0.0,0.0,-0.025821805,0.0,0.0,0.0,0.0,0.0,0.0,0.0,0.0
128304852,0.028980957,-0.016092293,0.03670118,-0.0042412877,-0.020135403,0.0,0.0,0.0,0.0,0.0,0.0,0.0,nan,nan,nan,nan,nan,nan,0.0,0.051311493,0.0,0.0,nan,0.0,0.0,-0.015838385,0.0,0.0,0.0,0.0,0.0,0.0,0.0,0.0
128504848,-0.0112012625,-0.022540342,0.005210935,-0.007876456,-0.024890244,0.0,0.0,0.0,0.0,0.0,0.0,0.0,nan,nan,nan,nan,nan,nan,0.0,0.0909729,0.0,0.0,nan,0.0,0.0,0.034428358,0.0,0.0,0.0,0.0,0.0,0.0,0.0,0.0
128704871,-0.0006791083,-0.005627915,-0.0053970534,-0.006118059,-0.027893677,0.0,0.0,0.0,0.0,0.0,0.0,0.0,nan,nan,nan,nan,nan,nan,0.0,0.06972122,0.0,0.0,nan,0.0,0.0,-0.01918137,0.0,0.0,0.0,0.0,0.0,0.0,0.0,0.0
128904884,-0.026616018,-0.006835349,0.01558379,-0.0057869554,-0.025399446,0.0,0.0,0.0,0.0,0.0,0.0,0.0,nan,nan,nan,nan,nan,nan,0.0,-0.2661476,0.0,0.0,nan,0.0,0.0,0.009853125,0.0,0.0,0.0,0.0,0.0,0.0,0.0,0.0
129104886,0.021556934,-0.0038387338,-0.01355316,-0.024220467,-0.022225708,0.0,0.0,0.0,0.0,0.0,0.0,0.0,nan,nan,nan,nan,nan,nan,0.0,-0.049556732,0.0,0.0,nan,0.0,0.0,0.020694256,0.0,0.0,0.0,0.0,0.0,0.0,0.0,0.0
129304848,0.05180234,0.024754712,0.009867102,-0.024445534,-0.019396767,0.0,0.0,0.0,0.0,0.0,0.0,0.0,nan,nan,nan,nan,nan,nan,0.0,-0.094379425,0.0,0.0,nan,0.0,0.0,0.009736896,0.0,0.0,0.0,0.0,0.0,0.0,0.0,0.0
129504848,-0.024469871,-0.011326319,-0.026631098,-0.028720796,-0.013361022,0.0,0.0,0.0,0.0,0.0,0.0,0.0,nan,nan,nan,nan,nan,nan,0.0,-0.009588242,0.0,0.0,nan,0.0,0.0,-0.056179583,0.0,0.0,0.0,0.0,0.0,0.0,0.0,0.0
129704848,0.043743864,0.013108833,0.007606016,-0.022948205,-0.017684117,0.0,0.0,0.0,0.0,0.0,0.0,0.0,nan,nan,nan,nan,nan,nan,0.0,0.08903122,0.0,0.0,nan,0.0,0.0,-0.062928855,0.0,0.0,0.0,0.0,0.0,0.0,0.0,0.0
129904861,-0.05468671,-0.017325489,0.052644473,-0.026437044,-0.009697124,0.0,0.0,0.0,0.0,0.0,0.0,0.0,nan,nan,nan,nan,nan,nan,0.0,-0.08623505,0.0,0.0,nan,0.0,0.0,-0.0055525303,0.0,0.0,0.0,0.0,0.0,0.0,0.0,0.0
130104849,0.066390395,0.048661813,-0.1022111,-0.02792269,-0.0058555603,0.0,0.0,0.0,0.0,0.0,0.0,0.0,nan,nan,nan,nan,nan,nan,0.0,-0.07069588,0.0,0.0,nan,0.0,0.0,0.03119582,0.0,0.0,0.0,0.0,0.0,0.0,0.0,0.0
130304849,-0.0040602647,-0.018180769,0.03566481,-0.021882176,-0.003740266,0.0,0.0,0.0,0.0,0.0,0.0,0.0,nan,nan,nan,nan,nan,nan,0.0,0.17892456,0.0,0.0,nan,0.0,0.0,-0.037770033,0.0,0.0,0.0,0.0,0.0,0.0,0.0,0.0
130504848,-0.002680832,0.01051601,-0.016814157,-0.030303597,-0.000776723,0.0,0.0,0.0,0.0,0.0,0.0,0.0,nan,nan,nan,nan,nan,nan,0.0,0.16218376,0.0,0.0,nan,0.0,0.0,0.0040131807,0.0,0.0,0.0,0.0,0.0,0.0,0.0,0.0
130704861,0.003119072,0.03327529,-0.013522408,-0.026473999,0.00576894,0.0,0.0,0.0,0.0,0.0,0.0,0.0,nan,nan,nan,nan,nan,nan,0.0,0.013793945,0.0,0.0,nan,0.0,0.0,0.0053905845,0.0,0.0,0.0,0.0,0.0,0.0,0.0,0.0
130904848,-0.012532464,-0.0069622598,-0.03518541,-0.03446001,0.0010127276,0.0,0.0,0.0,0.0,0.0,0.0,0.0,nan,nan,nan,nan,nan,nan,0.0,-0.04573059,0.0,0.0,nan,0.0,0.0,0.03795594,0.0,0.0,0.0,0.0,0.0,0.0,0.0,0.0
131104848,-0.0005522445,0.033505477,-0.023834508,-0.050436854,0.008833095,0.0,0.0,0.0,0.0,0.0,0.0,0.0,nan,nan,nan,nan,nan,nan,0.0,-0.16608238,0.0,0.0,nan,0.0,0.0,0.013868272,0.0,0.0,0.0,0.0,0.0,0.0,0.0,0.0
131304853,0.023460781,0.024352284,-0.063029654,-0.05448675,0.0034399033,0.0,0.0,0.0,0.0,0.0,0.0,0.0,nan,nan,nan,nan,nan,nan,0.0,0.07506943,0.0,0.0,nan,0.0,0.0,0.003479123,0.0,0.0,0.0,0.0,0.0,0.0,0.0,0.0
131504853,-0.0123446025,-0.01564788,0.040430207,-0.07185155,0.0062655956,0.0,0.0,0.0,0.0,0.0,0.0,0.0,nan,nan,nan,nan,nan,nan,0.0,0.009654999,0.0,0.0,nan,0.0,0.0,0.018411458,0.0,0.0,0.0,0.0,0.0,0.0,0.0,0.0
131704867,0.014076081,-0.007285637,0.013628588,-0.07128972,0.0065671206,0.0,0.0,0.0,0.0,0.0,0.0,0.0,nan,nan,nan,nan,nan,nan,0.0,0.13215637,0.0,0.0,nan,0.0,0.0,-0.062416792,0.0,0.0,0.0,0.0,0.0,0.0,0.0,0.0
131904948,0.013620548,-0.03467921,0.039465003,-0.073441684,-0.0011312515,0.0,0.0,0.0,0.0,0.0,0.0,0.0,nan,nan,nan,nan,nan,nan,0.0,-0.165699,0.0,0.0,nan,0.0,0.0,-0.02364719,0.0,0.0,0.0,0.0,0.0,0.0,0.0,0.0
132104848,0.026024915,-0.0011697309,0.040280364,-0.07461095,0.0030556917,0.0,0.0,0.0,0.0,0.0,0.0,0.0,nan,nan,nan,nan,nan,nan,0.0,-0.14334106,0.0,0.0,nan,0.0,0.0,0.023001373,0.0,0.0,0.0,0.0,0.0,0.0,0.0,0.0
132304850,0.018194422,0.04706693,0.0072327354,-0.07686794,0.010339707,0.0,0.0,0.0,0.0,0.0,0.0,0.0,nan,nan,nan,nan,nan,nan,0.0,-0.20015717,0.0,0.0,nan,0.0,0.0,0.013227165,0.0,0.0,0.0,0.0,0.0,0.0,0.0,0.0
132504907,0.016662389,-0.014418737,0.01789943,-0.07773882,0.003380388,0.0,0.0,0.0,0.0,0.0,0.0,0.0,nan,nan,nan,nan,nan,nan,0.0,-0.03109169,0.0,0.0,nan,0.0,0.0,-0.030620456,0.0,0.0,0.0,0.0,0.0,0.0,0.0,0.0
132704866,0.042850897,0.01896301,0.013093613,-0.077730656,0.004441142,0.0,0.0,0.0,0.0,0.0,0.0,0.0,nan,nan,nan,nan,nan,nan,0.0,-0.19837952,0.0,0.0,nan,0.0,0.0,-0.0793488,0.0,0.0,0.0,0.0,0.0,0.0,0.0,0.0
132904872,0.027596412,-0.0059306393,0.031581134,-0.06951821,0.001189813,0.0,0.0,0.0,0.0,0.0,0.0,0.0,nan,nan,nan,nan,nan,nan,0.0,0.104104996,0.0,0.0,nan,0.0,0.0,0.049631655,0.0,0.0,0.0,0.0,0.0,0.0,0.0,0.0
133104863,0.025651976,0.007568036,0.04377592,-0.060257435,-0.0058618337,0.0,0.0,0.0,0.0,0.0,0.0,0.0,nan,nan,nan,nan,nan,nan,0.0,-0.10623932,0.0,0.0,nan,0.0,0.0,-0.030962527,0.0,0.0,0.0,0.0,0.0,0.0,0.0,0.0
133304880,0.03485212,-0.00474743,0.038972124,-0.051712334,-0.006571293,0.0,0.0,0.0,0.0,0.0,0.0,0.0,nan,nan,nan,nan,nan,nan,0.0,0.035427094,0.0,0.0,nan,0.0,0.0,0.011516213,0.0,0.0,0.0,0.0,0.0,0.0,0.0,0.0
133504849,0.028872324,0.0008245595,-0.01660855,-0.044403434,-0.005718857,0.0,0.0,0.0,0.0,0.0,0.0,0.0,nan,nan,nan,nan,nan,nan,0.0,-0.022176743,0.0,0.0,nan,0.0,0.0,-0.035687685,0.0,0.0,0.0,0.0,0.0,0.0,0.0,0.0
133704851,0.022658419,0.028385367,-0.039107922,-0.049039245,-0.0053606927,0.0,0.0,0.0,0.0,0.0,0.0,0.0,nan,nan,nan,nan,nan,nan,0.0,-0.034500122,0.0,0.0,nan,0.0,0.0,0.0636009,0.0,0.0,0.0,0.0,0.0,0.0,0.0,0.0
133904875,0.047237717,-0.02433785,0.010951303,-0.04107833,-0.01563549,0.0,0.0,0.0,0.0,0.0,0.0,0.0,nan,nan,nan,nan,nan,nan,0.0,0.004814148,0.0,0.0,nan,0.0,0.0,0.042069912,0.0,0.0,0.0,0.0,0.0,0.0,0.0,0.0
134104861,0.03582268,0.018307798,0.0059994403,-0.059298396,-0.01823999,0.0,0.0,0.0,0.0,0.0,0.0,0.0,nan,nan,nan,nan,nan,nan,0.0,-0.054201126,0.0,0.0,nan,0.0,0.0,0.030676901,0.0,0.0,0.0,0.0,0.0,0.0,0.0,0.0
134704851,0.032183398,-0.00050981436,0.0027015873,-0.091067135,-0.036630064,0.0,0.0,0.0,0.0,0.0,0.0,0.0,nan,nan,nan,nan,nan,nan,0.0,0.0144786835,0.0,0.0,nan,0.0,0.0,0.017235398,0.0,0.0,0.0,0.0,0.0,0.0,0.0,0.0
134904848,-0.0076736957,0.017528411,-0.003534025,-0.10279393,-0.031610563,0.0,0.0,0.0,0.0,0.0,0.0,0.0,nan,nan,nan,nan,nan,nan,0.0,-0.1285286,0.0,0.0,nan,0.0,0.0,0.008453965,0.0,0.0,0.0,0.0,0.0,0.0,0.0,0.0
135104849,0.02174047,-0.003917418,0.02924354,-0.10757649,-0.03662567,0.0,0.0,0.0,0.0,0.0,0.0,0.0,nan,nan,nan,nan,nan,nan,0.0,-0.08863449,0.0,0.0,nan,0.0,0.0,0.016326666,0.0,0.0,0.0,0.0,0.0,0.0,0.0,0.0
135304896,0.028824557,0.017549023,0.035282504,-0.114904225,-0.03805569,0.0,0.0,0.0,0.0,0.0,0.0,0.0,nan,nan,nan,nan,nan,nan,0.0,-0.23669815,0.0,0.0,nan,0.0,0.0,0.02889216,0.0,0.0,0.0,0.0,0.0,0.0,0.0,0.0
135504856,0.06786057,0.023901772,0.016538678,-0.11060125,-0.034074083,0.0,0.0,0.0,0.0,0.0,0.0,0.0,nan,nan,nan,nan,nan,nan,0.0,-0.046962738,0.0,0.0,nan,0.0,0.0,0.0013703704,0.0,0.0,0.0,0.0,0.0,0.0,0.0,0.0
135704854,0.033452068,0.040237512,-0.019250035,-0.112020314,-0.031598106,0.0,0.0,0.0,0.0,0.0,0.0,0.0,nan,nan,nan,nan,nan,nan,0.0,-0.05706215,0.0,0.0,nan,0.0,0.0,0.024053693,0.0,0.0,0.0,0.0,0.0,0.0,0.0,0.0
136104851,0.0080465805,0.0065936954,0.015198401,-0.11285758,-0.032179773,0.0,0.0,0.0,0.0,0.0,0.0,0.0,nan,nan,nan,nan,nan,nan,0.0,-0.35237694,0.0,0.0,nan,0.0,0.0,0.04118043,0.0,0.0,0.0,0.0,0.0,0.0,0.0,0.0
136304848,0.07020016,0.038523342,0.009289316,-0.10502681,-0.027164668,0.0,0.0,0.0,0.0,0.0,0.0,0.0,nan,nan,nan,nan,nan,nan,0.0,-0.07871246,0.0,0.0,nan,0.0,0.0,0.03753507,0.0,0.0,0.0,0.0,0.0,0.0,0.0,0.0
136504848,0.04962913,0.022309951,0.032369755,-0.10566059,-0.033922866,0.0,0.0,0.0,0.0,0.0,0.0,0.0,nan,nan,nan,nan,nan,nan,0.0,0.12942886,0.0,0.0,nan,0.0,0.0,0.054583073,0.0,0.0,0.0,0.0,0.0,0.0,0.0,0.0
136704859,0.0081499,0.026927423,0.038904913,-0.11376068,-0.030023709,0.0,0.0,0.0,0.0,0.0,0.0,0.0,nan,nan,nan,nan,nan,nan,0.0,-0.063064575,0.0,0.0,nan,0.0,0.0,0.039960265,0.0,0.0,0.0,0.0,0.0,0.0,0.0,0.0
136904855,0.024471292,-0.00181787,-0.0066650137,-0.105476975,-0.035066962,0.0,0.0,0.0,0.0,0.0,0.0,0.0,nan,nan,nan,nan,nan,nan,0.0,0.024942398,0.0,0.0,nan,0.0,0.0,0.06274474,0.0,0.0,0.0,0.0,0.0,0.0,0.0,0.0
137104883,0.049645044,0.0036726359,0.04142415,-0.11201197,-0.029482767,0.0,0.0,0.0,0.0,0.0,0.0,0.0,nan,nan,nan,nan,nan,nan,0.0,-0.04573822,0.0,0.0,nan,0.0,0.0,0.067902505,0.0,0.0,0.0,0.0,0.0,0.0,0.0,0.0
137304894,0.09108101,0.03616426,-0.021527085,-0.101190925,-0.034334704,0.0,0.0,0.0,0.0,0.0,0.0,0.0,nan,nan,nan,nan,nan,nan,0.0,0.025032043,0.0,0.0,nan,0.0,0.0,0.08707976,0.0,0.0,0.0,0.0,0.0,0.0,0.0,0.0
137504948,0.046073485,0.0036795111,0.010434243,-0.10540977,-0.033566087,0.0,0.0,0.0,0.0,0.0,0.0,0.0,nan,nan,nan,nan,nan,nan,0.0,-0.12693596,0.0,0.0,nan,0.0,0.0,0.038083553,0.0,0.0,0.0,0.0,0.0,0.0,0.0,0.0
137704851,-0.007151339,-0.015641274,-0.009185111,-0.11494151,-0.036537975,0.0,0.0,0.0,0.0,0.0,0.0,0.0,nan,nan,nan,nan,nan,nan,0.0,-0.09851837,0.0,0.0,nan,0.0,0.0,-0.01009506,0.0,0.0,0.0,0.0,0.0,0.0,0.0,0.0
137904848,0.06129007,0.027022501,-0.04420058,-0.10548589,-0.028966889,0.0,0.0,0.0,0.0,0.0,0.0,0.0,nan,nan,nan,nan,nan,nan,0.0,0.11854935,0.0,0.0,nan,0.0,0.0,0.022625804,0.0,0.0,0.0,0.0,0.0,0.0,0.0,0.0
138104848,0.027381698,0.027427856,-0.057020694,-0.11615133,-0.034088627,0.0,0.0,0.0,0.0,0.0,0.0,0.0,nan,nan,nan,nan,nan,nan,0.0,-0.098106384,0.0,0.0,nan,0.0,0.0,0.046095967,0.0,0.0,0.0,0.0,0.0,0.0,0.0,0.0
138304848,0.039093208,-0.002329547,0.03343552,-0.10898921,-0.03835772,0.0,0.0,0.0,0.0,0.0,0.0,0.0,nan,nan,nan,nan,nan,nan,0.0,-0.037597656,0.0,0.0,nan,0.0,0.0,0.008954227,0.0,0.0,0.0,0.0,0.0,0.0,0.0,0.0
138504898,0.03370566,0.021641988,-0.009322198,-0.10386294,-0.031049147,0.0,0.0,0.0,0.0,0.0,0.0,0.0,nan,nan,nan,nan,nan,nan,0.0,-0.031496048,0.0,0.0,nan,0.0,0.0,0.03341627,0.0,0.0,0.0,0.0,0.0,0.0,0.0,0.0
138704851,0.042748284,0.005329607,0.0060078236,-0.09843519,-0.03453353,0.0,0.0,0.0,0.0,0.0,0.0,0.0,nan,nan,nan,nan,nan,nan,0.0,0.095033646,0.0,0.0,nan,0.0,0.0,0.042618275,0.0,0.0,0.0,0.0,0.0,0.0,0.0,0.0
138904853,0.08615302,-0.008191102,0.053118978,-0.09480816,-0.036095947,0.0,0.0,0.0,0.0,0.0,0.0,0.0,nan,nan,nan,nan,nan,nan,0.0,-0.051244736,0.0,0.0,nan,0.0,0.0,0.027142346,0.0,0.0,0.0,0.0,0.0,0.0,0.0,0.0
139104848,0.05823309,0.036330134,0.035305545,-0.08645958,-0.035803586,0.0,0.0,0.0,0.0,0.0,0.0,0.0,nan,nan,nan,nan,nan,nan,0.0,-0.008089066,0.0,0.0,nan,0.0,0.0,0.062480867,0.0,0.0,0.0,0.0,0.0,0.0,0.0,0.0
139304848,0.026791776,0.02480321,0.02524256,-0.08765203,-0.033594415,0.0,0.0,0.0,0.0,0.0,0.0,0.0,nan,nan,nan,nan,nan,nan,0.0,-0.05128479,0.0,0.0,nan,0.0,0.0,0.050446272,0.0,0.0,0.0,0.0,0.0,0.0,0.0,0.0
139504878,0.03997795,-0.012148317,0.035188057,-0.08503622,-0.037855625,0.0,0.0,0.0,0.0,0.0,0.0,0.0,nan,nan,nan,nan,nan,nan,0.0,-0.2851696,0.0,0.0,nan,0.0,0.0,0.04195285,0.0,0.0,0.0,0.0,0.0,0.0,0.0,0.0
139704907,0.03533827,-0.0012691431,-0.014922735,-0.07328266,-0.036888376,0.0,0.0,0.0,0.0,0.0,0.0,0.0,nan,nan,nan,nan,nan,nan,0.0,-0.0450058,0.0,0.0,nan,0.0,0.0,0.027100384,0.0,0.0,0.0,0.0,0.0,0.0,0.0,0.0
139904848,0.004245974,0.047617868,-0.025239008,-0.07361016,-0.029461622,0.0,0.0,0.0,0.0,0.0,0.0,0.0,nan,nan,nan,nan,nan,nan,0.0,-0.057977676,0.0,0.0,nan,0.0,0.0,0.053267896,0.0,0.0,0.0,0.0,0.0,0.0,0.0,0.0
140104858,0.053116873,0.03666222,-0.011645299,-0.07030067,-0.02892834,0.0,0.0,0.0,0.0,0.0,0.0,0.0,nan,nan,nan,nan,nan,nan,0.0,0.038396835,0.0,0.0,nan,0.0,0.0,-0.0147073865,0.0,0.0,0.0,0.0,0.0,0.0,0.0,0.0
140504848,0.057470735,0.039021887,-0.023935169,-0.06101632,-0.023829103,0.0,0.0,0.0,0.0,0.0,0.0,0.0,nan,nan,nan,nan,nan,nan,0.0,-0.16748238,0.0,0.0,nan,0.0,0.0,0.027771175,0.0,0.0,0.0,0.0,0.0,0.0,0.0,0.0
140704851,0.000120641664,0.004725907,0.017668366,-0.05561346,-0.016727328,0.0,0.0,0.0,0.0,0.0,0.0,0.0,nan,nan,nan,nan,nan,nan,0.0,0.063524246,0.0,0.0,nan,0.0,0.0,0.022731185,0.0,0.0,0.0,0.0,0.0,0.0,0.0,0.0
140904852,0.026386794,0.0011801394,0.017475262,-0.04418668,-0.013891757,0.0,0.0,0.0,0.0,0.0,0.0,0.0,nan,nan,nan,nan,nan,nan,0.0,-0.19141388,0.0,0.0,nan,0.0,0.0,0.027804852,0.0,0.0,0.0,0.0,0.0,0.0,0.0,0.0
141104886,0.043654498,0.027305216,0.029723927,-0.037499636,-0.010775059,0.0,0.0,0.0,0.0,0.0,0.0,0.0,nan,nan,nan,nan,nan,nan,0.0,-0.21261024,0.0,0.0,nan,0.0,0.0,0.058205843,0.0,0.0,0.0,0.0,0.0,0.0,0.0,0.0
141304868,0.01975226,0.016810467,-0.014703776,-0.023232788,-0.011260897,0.0,0.0,0.0,0.0,0.0,0.0,0.0,nan,nan,nan,nan,nan,nan,0.0,-0.002286911,0.0,0.0,nan,0.0,0.0,0.05216801,0.0,0.0,0.0,0.0,0.0,0.0,0.0,0.0
141504865,0.02683197,0.013136556,0.025524188,-0.019156009,-0.0035678446,0.0,0.0,0.0,0.0,0.0,0.0,0.0,nan,nan,nan,nan,nan,nan,0.0,-0.25056076,0.0,0.0,nan,0.0,0.0,0.09629935,0.0,0.0,0.0,0.0,0.0,0.0,0.0,0.0
141704883,0.016366571,-0.010291457,0.037765704,-0.016914904,-0.0036687553,0.0,0.0,0.0,0.0,0.0,0.0,0.0,nan,nan,nan,nan,nan,nan,0.0,-0.044807434,0.0,0.0,nan,0.0,0.0,0.024975836,0.0,0.0,0.0,0.0,0.0,0.0,0.0,0.0
141904848,0.0047786226,0.013923673,0.05561517,-0.014268696,-0.0007149279,0.0,0.0,0.0,0.0,0.0,0.0,0.0,nan,nan,nan,nan,nan,nan,0.0,-0.21738625,0.0,0.0,nan,0.0,0.0,0.030249178,0.0,0.0,0.0,0.0,0.0,0.0,0.0,0.0
142104848,0.037212,-0.0020220494,-0.0011294028,-0.010731429,-0.0011997223,0.0,0.0,0.0,0.0,0.0,0.0,0.0,nan,nan,nan,nan,nan,nan,0.0,-0.08647156,0.0,0.0,nan,0.0,0.0,0.036471248,0.0,0.0,0.0,0.0,0.0,0.0,0.0,0.0
142304848,0.0097616995,-0.0028615016,0.050760593,-0.011764795,-0.006925136,0.0,0.0,0.0,0.0,0.0,0.0,0.0,nan,nan,nan,nan,nan,nan,0.0,-0.026073456,0.0,0.0,nan,0.0,0.0,0.032686114,0.0,0.0,0.0,0.0,0.0,0.0,0.0,0.0
142504875,0.010150522,0.03771712,0.0058817803,-0.010137647,-0.004597932,0.0,0.0,0.0,0.0,0.0,0.0,0.0,nan,nan,nan,nan,nan,nan,0.0,-0.17085266,0.0,0.0,nan,0.0,0.0,0.03236723,0.0,0.0,0.0,0.0,0.0,0.0,0.0,0.0
144904849,0.024456255,0.009538029,-0.070276946,-0.025887325,-0.030920476,0.0,0.0,0.0,0.0,0.0,0.0,0.0,nan,nan,nan,nan,nan,nan,0.0,0.18157005,0.0,0.0,nan,0.0,0.0,0.0017314553,0.0,0.0,0.0,0.0,0.0,0.0,0.0,0.0
145104915,-0.007551972,-0.00875508,-0.025914388,-0.027631342,-0.035495132,0.0,0.0,0.0,0.0,0.0,0.0,0.0,nan,nan,nan,nan,nan,nan,0.0,-0.07052231,0.0,0.0,nan,0.0,0.0,-0.021755636,0.0,0.0,0.0,0.0,0.0,0.0,0.0,0.0
145304976,-0.023372274,0.025079738,-0.005235406,-0.036711723,-0.029972553,0.0,0.0,0.0,0.0,0.0,0.0,0.0,nan,nan,nan,nan,nan,nan,0.0,0.24623299,0.0,0.0,nan,0.0,0.0,0.009363174,0.0,0.0,0.0,0.0,0.0,0.0,0.0,0.0
145504853,0.038835086,-0.0022250293,0.024711527,-0.032131582,-0.028912604,0.0,0.0,0.0,0.0,0.0,0.0,0.0,nan,nan,nan,nan,nan,nan,0.0,-0.031179428,0.0,0.0,nan,0.0,0.0,-0.028491557,0.0,0.0,0.0,0.0,0.0,0.0,0.0,0.0
145704848,-0.005582573,-0.019164642,-0.038966093,-0.036068574,-0.03919953,0.0,0.0,0.0,0.0,0.0,0.0,0.0,nan,nan,nan,nan,nan,nan,0.0,0.1027832,0.0,0.0,nan,0.0,0.0,-0.015346646,0.0,0.0,0.0,0.0,0.0,0.0,0.0,0.0
145904880,0.010487795,-0.0119974,0.06800776,-0.023489088,-0.03877917,0.0,0.0,0.0,0.0,0.0,0.0,0.0,nan,nan,nan,nan,nan,nan,0.0,-0.033355713,0.0,0.0,nan,0.0,0.0,-0.02923572,0.0,0.0,0.0,0.0,0.0,0.0,0.0,0.0
146104905,0.0026536882,0.027382905,-0.012861174,-0.025663018,-0.038668722,0.0,0.0,0.0,0.0,0.0,0.0,0.0,nan,nan,nan,nan,nan,nan,0.0,0.010238647,0.0,0.0,nan,0.0,0.0,0.0003873706,0.0,0.0,0.0,0.0,0.0,0.0,0.0,0.0
146304848,-0.10295805,-0.0412061,0.018832654,-0.027306363,-0.04318893,0.0,0.0,0.0,0.0,0.0,0.0,0.0,nan,nan,nan,nan,nan,nan,0.0,-0.094070435,0.0,0.0,nan,0.0,0.0,-0.061930954,0.0,0.0,0.0,0.0,0.0,0.0,0.0,0.0
146504848,-0.038143482,-0.0006928174,0.010449296,-0.026034981,-0.03852722,0.0,0.0,0.0,0.0,0.0,0.0,0.0,nan,nan,nan,nan,nan,nan,0.0,-0.033555984,0.0,0.0,nan,0.0,0.0,-0.04398018,0.0,0.0,0.0,0.0,0.0,0.0,0.0,0.0
146704859,-0.0053032325,0.023075994,0.036205556,-0.020569503,-0.038691163,0.0,0.0,0.0,0.0,0.0,0.0,0.0,nan,nan,nan,nan,nan,nan,0.0,-0.12200928,0.0,0.0,nan,0.0,0.0,0.009845972,0.0,0.0,0.0,0.0,0.0,0.0,0.0,0.0
146904849,-0.006784805,0.00845381,-0.00534898,-0.019551083,-0.034217894,0.0,0.0,0.0,0.0,0.0,0.0,0.0,nan,nan,nan,nan,nan,nan,0.0,-0.015771866,0.0,0.0,nan,0.0,0.0,0.018474162,0.0,0.0,0.0,0.0,0.0,0.0,0.0,0.0
147104859,-0.050453573,0.026435517,0.037005022,-0.01828666,-0.03557086,0.0,0.0,0.0,0.0,0.0,0.0,0.0,nan,nan,nan,nan,nan,nan,0.0,0.10227203,0.0,0.0,nan,0.0,0.0,-0.009123564,0.0,0.0,0.0,0.0,0.0,0.0,0.0,0.0
147304855,-0.004049132,0.015167428,-0.003278317,-0.02236779,-0.03904748,0.0,0.0,0.0,0.0,0.0,0.0,0.0,nan,nan,nan,nan,nan,nan,0.0,-0.06657791,0.0,0.0,nan,0.0,0.0,-0.032154918,0.0,0.0,0.0,0.0,0.0,0.0,0.0,0.0
147504878,-0.019465592,0.0011478402,0.004595208,-0.031303048,-0.0408051,0.0,0.0,0.0,0.0,0.0,0.0,0.0,nan,nan,nan,nan,nan,nan,0.0,-0.091070175,0.0,0.0,nan,0.0,0.0,-0.023100615,0.0,0.0,0.0,0.0,0.0,0.0,0.0,0.0
147704849,-0.034153186,-0.004613595,0.04437796,-0.025988355,-0.040302902,0.0,0.0,0.0,0.0,0.0,0.0,0.0,nan,nan,nan,nan,nan,nan,0.0,-0.012731552,0.0,0.0,nan,0.0,0.0,-0.06944358,0.0,0.0,0.0,0.0,0.0,0.0,0.0,0.0
147904851,0.039260395,0.053960524,-0.022234427,-0.029775128,-0.038657635,0.0,0.0,0.0,0.0,0.0,0.0,0.0,nan,nan,nan,nan,nan,nan,0.0,-0.10008621,0.0,0.0,nan,0.0,0.0,0.040673018,0.0,0.0,0.0,0.0,0.0,0.0,0.0,0.0
148104848,0.004809413,0.018604308,-0.00048916787,-0.03100963,-0.03710702,0.0,0.0,0.0,0.0,0.0,0.0,0.0,nan,nan,nan,nan,nan,nan,0.0,-0.03328514,0.0,0.0,nan,0.0,0.0,-0.061999798,0.0,0.0,0.0,0.0,0.0,0.0,0.0,0.0
148304848,-0.007885892,0.02490661,-0.023634061,-0.03937015,-0.03896925,0.0,0.0,0.0,0.0,0.0,0.0,0.0,nan,nan,nan,nan,nan,nan,0.0,-0.26118279,0.0,0.0,nan,0.0,0.0,0.02173853,0.0,0.0,0.0,0.0,0.0,0.0,0.0,0.0
148504848,0.04730248,-0.00079479814,0.0151465675,-0.03385611,-0.04157883,0.0,0.0,0.0,0.0,0.0,0.0,0.0,nan,nan,nan,nan,nan,nan,0.0,0.054559708,0.0,0.0,nan,0.0,0.0,-0.019498289,0.0,0.0,0.0,0.0,0.0,0.0,0.0,0.0
148704848,-0.012093412,0.006507285,-0.014964924,-0.03593476,-0.047837406,0.0,0.0,0.0,0.0,0.0,0.0,0.0,nan,nan,nan,nan,nan,nan,0.0,-0.17742348,0.0,0.0,nan,0.0,0.0,-0.032562554,0.0,0.0,0.0,0.0,0.0,0.0,0.0,0.0
148904857,-0.0076144524,0.05008541,0.015582634,-0.030688927,-0.0466595,0.0,0.0,0.0,0.0,0.0,0.0,0.0,nan,nan,nan,nan,nan,nan,0.0,-0.1347313,0.0,0.0,nan,0.0,0.0,-0.09317809,0.0,0.0,0.0,0.0,0.0,0.0,0.0,0.0
149104853,0.011998842,-0.0024641603,-0.0018908633,-0.03735751,-0.05108908,0.0,0.0,0.0,0.0,0.0,0.0,0.0,nan,nan,nan,nan,nan,nan,0.0,-0.0050582886,0.0,0.0,nan,0.0,0.0,-0.0043914914,0.0,0.0,0.0,0.0,0.0,0.0,0.0,0.0
149304862,0.00023743405,0.11696159,-0.05140996,-0.034604684,-0.033952236,0.0,0.0,0.0,0.0,0.0,0.0,0.0,nan,nan,nan,nan,nan,nan,0.0,0.04361725,0.0,0.0,nan,0.0,0.0,0.012688398,0.0,0.0,0.0,0.0,0.0,0.0,0.0,0.0
149504854,0.03748584,0.0023344886,0.031486012,-0.03066352,-0.048414618,0.0,0.0,0.0,0.0,0.0,0.0,0.0,nan,nan,nan,nan,nan,nan,0.0,-0.14849663,0.0,0.0,nan,0.0,0.0,0.044047594,0.0,0.0,0.0,0.0,0.0,0.0,0.0,0.0
149704849,0.006315844,-0.018741509,0.045806006,-0.031860784,-0.04820332,0.0,0.0,0.0,0.0,0.0,0.0,0.0,nan,nan,nan,nan,nan,nan,0.0,-0.13522339,0.0,0.0,nan,0.0,0.0,-0.052646875,0.0,0.0,0.0,0.0,0.0,0.0,0.0,0.0
149904848,0.03527374,0.016327413,0.0064451294,-0.018459141,-0.044909954,0.0,0.0,0.0,0.0,0.0,0.0,0.0,nan,nan,nan,nan,nan,nan,0.0,-0.33981895,0.0,0.0,nan,0.0,0.0,0.0066223145,0.0,0.0,0.0,0.0,0.0,0.0,0.0,0.0
150104880,0.06411075,0.10308317,-0.028427947,-0.021540955,-0.031178713,0.0,0.0,0.0,0.0,0.0,0.0,0.0,nan,nan,nan,nan,nan,nan,0.0,0.023239136,0.0,0.0,nan,0.0,0.0,-0.017138302,0.0,0.0,0.0,0.0,0.0,0.0,0.0,0.0
150304883,-0.0071521373,0.03765082,0.011553569,-0.017638668,-0.037773192,0.0,0.0,0.0,0.0,0.0,0.0,0.0,nan,nan,nan,nan,nan,nan,0.0,0.10205269,0.0,0.0,nan,0.0,0.0,-0.07394403,0.0,0.0,0.0,0.0,0.0,0.0,0.0,0.0
150504858,-0.030611403,-0.015847066,-0.009529412,-0.017255604,-0.03619811,0.0,0.0,0.0,0.0,0.0,0.0,0.0,nan,nan,nan,nan,nan,nan,0.0,0.144907,0.0,0.0,nan,0.0,0.0,-0.054137945,0.0,0.0,0.0,0.0,0.0,0.0,0.0,0.0
150704855,-0.022752397,-0.010189282,0.022847965,-0.025152981,-0.035696328,0.0,0.0,0.0,0.0,0.0,0.0,0.0,nan,nan,nan,nan,nan,nan,0.0,-0.0419693,0.0,0.0,nan,0.0,0.0,-0.05568129,0.0,0.0,0.0,0.0,0.0,0.0,0.0,0.0
150904848,0.056320447,-0.009762648,-0.011185812,-0.010256231,-0.042729735,0.0,0.0,0.0,0.0,0.0,0.0,0.0,nan,nan,nan,nan,nan,nan,0.0,0.029031754,0.0,0.0,nan,0.0,0.0,-0.04540181,0.0,0.0,0.0,0.0,0.0,0.0,0.0,0.0
151104876,0.008707656,0.080649465,0.015072861,-0.0071132034,-0.03391531,0.0,0.0,0.0,0.0,0.0,0.0,0.0,nan,nan,nan,nan,nan,nan,0.0,0.025684357,0.0,0.0,nan,0.0,0.0,0.011605859,0.0,0.0,0.0,0.0,0.0,0.0,0.0,0.0
151304848,0.07582179,0.04157861,0.08252194,0.0004899204,-0.037320554,0.0,0.0,0.0,0.0,0.0,0.0,0.0,nan,nan,nan,nan,nan,nan,0.0,-0.1901722,0.0,0.0,nan,0.0,0.0,-0.029803574,0.0,0.0,0.0,0.0,0.0,0.0,0.0,0.0
151504875,-0.0766042,0.029936407,0.07813713,-0.012933359,-0.029175282,0.0,0.0,0.0,0.0,0.0,0.0,0.0,nan,nan,nan,nan,nan,nan,0.0,-0.012832642,0.0,0.0,nan,0.0,0.0,-0.07827085,0.0,0.0,0.0,0.0,0.0,0.0,0.0,0.0
151704928,-0.06112343,-0.046876006,0.046416484,-0.006497845,-0.03547594,0.0,0.0,0.0,0.0,0.0,0.0,0.0,nan,nan,nan,nan,nan,nan,0.0,-0.3549118,0.0,0.0,nan,0.0,0.0,-0.07457906,0.0,0.0,0.0,0.0,0.0,0.0,0.0,0.0
151904865,0.0035311226,0.036025934,-0.0786724,-0.0013014823,-0.031276405,0.0,0.0,0.0,0.0,0.0,0.0,0.0,nan,nan,nan,nan,nan,nan,0.0,-0.13160324,0.0,0.0,nan,0.0,0.0,0.027888775,0.0,0.0,0.0,0.0,0.0,0.0,0.0,0.0
152104851,0.019908786,0.008847343,-0.005133638,-0.004520282,-0.029873282,0.0,0.0,0.0,0.0,0.0,0.0,0.0,nan,nan,nan,nan,nan,nan,0.0,-0.027778625,0.0,0.0,nan,0.0,0.0,-0.0018160343,0.0,0.0,0.0,0.0,0.0,0.0,0.0,0.0
152304848,-0.035674512,0.011056152,-0.0070713162,-0.009647608,-0.032886654,0.0,0.0,0.0,0.0,0.0,0.0,0.0,nan,nan,nan,nan,nan,nan,0.0,-0.09032631,0.0,0.0,nan,0.0,0.0,0.02594614,0.0,0.0,0.0,0.0,0.0,0.0,0.0,0.0
152504882,-0.0232112,-0.0017490583,-0.004382763,-0.00735794,-0.028484553,0.0,0.0,0.0,0.0,0.0,0.0,0.0,nan,nan,nan,nan,nan,nan,0.0,0.16263008,0.0,0.0,nan,0.0,0.0,-0.029930294,0.0,0.0,0.0,0.0,0.0,0.0,0.0,0.0
152704887,0.032567285,-0.016058952,0.035706718,-0.0064148456,-0.029918939,0.0,0.0,0.0,0.0,0.0,0.0,0.0,nan,nan,nan,nan,nan,nan,0.0,0.11746788,0.0,0.0,nan,0.0,0.0,-0.00995934,0.0,0.0,0.0,0.0,0.0,0.0,0.0,0.0
152904853,0.023027379,0.04564707,-0.024227219,-0.0010680854,-0.029470831,0.0,0.0,0.0,0.0,0.0,0.0,0.0,nan,nan,nan,nan,nan,nan,0.0,-0.06949997,0.0,0.0,nan,0.0,0.0,0.012287319,0.0,0.0,0.0,0.0,0.0,0.0,0.0,0.0
153104880,-0.043199003,-0.004389301,-0.030651294,-0.006905198,-0.022085339,0.0,0.0,0.0,0.0,0.0,0.0,0.0,nan,nan,nan,nan,nan,nan,0.0,-0.31448364,0.0,0.0,nan,0.0,0.0,-0.029040217,0.0,0.0,0.0,0.0,0.0,0.0,0.0,0.0
153304861,0.015157261,-0.012291038,-0.011228583,0.0070842206,-0.03134322,0.0,0.0,0.0,0.0,0.0,0.0,0.0,nan,nan,nan,nan,nan,nan,0.0,-0.1868,0.0,0.0,nan,0.0,0.0,-0.019664466,0.0,0.0,0.0,0.0,0.0,0.0,0.0,0.0
153504852,-0.026803493,0.018350165,-0.00878126,0.0015405267,-0.031140447,0.0,0.0,0.0,0.0,0.0,0.0,0.0,nan,nan,nan,nan,nan,nan,0.0,0.023191452,0.0,0.0,nan,0.0,0.0,0.04793042,0.0,0.0,0.0,0.0,0.0,0.0,0.0,0.0
153704852,-0.036583617,0.028294146,0.0014936039,0.0017271489,-0.03462386,0.0,0.0,0.0,0.0,0.0,0.0,0.0,nan,nan,nan,nan,nan,nan,0.0,-0.26880836,0.0,0.0,nan,0.0,0.0,0.043156564,0.0,0.0,0.0,0.0,0.0,0.0,0.0,0.0
153904850,-0.017452339,-0.0051271655,0.06312925,0.0035867095,-0.031713426,0.0,0.0,0.0,0.0,0.0,0.0,0.0,nan,nan,nan,nan,nan,nan,0.0,-0.10227013,0.0,0.0,nan,0.0,0.0,-0.044936597,0.0,0.0,0.0,0.0,0.0,0.0,0.0,0.0
154104848,-0.00034404546,-0.0012709899,0.039141297,0.003402263,-0.025072932,0.0,0.0,0.0,0.0,0.0,0.0,0.0,nan,nan,nan,nan,nan,nan,0.0,0.015834808,0.0,0.0,nan,0.0,0.0,-0.041754723,0.0,0.0,0.0,0.0,0.0,0.0,0.0,0.0
154304883,-0.041885465,-0.00023615733,0.010445793,0.0011269897,-0.019117475,0.0,0.0,0.0,0.0,0.0,0.0,0.0,nan,nan,nan,nan,nan,nan,0.0,0.093509674,0.0,0.0,nan,0.0,0.0,-0.061154187,0.0,0.0,0.0,0.0,0.0,0.0,0.0,0.0
154504863,0.016709913,-0.0015018564,-0.020276334,0.0047068745,-0.013938487,0.0,0.0,0.0,0.0,0.0,0.0,0.0,nan,nan,nan,nan,nan,nan,0.0,-0.09477043,0.0,0.0,nan,0.0,0.0,-0.025922358,0.0,0.0,0.0,0.0,0.0,0.0,0.0,0.0
154704848,-0.005946726,0.038058832,0.023581762,0.0010124743,0.005584836,0.0,0.0,0.0,0.0,0.0,0.0,0.0,nan,nan,nan,nan,nan,nan,0.0,-0.011096954,0.0,0.0,nan,0.0,0.0,-0.037041664,0.0,0.0,0.0,0.0,0.0,0.0,0.0,0.0
154904848,-0.00804683,0.046034012,-0.058344416,0.00028181076,0.010894775,0.0,0.0,0.0,0.0,0.0,0.0,0.0,nan,nan,nan,nan,nan,nan,0.0,-0.020744324,0.0,0.0,nan,0.0,0.0,0.004719138,0.0,0.0,0.0,0.0,0.0,0.0,0.0,0.0
155104848,-0.021242136,-0.0059866244,-0.0018114215,5.0604343e-05,0.013747454,0.0,0.0,0.0,0.0,0.0,0.0,0.0,nan,nan,nan,nan,nan,nan,0.0,0.027093887,0.0,0.0,nan,0.0,0.0,0.01876235,0.0,0.0,0.0,0.0,0.0,0.0,0.0,0.0
155304892,-0.0128665455,0.02902759,0.04368158,0.0018281192,0.029398829,0.0,0.0,0.0,0.0,0.0,0.0,0.0,nan,nan,nan,nan,nan,nan,0.0,-0.21022034,0.0,0.0,nan,0.0,0.0,0.019114912,0.0,0.0,0.0,0.0,0.0,0.0,0.0,0.0
155504855,0.02445757,0.015767828,-0.044556312,0.013921738,0.03880018,0.0,0.0,0.0,0.0,0.0,0.0,0.0,nan,nan,nan,nan,nan,nan,0.0,0.14928627,0.0,0.0,nan,0.0,0.0,-0.026443124,0.0,0.0,0.0,0.0,0.0,0.0,0.0,0.0
155704848,0.04567832,0.013112271,-0.03611976,0.031156093,0.026349574,0.0,0.0,0.0,0.0,0.0,0.0,0.0,nan,nan,nan,nan,nan,nan,0.0,-0.27048683,0.0,0.0,nan,0.0,0.0,-0.050002098,0.0,0.0,0.0,0.0,0.0,0.0,0.0,0.0
155904849,-0.09138529,0.018949097,0.005278387,0.021148741,0.029484987,0.0,0.0,0.0,0.0,0.0,0.0,0.0,nan,nan,nan,nan,nan,nan,0.0,0.15278053,0.0,0.0,nan,0.0,0.0,0.045812488,0.0,0.0,0.0,0.0,0.0,0.0,0.0,0.0
156104875,-0.0037278752,-0.030258268,0.0066455617,0.029295757,0.01639828,0.0,0.0,0.0,0.0,0.0,0.0,0.0,nan,nan,nan,nan,nan,nan,0.0,0.15243149,0.0,0.0,nan,0.0,0.0,-0.08681095,0.0,0.0,0.0,0.0,0.0,0.0,0.0,0.0
156304848,-0.030318297,-0.025496136,-0.07287669,0.037571535,0.010475665,0.0,0.0,0.0,0.0,0.0,0.0,0.0,nan,nan,nan,nan,nan,nan,0.0,-0.026082993,0.0,0.0,nan,0.0,0.0,-0.029249907,0.0,0.0,0.0,0.0,0.0,0.0,0.0,0.0
156504848,-0.06265416,0.012910136,0.023124065,0.02618301,0.019065946,0.0,0.0,0.0,0.0,0.0,0.0,0.0,nan,nan,nan,nan,nan,nan,0.0,-0.0071372986,0.0,0.0,nan,0.0,0.0,0.013069093,0.0,0.0,0.0,0.0,0.0,0.0,0.0,0.0
156704878,0.03641359,0.004348896,0.03322702,0.031646475,0.021707594,0.0,0.0,0.0,0.0,0.0,0.0,0.0,nan,nan,nan,nan,nan,nan,0.0,-0.07341766,0.0,0.0,nan,0.0,0.0,-0.0013203025,0.0,0.0,0.0,0.0,0.0,0.0,0.0,0.0
156904848,-0.016246375,-0.026172223,0.029469246,0.035462514,0.017496377,0.0,0.0,0.0,0.0,0.0,0.0,0.0,nan,nan,nan,nan,nan,nan,0.0,0.1350975,0.0,0.0,nan,0.0,0.0,-0.018813252,0.0,0.0,0.0,0.0,0.0,0.0,0.0,0.0
157104861,0.015733104,0.0043207463,-0.054719537,0.03399986,0.024172843,0.0,0.0,0.0,0.0,0.0,0.0,0.0,nan,nan,nan,nan,nan,nan,0.0,0.042150497,0.0,0.0,nan,0.0,0.0,0.00069850683,0.0,0.0,0.0,0.0,0.0,0.0,0.0,0.0
157304848,-0.008765893,-0.041470952,-0.023728086,0.039774776,0.026320457,0.0,0.0,0.0,0.0,0.0,0.0,0.0,nan,nan,nan,nan,nan,nan,0.0,-0.36772346,0.0,0.0,nan,0.0,0.0,-0.041261315,0.0,0.0,0.0,0.0,0.0,0.0,0.0,0.0
157504881,0.046074208,-0.014843484,-0.0013006659,0.03648913,0.026504576,0.0,0.0,0.0,0.0,0.0,0.0,0.0,nan,nan,nan,nan,nan,nan,0.0,-0.15133286,0.0,0.0,nan,0.0,0.0,0.04447806,0.0,0.0,0.0,0.0,0.0,0.0,0.0,0.0
157704856,0.034506492,0.01169157,0.055180486,0.026146472,0.03077358,0.0,0.0,0.0,0.0,0.0,0.0,0.0,nan,nan,nan,nan,nan,nan,0.0,0.09433365,0.0,0.0,nan,0.0,0.0,0.0010539293,0.0,0.0,0.0,0.0,0.0,0.0,0.0,0.0
157904885,-0.04128419,-0.082575455,0.07105262,0.028572649,0.023333758,0.0,0.0,0.0,0.0,0.0,0.0,0.0,nan,nan,nan,nan,nan,nan,0.0,0.0005874634,0.0,0.0,nan,0.0,0.0,-0.009222209,0.0,0.0,0.0,0.0,0.0,0.0,0.0,0.0
158104938,-0.025358215,-0.035353385,0.008162083,0.028622776,0.021408558,0.0,0.0,0.0,0.0,0.0,0.0,0.0,nan,nan,nan,nan,nan,nan,0.0,0.2108612,0.0,0.0,nan,0.0,0.0,-0.0059877634,0.0,0.0,0.0,0.0,0.0,0.0,0.0,0.0
158304848,-0.020090219,-0.002045299,0.020585276,0.015923887,0.021924496,0.0,0.0,0.0,0.0,0.0,0.0,0.0,nan,nan,nan,nan,nan,nan,0.0,-0.14579964,0.0,0.0,nan,0.0,0.0,0.015866458,0.0,0.0,0.0,0.0,0.0,0.0,0.0,0.0
158504884,-0.06314613,-0.043103606,0.004984026,0.015250146,0.025365591,0.0,0.0,0.0,0.0,0.0,0.0,0.0,nan,nan,nan,nan,nan,nan,0.0,-0.083545685,0.0,0.0,nan,0.0,0.0,-0.06448221,0.0,0.0,0.0,0.0,0.0,0.0,0.0,0.0
158704848,0.0074863527,-0.022167765,0.003712276,0.02046901,0.026337624,0.0,0.0,0.0,0.0,0.0,0.0,0.0,nan,nan,nan,nan,nan,nan,0.0,0.12661362,0.0,0.0,nan,0.0,0.0,0.012610078,0.0,0.0,0.0,0.0,0.0,0.0,0.0,0.0
158904883,0.029776344,-0.016010273,-0.025604313,0.027825385,0.032209933,0.0,0.0,0.0,0.0,0.0,0.0,0.0,nan,nan,nan,nan,nan,nan,0.0,-0.28053284,0.0,0.0,nan,0.0,0.0,-0.009567201,0.0,0.0,0.0,0.0,0.0,0.0,0.0,0.0
159104901,0.02700209,0.011139369,-0.051421683,0.03120768,0.036605507,0.0,0.0,0.0,0.0,0.0,0.0,0.0,nan,nan,nan,nan,nan,nan,0.0,-0.08334541,0.0,0.0,nan,0.0,0.0,0.045597672,0.0,0.0,0.0,0.0,0.0,0.0,0.0,0.0
159304848,-0.0038253013,-0.037044026,-0.010639596,0.02259174,0.022459596,0.0,0.0,0.0,0.0,0.0,0.0,0.0,nan,nan,nan,nan,nan,nan,0.0,0.005596161,0.0,0.0,nan,0.0,0.0,-0.02576518,0.0,0.0,0.0,0.0,0.0,0.0,0.0,0.0
159504851,-0.043846615,-0.03209947,-0.014553177,0.02903223,0.030340523,0.0,0.0,0.0,0.0,0.0,0.0,0.0,nan,nan,nan,nan,nan,nan,0.0,0.05529213,0.0,0.0,nan,0.0,0.0,-0.019056201,0.0,0.0,0.0,0.0,0.0,0.0,0.0,0.0
159704855,0.04010078,0.0071817315,-0.049389374,0.028762072,0.029718876,0.0,0.0,0.0,0.0,0.0,0.0,0.0,nan,nan,nan,nan,nan,nan,0.0,0.085142136,0.0,0.0,nan,0.0,0.0,0.05823803,0.0,0.0,0.0,0.0,0.0,0.0,0.0,0.0
159904848,-0.012222217,-0.016465835,0.050498,0.017932713,0.024082989,0.0,0.0,0.0,0.0,0.0,0.0,0.0,nan,nan,nan,nan,nan,nan,0.0,0.22684288,0.0,0.0,nan,0.0,0.0,-0.03171289,0.0,0.0,0.0,0.0,0.0,0.0,0.0,0.0
160104848,-0.04719535,0.009837113,0.012761776,0.014164209,0.021901935,0.0,0.0,0.0,0.0,0.0,0.0,0.0,nan,nan,nan,nan,nan,nan,0.0,-0.009714127,0.0,0.0,nan,0.0,0.0,-0.018612444,0.0,0.0,0.0,0.0,0.0,0.0,0.0,0.0
160304879,-0.040366247,-0.0314761,-0.002388632,0.003995925,0.023663878,0.0,0.0,0.0,0.0,0.0,0.0,0.0,nan,nan,nan,nan,nan,nan,0.0,-0.21573639,0.0,0.0,nan,0.0,0.0,-0.057242632,0.0,0.0,0.0,0.0,0.0,0.0,0.0,0.0
160504848,-0.011740264,0.016945656,0.007292681,0.006394297,0.022780865,0.0,0.0,0.0,0.0,0.0,0.0,0.0,nan,nan,nan,nan,nan,nan,0.0,0.059656143,0.0,0.0,nan,0.0,0.0,0.023080885,0.0,0.0,0.0,0.0,0.0,0.0,0.0,0.0
160704848,0.020641703,0.037961043,-0.038370244,0.0054484904,0.023245811,0.0,0.0,0.0,0.0,0.0,0.0,0.0,nan,nan,nan,nan,nan,nan,0.0,0.02067566,0.0,0.0,nan,0.0,0.0,-0.032624662,0.0,0.0,0.0,0.0,0.0,0.0,0.0,0.0
160904852,0.02949958,-0.03258402,-0.022886505,0.011553943,0.027679801,0.0,0.0,0.0,0.0,0.0,0.0,0.0,nan,nan,nan,nan,nan,nan,0.0,0.08607292,0.0,0.0,nan,0.0,0.0,0.033260465,0.0,0.0,0.0,0.0,0.0,0.0,0.0,0.0
161104877,-0.019740434,0.069704555,-0.08325762,0.004312843,0.025332421,0.0,0.0,0.0,0.0,0.0,0.0,0.0,nan,nan,nan,nan,nan,nan,0.0,-0.047309875,0.0,0.0,nan,0.0,0.0,0.0077604055,0.0,0.0,0.0,0.0,0.0,0.0,0.0,0.0
161304851,-0.01237275,-0.036435373,-0.020179598,0.0037658215,0.01712358,0.0,0.0,0.0,0.0,0.0,0.0,0.0,nan,nan,nan,nan,nan,nan,0.0,-0.10289574,0.0,0.0,nan,0.0,0.0,0.011453986,0.0,0.0,0.0,0.0,0.0,0.0,0.0,0.0
161504848,-0.047826044,-0.030791804,-0.006040992,0.0027420819,0.022434205,0.0,0.0,0.0,0.0,0.0,0.0,0.0,nan,nan,nan,nan,nan,nan,0.0,0.08876991,0.0,0.0,nan,0.0,0.0,-0.04752803,0.0,0.0,0.0,0.0,0.0,0.0,0.0,0.0
162704880,-0.00035141478,-0.011732017,0.058531314,-0.018127024,0.0073179305,0.0,0.0,0.0,0.0,0.0,0.0,0.0,nan,nan,nan,nan,nan,nan,0.0,-0.07152939,0.0,0.0,nan,0.0,0.0,0.019315124,0.0,0.0,0.0,0.0,0.0,0.0,0.0,0.0
162904848,0.050944686,-0.00494883,0.017739963,-0.01635006,0.003928989,0.0,0.0,0.0,0.0,0.0,0.0,0.0,nan,nan,nan,nan,nan,nan,0.0,0.09235954,0.0,0.0,nan,0.0,0.0,-0.003246963,0.0,0.0,0.0,0.0,0.0,0.0,0.0,0.0
163104848,-0.04914443,-0.0070261396,0.03349463,-0.021189153,-0.0072650313,0.0,0.0,0.0,0.0,0.0,0.0,0.0,nan,nan,nan,nan,nan,nan,0.0,0.06708145,0.0,0.0,nan,0.0,0.0,-0.049032807,0.0,0.0,0.0,0.0,0.0,0.0,0.0,0.0
163304848,-0.048784986,0.0072732638,0.006173523,-0.036501378,-0.009147078,0.0,0.0,0.0,0.0,0.0,0.0,0.0,nan,nan,nan,nan,nan,nan,0.0,0.16504669,0.0,0.0,nan,0.0,0.0,-0.008012831,0.0,0.0,0.0,0.0,0.0,0.0,0.0,0.0
163504848,-0.010698348,0.037737764,-0.018653132,-0.03526333,-0.010441065,0.0,0.0,0.0,0.0,0.0,0.0,0.0,nan,nan,nan,nan,nan,nan,0.0,0.057085037,0.0,0.0,nan,0.0,0.0,-0.04037428,0.0,0.0,0.0,0.0,0.0,0.0,0.0,0.0
163704855,-0.062521204,0.05446514,0.04747686,-0.036408305,-0.008988291,0.0,0.0,0.0,0.0,0.0,0.0,0.0,nan,nan,nan,nan,nan,nan,0.0,0.20005798,0.0,0.0,nan,0.0,0.0,-0.023287714,0.0,0.0,0.0,0.0,0.0,0.0,0.0,0.0
163904899,0.021311723,0.008345824,0.0866888,-0.033228934,-0.0056764185,0.0,0.0,0.0,0.0,0.0,0.0,0.0,nan,nan,nan,nan,nan,nan,0.0,-0.016551971,0.0,0.0,nan,0.0,0.0,-0.03991139,0.0,0.0,0.0,0.0,0.0,0.0,0.0,0.0
164104859,-0.043042805,-0.0880564,0.0663653,-0.0483101,-0.029672563,0.0,0.0,0.0,0.0,0.0,0.0,0.0,nan,nan,nan,nan,nan,nan,0.0,0.0006866455,0.0,0.0,nan,0.0,0.0,-0.08537108,0.0,0.0,0.0,0.0,0.0,0.0,0.0,0.0
164304934,0.07424407,-0.009095663,0.067407124,-0.033016086,-0.027392179,0.0,0.0,0.0,0.0,0.0,0.0,0.0,nan,nan,nan,nan,nan,nan,0.0,-0.19642067,0.0,0.0,nan,0.0,0.0,-0.044395804,0.0,0.0,0.0,0.0,0.0,0.0,0.0,0.0
164504865,0.03914076,0.04664415,0.0063978825,-0.023811877,-0.04208988,0.0,0.0,0.0,0.0,0.0,0.0,0.0,nan,nan,nan,nan,nan,nan,0.0,0.09524155,0.0,0.0,nan,0.0,0.0,0.00012388825,0.0,0.0,0.0,0.0,0.0,0.0,0.0,0.0
164704861,-0.02897867,-1.3880432e-05,0.012995118,-0.023625582,-0.054513603,0.0,0.0,0.0,0.0,0.0,0.0,0.0,nan,nan,nan,nan,nan,nan,0.0,-0.054317474,0.0,0.0,nan,0.0,0.0,-0.07311243,0.0,0.0,0.0,0.0,0.0,0.0,0.0,0.0
164904848,0.043942593,0.06212662,-0.05008778,-0.015266597,-0.05971834,0.0,0.0,0.0,0.0,0.0,0.0,0.0,nan,nan,nan,nan,nan,nan,0.0,0.05634308,0.0,0.0,nan,0.0,0.0,-0.04704401,0.0,0.0,0.0,0.0,0.0,0.0,0.0,0.0
165104861,0.031848107,-0.043232806,-0.015993886,-0.005670905,-0.07244256,0.0,0.0,0.0,0.0,0.0,0.0,0.0,nan,nan,nan,nan,nan,nan,0.0,0.01666832,0.0,0.0,nan,0.0,0.0,-0.056010485,0.0,0.0,0.0,0.0,0.0,0.0,0.0,0.0
165304901,-0.000869127,-0.04482843,-0.0074662776,-0.0076207817,-0.077947736,0.0,0.0,0.0,0.0,0.0,0.0,0.0,nan,nan,nan,nan,nan,nan,0.0,-0.12670898,0.0,0.0,nan,0.0,0.0,-0.07173854,0.0,0.0,0.0,0.0,0.0,0.0,0.0,0.0
165504849,-0.03227009,-0.01393614,0.046127398,-0.005979538,-0.07392067,0.0,0.0,0.0,0.0,0.0,0.0,0.0,nan,nan,nan,nan,nan,nan,0.0,-0.21539307,0.0,0.0,nan,0.0,0.0,0.011546642,0.0,0.0,0.0,0.0,0.0,0.0,0.0,0.0
165704866,0.041539267,0.0027495273,-0.036961943,-0.00043725967,-0.07309523,0.0,0.0,0.0,0.0,0.0,0.0,0.0,nan,nan,nan,nan,nan,nan,0.0,-0.10349083,0.0,0.0,nan,0.0,0.0,-0.060411632,0.0,0.0,0.0,0.0,0.0,0.0,0.0,0.0
165904848,-0.04969251,-0.012657609,0.028957013,-0.004847914,-0.08082077,0.0,0.0,0.0,0.0,0.0,0.0,0.0,nan,nan,nan,nan,nan,nan,0.0,0.10291481,0.0,0.0,nan,0.0,0.0,-0.054315954,0.0,0.0,0.0,0.0,0.0,0.0,0.0,0.0
166104883,-0.04922133,-0.005342269,0.02163342,0.002245307,-0.0774861,0.0,0.0,0.0,0.0,0.0,0.0,0.0,nan,nan,nan,nan,nan,nan,0.0,0.07798958,0.0,0.0,nan,0.0,0.0,-0.06908929,0.0,0.0,0.0,0.0,0.0,0.0,0.0,0.0
166304848,0.042241752,0.006948983,0.019917257,0.0091513395,-0.08183175,0.0,0.0,0.0,0.0,0.0,0.0,0.0,nan,nan,nan,nan,nan,nan,0.0,-0.03652191,0.0,0.0,nan,0.0,0.0,-0.022845805,0.0,0.0,0.0,0.0,0.0,0.0,0.0,0.0
166504849,-0.04368103,0.009542169,0.055846814,0.0040616393,-0.07889411,0.0,0.0,0.0,0.0,0.0,0.0,0.0,nan,nan,nan,nan,nan,nan,0.0,-0.04347992,0.0,0.0,nan,0.0,0.0,-0.010661513,0.0,0.0,0.0,0.0,0.0,0.0,0.0,0.0
166704848,-0.05756028,0.0010278597,0.05298107,-0.001301378,-0.08309114,0.0,0.0,0.0,0.0,0.0,0.0,0.0,nan,nan,nan,nan,nan,nan,0.0,0.1534996,0.0,0.0,nan,0.0,0.0,-0.024783403,0.0,0.0,0.0,0.0,0.0,0.0,0.0,0.0
166904882,0.039127123,0.03750355,0.03850676,0.007505834,-0.07809615,0.0,0.0,0.0,0.0,0.0,0.0,0.0,nan,nan,nan,nan,nan,nan,0.0,-0.26815224,0.0,0.0,nan,0.0,0.0,-0.030528605,0.0,0.0,0.0,0.0,0.0,0.0,0.0,0.0
167104848,-0.057941474,-0.008910442,-0.029703133,0.014839649,-0.077441484,0.0,0.0,0.0,0.0,0.0,0.0,0.0,nan,nan,nan,nan,nan,nan,0.0,-0.11782837,0.0,0.0,nan,0.0,0.0,-0.008082956,0.0,0.0,0.0,0.0,0.0,0.0,0.0,0.0
167304848,0.0037075644,0.056706734,-0.019629847,0.021905035,-0.070243895,0.0,0.0,0.0,0.0,0.0,0.0,0.0,nan,nan,nan,nan,nan,nan,0.0,-0.0126514435,0.0,0.0,nan,0.0,0.0,-0.0459221,0.0,0.0,0.0,0.0,0.0,0.0,0.0,0.0
167504878,-0.00032643182,0.04119929,-0.016691273,0.02093941,-0.071355134,0.0,0.0,0.0,0.0,0.0,0.0,0.0,nan,nan,nan,nan,nan,nan,0.0,0.12997437,0.0,0.0,nan,0.0,0.0,0.025151134,0.0,0.0,0.0,0.0,0.0,0.0,0.0,0.0
167704848,0.031245627,0.07846469,-0.081106104,0.020258218,-0.063267946,0.0,0.0,0.0,0.0,0.0,0.0,0.0,nan,nan,nan,nan,nan,nan,0.0,0.037399292,0.0,0.0,nan,0.0,0.0,-0.026126951,0.0,0.0,0.0,0.0,0.0,0.0,0.0,0.0
167904848,-0.018613512,0.0026259925,0.050665528,0.015142828,-0.06095165,0.0,0.0,0.0,0.0,0.0,0.0,0.0,nan,nan,nan,nan,nan,nan,0.0,-0.13711548,0.0,0.0,nan,0.0,0.0,-0.05152741,0.0,0.0,0.0,0.0,0.0,0.0,0.0,0.0
168104863,0.01013494,0.007871833,-0.03585922,0.01613903,-0.05671811,0.0,0.0,0.0,0.0,0.0,0.0,0.0,nan,nan,nan,nan,nan,nan,0.0,-0.1988182,0.0,0.0,nan,0.0,0.0,-0.030442178,0.0,0.0,0.0,0.0,0.0,0.0,0.0,0.0
168304848,0.025541672,0.07601945,-0.076417476,0.024362445,-0.05280584,0.0,0.0,0.0,0.0,0.0,0.0,0.0,nan,nan,nan,nan,nan,nan,0.0,-0.018943787,0.0,0.0,nan,0.0,0.0,-0.012827784,0.0,0.0,0.0,0.0,0.0,0.0,0.0,0.0
168504864,0.04111565,0.027018275,-0.030768964,0.028108299,-0.052613676,0.0,0.0,0.0,0.0,0.0,0.0,0.0,nan,nan,nan,nan,nan,nan,0.0,-0.1634121,0.0,0.0,nan,0.0,0.0,-0.056280613,0.0,0.0,0.0,0.0,0.0,0.0,0.0,0.0
168704891,-0.0006180741,-0.059023738,-0.13049087,0.03404954,-0.05658722,0.0,0.0,0.0,0.0,0.0,0.0,0.0,nan,nan,nan,nan,nan,nan,0.0,0.09898567,0.0,0.0,nan,0.0,0.0,0.07124221,0.0,0.0,0.0,0.0,0.0,0.0,0.0,0.0
169704852,-0.031472765,0.039907157,-0.001765358,0.039853483,-0.015324533,0.0,0.0,0.0,0.0,0.0,0.0,0.0,nan,nan,nan,nan,nan,nan,0.0,-0.08099365,0.0,0.0,nan,0.0,0.0,-0.022646427,0.0,0.0,0.0,0.0,0.0,0.0,0.0,0.0
169904854,0.014812074,0.0063138977,0.05627751,0.03681913,-0.0112681985,0.0,0.0,0.0,0.0,0.0,0.0,0.0,nan,nan,nan,nan,nan,nan,0.0,-0.12465668,0.0,0.0,nan,0.0,0.0,-0.0012083054,0.0,0.0,0.0,0.0,0.0,0.0,0.0,0.0
170104851,0.020889904,0.056121834,-0.017329857,0.038823187,-0.0025815368,0.0,0.0,0.0,0.0,0.0,0.0,0.0,nan,nan,nan,nan,nan,nan,0.0,-0.033742905,0.0,0.0,nan,0.0,0.0,0.00824064,0.0,0.0,0.0,0.0,0.0,0.0,0.0,0.0
170304879,-0.01975622,0.054817457,0.04271174,0.03990397,-0.0023185015,0.0,0.0,0.0,0.0,0.0,0.0,0.0,nan,nan,nan,nan,nan,nan,0.0,9.536743e-06,0.0,0.0,nan,0.0,0.0,0.010828495,0.0,0.0,0.0,0.0,0.0,0.0,0.0,0.0
170504848,0.037515245,0.060991175,0.011327123,0.056631714,0.011808634,0.0,0.0,0.0,0.0,0.0,0.0,0.0,nan,nan,nan,nan,nan,nan,0.0,-0.2489872,0.0,0.0,nan,0.0,0.0,0.034688234,0.0,0.0,0.0,0.0,0.0,0.0,0.0,0.0
170704855,-0.017877758,0.003851667,-0.030223818,0.05226317,0.009096026,0.0,0.0,0.0,0.0,0.0,0.0,0.0,nan,nan,nan,nan,nan,nan,0.0,0.19562721,0.0,0.0,nan,0.0,0.0,-0.0058169365,0.0,0.0,0.0,0.0,0.0,0.0,0.0,0.0
170904852,-0.031790458,0.026213117,0.036074232,0.05475983,0.012658417,0.0,0.0,0.0,0.0,0.0,0.0,0.0,nan,nan,nan,nan,nan,nan,0.0,-0.06234932,0.0,0.0,nan,0.0,0.0,-0.009165168,0.0,0.0,0.0,0.0,0.0,0.0,0.0,0.0
171104915,0.021736415,0.041768454,0.027560163,0.05898893,0.02696824,0.0,0.0,0.0,0.0,0.0,0.0,0.0,nan,nan,nan,nan,nan,nan,0.0,-0.0019779205,0.0,0.0,nan,0.0,0.0,-0.024178207,0.0,0.0,0.0,0.0,0.0,0.0,0.0,0.0
171304865,-0.0662337,0.03013109,0.011211872,0.055251002,0.023550332,0.0,0.0,0.0,0.0,0.0,0.0,0.0,nan,nan,nan,nan,nan,nan,0.0,-0.0015258789,0.0,0.0,nan,0.0,0.0,-0.01655227,0.0,0.0,0.0,0.0,0.0,0.0,0.0,0.0
171504905,0.0076618437,0.028849648,-0.014664329,0.05141321,0.02853918,0.0,0.0,0.0,0.0,0.0,0.0,0.0,nan,nan,nan,nan,nan,nan,0.0,0.024742126,0.0,0.0,nan,0.0,0.0,-0.040174723,0.0,0.0,0.0,0.0,0.0,0.0,0.0,0.0
171704850,-0.040551294,0.017310109,0.0061301785,0.050349683,0.031914115,0.0,0.0,0.0,0.0,0.0,0.0,0.0,nan,nan,nan,nan,nan,nan,0.0,0.022354126,0.0,0.0,nan,0.0,0.0,-0.008100092,0.0,0.0,0.0,0.0,0.0,0.0,0.0,0.0
171904852,-0.03041168,-0.018681493,0.048592318,0.043646306,0.028885365,0.0,0.0,0.0,0.0,0.0,0.0,0.0,nan,nan,nan,nan,nan,nan,0.0,-0.27449417,0.0,0.0,nan,0.0,0.0,-0.020970821,0.0,0.0,0.0,0.0,0.0,0.0,0.0,0.0
172104857,-0.049427032,0.013688376,0.019599488,0.036429524,0.038059056,0.0,0.0,0.0,0.0,0.0,0.0,0.0,nan,nan,nan,nan,nan,nan,0.0,-0.10748482,0.0,0.0,nan,0.0,0.0,-0.024935722,0.0,0.0,0.0,0.0,0.0,0.0,0.0,0.0
172304848,-0.0029884316,0.019508816,-0.018801427,0.032802105,0.04164976,0.0,0.0,0.0,0.0,0.0,0.0,0.0,nan,nan,nan,nan,nan,nan,0.0,-0.0012836456,0.0,0.0,nan,0.0,0.0,-0.06235653,0.0,0.0,0.0,0.0,0.0,0.0,0.0,0.0
172504854,-0.01683273,0.020371309,0.029209096,0.035034746,0.043554485,0.0,0.0,0.0,0.0,0.0,0.0,0.0,nan,nan,nan,nan,nan,nan,0.0,-0.17160034,0.0,0.0,nan,0.0,0.0,-0.03235203,0.0,0.0,0.0,0.0,0.0,0.0,0.0,0.0
172704851,-0.054311328,0.0026417319,0.079563215,0.02723232,0.044921756,0.0,0.0,0.0,0.0,0.0,0.0,0.0,nan,nan,nan,nan,nan,nan,0.0,-0.09274864,0.0,0.0,nan,0.0,0.0,0.021636367,0.0,0.0,0.0,0.0,0.0,0.0,0.0,0.0
172904850,-0.03310203,-0.009327075,-0.039095365,0.025299579,0.040287793,0.0,0.0,0.0,0.0,0.0,0.0,0.0,nan,nan,nan,nan,nan,nan,0.0,-0.087379456,0.0,0.0,nan,0.0,0.0,-0.038990676,0.0,0.0,0.0,0.0,0.0,0.0,0.0,0.0
173104848,-0.052538753,-0.015078429,0.010413601,0.021761596,0.037032068,0.0,0.0,0.0,0.0,0.0,0.0,0.0,nan,nan,nan,nan,nan,nan,0.0,0.1594696,0.0,0.0,nan,0.0,0.0,0.0147612095,0.0,0.0,0.0,0.0,0.0,0.0,0.0,0.0
173304848,0.0070956256,0.0057013268,-0.0012801606,0.021389127,0.034929276,0.0,0.0,0.0,0.0,0.0,0.0,0.0,nan,nan,nan,nan,nan,nan,0.0,-0.19251823,0.0,0.0,nan,0.0,0.0,0.050822973,0.0,0.0,0.0,0.0,0.0,0.0,0.0,0.0
173504848,-0.089391105,-0.052534882,0.06958785,0.01416114,0.030162275,0.0,0.0,0.0,0.0,0.0,0.0,0.0,nan,nan,nan,nan,nan,nan,0.0,-0.22165489,0.0,0.0,nan,0.0,0.0,-0.07933253,0.0,0.0,0.0,0.0,0.0,0.0,0.0,0.0
173704848,-0.0038996888,0.0026373514,-0.061375808,0.0093795955,0.032785952,0.0,0.0,0.0,0.0,0.0,0.0,0.0,nan,nan,nan,nan,nan,nan,0.0,0.14993095,0.0,0.0,nan,0.0,0.0,0.026514173,0.0,0.0,0.0,0.0,0.0,0.0,0.0,0.0
173904890,-0.0062292367,-0.0035150321,-0.047941282,0.0062167943,0.035956085,0.0,0.0,0.0,0.0,0.0,0.0,0.0,nan,nan,nan,nan,nan,nan,0.0,0.02940178,0.0,0.0,nan,0.0,0.0,-0.012028813,0.0,0.0,0.0,0.0,0.0,0.0,0.0,0.0
174104868,-0.025678298,-0.0070846807,0.031911563,0.003946215,0.031954408,0.0,0.0,0.0,0.0,0.0,0.0,0.0,nan,nan,nan,nan,nan,nan,0.0,0.08917999,0.0,0.0,nan,0.0,0.0,-0.051555157,0.0,0.0,0.0,0.0,0.0,0.0,0.0,0.0
174304861,-0.010621403,-0.00078209816,0.021642365,0.004732549,0.035621405,0.0,0.0,0.0,0.0,0.0,0.0,0.0,nan,nan,nan,nan,nan,nan,0.0,-0.16406822,0.0,0.0,nan,0.0,0.0,0.01638019,0.0,0.0,0.0,0.0,0.0,0.0,0.0,0.0
174504852,-0.037645746,-0.017817242,0.03426358,-0.0069859326,0.030986845,0.0,0.0,0.0,0.0,0.0,0.0,0.0,nan,nan,nan,nan,nan,nan,0.0,-0.22369766,0.0,0.0,nan,0.0,0.0,-0.056670904,0.0,0.0,0.0,0.0,0.0,0.0,0.0,0.0
174704895,0.013051199,-0.0042140246,-0.0037200612,-0.0025308132,0.036289454,0.0,0.0,0.0,0.0,0.0,0.0,0.0,nan,nan,nan,nan,nan,nan,0.0,-0.20137215,0.0,0.0,nan,0.0,0.0,0.015914679,0.0,0.0,0.0,0.0,0.0,0.0,0.0,0.0
174904849,-0.02156004,0.014336559,0.014681484,-0.0151949525,0.03900531,0.0,0.0,0.0,0.0,0.0,0.0,0.0,nan,nan,nan,nan,nan,nan,0.0,-0.1788845,0.0,0.0,nan,0.0,0.0,0.059686244,0.0,0.0,0.0,0.0,0.0,0.0,0.0,0.0
175104857,-0.012692418,-0.011616382,-0.029313881,-0.010673016,0.031341285,0.0,0.0,0.0,0.0,0.0,0.0,0.0,nan,nan,nan,nan,nan,nan,0.0,-0.108192444,0.0,0.0,nan,0.0,0.0,-0.043977022,0.0,0.0,0.0,0.0,0.0,0.0,0.0,0.0
175304892,-0.048564993,0.005459179,0.013057357,-0.018321544,0.034772545,0.0,0.0,0.0,0.0,0.0,0.0,0.0,nan,nan,nan,nan,nan,nan,0.0,0.037878036,0.0,0.0,nan,0.0,0.0,-0.0071972013,0.0,0.0,0.0,0.0,0.0,0.0,0.0,0.0
175504854,0.027215289,-0.013229297,-0.007035865,-0.019727707,0.027988225,0.0,0.0,0.0,0.0,0.0,0.0,0.0,nan,nan,nan,nan,nan,nan,0.0,-0.083078384,0.0,0.0,nan,0.0,0.0,-0.019760549,0.0,0.0,0.0,0.0,0.0,0.0,0.0,0.0
175704848,0.02655933,-0.027162578,0.010038041,-0.018396497,0.031181186,0.0,0.0,0.0,0.0,0.0,0.0,0.0,nan,nan,nan,nan,nan,nan,0.0,-0.03793907,0.0,0.0,nan,0.0,0.0,-1.0848045e-05,0.0,0.0,0.0,0.0,0.0,0.0,0.0,0.0
176304855,-0.011156593,0.0061558224,0.010517776,-0.030419052,0.032173097,0.0,0.0,0.0,0.0,0.0,0.0,0.0,nan,nan,nan,nan,nan,nan,0.0,-0.108192444,0.0,0.0,nan,0.0,0.0,0.0024612546,0.0,0.0,0.0,0.0,0.0,0.0,0.0,0.0
176504936,-0.028926516,-0.04778252,-0.016132075,-0.023972452,0.03225869,0.0,0.0,0.0,0.0,0.0,0.0,0.0,nan,nan,nan,nan,nan,nan,0.0,-0.1058979,0.0,0.0,nan,0.0,0.0,-0.05423522,0.0,0.0,0.0,0.0,0.0,0.0,0.0,0.0
176704865,0.007010513,0.023848575,0.06322908,-0.015219122,0.031683624,0.0,0.0,0.0,0.0,0.0,0.0,0.0,nan,nan,nan,nan,nan,nan,0.0,-0.2576313,0.0,0.0,nan,0.0,0.0,-0.049311757,0.0,0.0,0.0,0.0,0.0,0.0,0.0,0.0
176904848,-0.016596293,-0.011654054,0.053639747,-0.022277176,0.036834806,0.0,0.0,0.0,0.0,0.0,0.0,0.0,nan,nan,nan,nan,nan,nan,0.0,0.09580803,0.0,0.0,nan,0.0,0.0,-0.084982395,0.0,0.0,0.0,0.0,0.0,0.0,0.0,0.0
177104848,0.012796902,-0.028525434,-0.03977094,-0.014078438,0.030917943,0.0,0.0,0.0,0.0,0.0,0.0,0.0,nan,nan,nan,nan,nan,nan,0.0,0.015163422,0.0,0.0,nan,0.0,0.0,-0.03208387,0.0,0.0,0.0,0.0,0.0,0.0,0.0,0.0
177304848,0.05938208,-0.0018501766,-0.037279367,-0.009975225,0.035223007,0.0,0.0,0.0,0.0,0.0,0.0,0.0,nan,nan,nan,nan,nan,nan,0.0,0.046245575,0.0,0.0,nan,0.0,0.0,-0.03447801,0.0,0.0,0.0,0.0,0.0,0.0,0.0,0.0
177504885,0.028595027,-0.0031503644,-0.03682688,-0.012233883,0.035673678,0.0,0.0,0.0,0.0,0.0,0.0,0.0,nan,nan,nan,nan,nan,nan,0.0,-0.012243271,0.0,0.0,nan,0.0,0.0,-0.00858748,0.0,0.0,0.0,0.0,0.0,0.0,0.0,0.0
177704848,0.015289487,-0.013564563,0.043541744,-0.010870218,0.043186575,0.0,0.0,0.0,0.0,0.0,0.0,0.0,nan,nan,nan,nan,nan,nan,0.0,-0.16309357,0.0,0.0,nan,0.0,0.0,0.006429553,0.0,0.0,0.0,0.0,0.0,0.0,0.0,0.0
177904848,0.039388485,-0.007308785,-0.026376836,-0.008159578,0.043656766,0.0,0.0,0.0,0.0,0.0,0.0,0.0,nan,nan,nan,nan,nan,nan,0.0,-0.2592373,0.0,0.0,nan,0.0,0.0,0.01323235,0.0,0.0,0.0,0.0,0.0,0.0,0.0,0.0
178104862,0.030362267,0.01657528,0.013183936,-0.008882046,0.04310912,0.0,0.0,0.0,0.0,0.0,0.0,0.0,nan,nan,nan,nan,nan,nan,0.0,-0.1067543,0.0,0.0,nan,0.0,0.0,-0.049436986,0.0,0.0,0.0,0.0,0.0,0.0,0.0,0.0
178304857,0.013750403,-0.008889893,0.005663594,-0.008793384,0.046557218,0.0,0.0,0.0,0.0,0.0,0.0,0.0,nan,nan,nan,nan,nan,nan,0.0,0.022880554,0.0,0.0,nan,0.0,0.0,0.010414004,0.0,0.0,0.0,0.0,0.0,0.0,0.0,0.0
178704852,0.028338503,-0.027974691,-0.016758133,-0.011772841,0.040448964,0.0,0.0,0.0,0.0,0.0,0.0,0.0,nan,nan,nan,nan,nan,nan,0.0,0.050689697,0.0,0.0,nan,0.0,0.0,0.028876841,0.0,0.0,0.0,0.0,0.0,0.0,0.0,0.0
178904881,0.02059798,-0.041189365,0.013826082,0.00017786026,0.03474611,0.0,0.0,0.0,0.0,0.0,0.0,0.0,nan,nan,nan,nan,nan,nan,0.0,-0.13867569,0.0,0.0,nan,0.0,0.0,-0.034175813,0.0,0.0,0.0,0.0,0.0,0.0,0.0,0.0
179104849,0.042942528,-0.0061419103,-0.051399685,0.00038725138,0.03155151,0.0,0.0,0.0,0.0,0.0,0.0,0.0,nan,nan,nan,nan,nan,nan,0.0,-0.21092224,0.0,0.0,nan,0.0,0.0,-0.08974445,0.0,0.0,0.0,0.0,0.0,0.0,0.0,0.0
179304848,0.02782648,-0.0036129933,-0.019190423,-0.002763033,0.031866014,0.0,0.0,0.0,0.0,0.0,0.0,0.0,nan,nan,nan,nan,nan,nan,0.0,-0.2262249,0.0,0.0,nan,0.0,0.0,-0.063666105,0.0,0.0,0.0,0.0,0.0,0.0,0.0,0.0
179504882,0.032661658,-0.027921848,-0.056246072,0.006688297,0.02430594,0.0,0.0,0.0,0.0,0.0,0.0,0.0,nan,nan,nan,nan,nan,nan,0.0,-0.024038315,0.0,0.0,nan,0.0,0.0,-0.015768707,0.0,0.0,0.0,0.0,0.0,0.0,0.0,0.0
179704878,0.012239471,0.00014630891,-0.047808826,0.0026817024,0.028043061,0.0,0.0,0.0,0.0,0.0,0.0,0.0,nan,nan,nan,nan,nan,nan,0.0,-0.22227669,0.0,0.0,nan,0.0,0.0,-0.0011591911,0.0,0.0,0.0,0.0,0.0,0.0,0.0,0.0
179904848,-0.019943047,-0.04315661,0.004237613,0.0009987056,0.02084878,0.0,0.0,0.0,0.0,0.0,0.0,0.0,nan,nan,nan,nan,nan,nan,0.0,0.19860649,0.0,0.0,nan,0.0,0.0,-0.02412206,0.0,0.0,0.0,0.0,0.0,0.0,0.0,0.0
180104848,0.009736789,0.0116848275,0.025466662,0.003562212,0.019852698,0.0,0.0,0.0,0.0,0.0,0.0,0.0,nan,nan,nan,nan,nan,nan,0.0,-0.09809303,0.0,0.0,nan,0.0,0.0,-0.06607252,0.0,0.0,0.0,0.0,0.0,0.0,0.0,0.0
180304855,-0.030019142,-0.0035760533,-0.007909969,0.0021959543,0.019696087,0.0,0.0,0.0,0.0,0.0,0.0,0.0,nan,nan,nan,nan,nan,nan,0.0,-0.17589188,0.0,0.0,nan,0.0,0.0,-0.049515486,0.0,0.0,0.0,0.0,0.0,0.0,0.0,0.0
180504861,0.021890694,-0.009015909,-0.012255808,0.0059275925,0.014176071,0.0,0.0,0.0,0.0,0.0,0.0,0.0,nan,nan,nan,nan,nan,nan,0.0,-0.06191826,0.0,0.0,nan,0.0,0.0,-0.040466905,0.0,0.0,0.0,0.0,0.0,0.0,0.0,0.0
180904848,0.0010387129,-0.020012919,0.045651704,0.017436713,0.013834894,0.0,0.0,0.0,0.0,0.0,0.0,0.0,nan,nan,nan,nan,nan,nan,0.0,0.107889175,0.0,0.0,nan,0.0,0.0,-0.024107397,0.0,0.0,0.0,0.0,0.0,0.0,0.0,0.0
181904848,-0.01915316,-0.019423563,0.009557148,0.025517344,0.020648897,0.0,0.0,0.0,0.0,0.0,0.0,0.0,nan,nan,nan,nan,nan,nan,0.0,0.14452744,0.0,0.0,nan,0.0,0.0,-0.1082837,0.0,0.0,0.0,0.0,0.0,0.0,0.0,0.0
182104857,-0.036462415,-0.025246672,-0.0013838578,0.033920795,0.01916632,0.0,0.0,0.0,0.0,0.0,0.0,0.0,nan,nan,nan,nan,nan,nan,0.0,0.0013580322,0.0,0.0,nan,0.0,0.0,0.010756671,0.0,0.0,0.0,0.0,0.0,0.0,0.0,0.0
182304870,-0.040717505,-0.014302118,0.017494755,0.021325588,0.019215465,0.0,0.0,0.0,0.0,0.0,0.0,0.0,nan,nan,nan,nan,nan,nan,0.0,0.07310486,0.0,0.0,nan,0.0,0.0,0.030517817,0.0,0.0,0.0,0.0,0.0,0.0,0.0,0.0
182504906,0.015233526,0.033443406,0.024995383,0.02188462,0.018524855,0.0,0.0,0.0,0.0,0.0,0.0,0.0,nan,nan,nan,nan,nan,nan,0.0,-0.047294617,0.0,0.0,nan,0.0,0.0,-0.03782493,0.0,0.0,0.0,0.0,0.0,0.0,0.0,0.0
182704848,0.0060047936,0.0130245555,-0.03708361,0.026305556,0.019502819,0.0,0.0,0.0,0.0,0.0,0.0,0.0,nan,nan,nan,nan,nan,nan,0.0,-0.16317749,0.0,0.0,nan,0.0,0.0,-0.042179883,0.0,0.0,0.0,0.0,0.0,0.0,0.0,0.0
182904852,-0.026317745,-0.014496866,-0.0082367025,0.019551009,0.015367538,0.0,0.0,0.0,0.0,0.0,0.0,0.0,nan,nan,nan,nan,nan,nan,0.0,-0.24764442,0.0,0.0,nan,0.0,0.0,0.0020732284,0.0,0.0,0.0,0.0,0.0,0.0,0.0,0.0
183104848,-0.014441416,-0.005409513,-0.04093497,0.0170843,0.015052527,0.0,0.0,0.0,0.0,0.0,0.0,0.0,nan,nan,nan,nan,nan,nan,0.0,-0.06879997,0.0,0.0,nan,0.0,0.0,-0.0053257346,0.0,0.0,0.0,0.0,0.0,0.0,0.0,0.0
183304845,-0.012616948,0.009122284,-0.013964385,0.01308918,0.014138222,0.0,0.0,0.0,0.0,0.0,0.0,0.0,nan,nan,nan,nan,nan,nan,0.0,0.30825424,0.0,0.0,nan,0.0,0.0,0.0008921623,0.0,0.0,0.0,0.0,0.0,0.0,0.0,0.0
183504873,-0.039446224,0.020808367,0.013939299,0.009156942,0.011848569,0.0,0.0,0.0,0.0,0.0,0.0,0.0,nan,nan,nan,nan,nan,nan,0.0,0.07676506,0.0,0.0,nan,0.0,0.0,-0.035033584,0.0,0.0,0.0,0.0,0.0,0.0,0.0,0.0
183704881,-0.06622417,-0.03145893,0.026936159,-0.0021079183,0.008246243,0.0,0.0,0.0,0.0,0.0,0.0,0.0,nan,nan,nan,nan,nan,nan,0.0,0.091537476,0.0,0.0,nan,0.0,0.0,0.023726165,0.0,0.0,0.0,0.0,0.0,0.0,0.0,0.0
183904894,-0.0625999,0.011108127,0.06733031,-0.019298404,0.004539609,0.0,0.0,0.0,0.0,0.0,0.0,0.0,nan,nan,nan,nan,nan,nan,0.0,0.060403824,0.0,0.0,nan,0.0,0.0,0.034151375,0.0,0.0,0.0,0.0,0.0,0.0,0.0,0.0
184104886,-0.023084488,-0.018593203,-0.013784712,-0.011864036,0.0037917197,0.0,0.0,0.0,0.0,0.0,0.0,0.0,nan,nan,nan,nan,nan,nan,0.0,0.045074463,0.0,0.0,nan,0.0,0.0,-0.04364842,0.0,0.0,0.0,0.0,0.0,0.0,0.0,0.0
184304848,0.002665488,9.386521e-05,0.04291018,-0.02055502,1.8447638e-05,0.0,0.0,0.0,0.0,0.0,0.0,0.0,nan,nan,nan,nan,nan,nan,0.0,-0.0435009,0.0,0.0,nan,0.0,0.0,-0.041852593,0.0,0.0,0.0,0.0,0.0,0.0,0.0,0.0
184504852,-0.05066414,0.014156746,0.030716069,-0.020262957,0.0022402704,0.0,0.0,0.0,0.0,0.0,0.0,0.0,nan,nan,nan,nan,nan,nan,0.0,-0.12346649,0.0,0.0,nan,0.0,0.0,0.0075618625,0.0,0.0,0.0,0.0,0.0,0.0,0.0,0.0
184904848,0.005487308,0.009422515,0.03163562,-0.025064796,0.008957744,0.0,0.0,0.0,0.0,0.0,0.0,0.0,nan,nan,nan,nan,nan,nan,0.0,-0.091602325,0.0,0.0,nan,0.0,0.0,-0.061338544,0.0,0.0,0.0,0.0,0.0,0.0,0.0,0.0
185104858,-0.015515992,-0.0043149237,-0.04313683,-0.025079906,0.009544671,0.0,0.0,0.0,0.0,0.0,0.0,0.0,nan,nan,nan,nan,nan,nan,0.0,-0.042316437,0.0,0.0,nan,0.0,0.0,0.0063230395,0.0,0.0,0.0,0.0,0.0,0.0,0.0,0.0
185304848,0.008590455,0.042675167,0.0019948473,-0.033740044,0.019744098,0.0,0.0,0.0,0.0,0.0,0.0,0.0,nan,nan,nan,nan,nan,nan,0.0,0.039339066,0.0,0.0,nan,0.0,0.0,0.025331378,0.0,0.0,0.0,0.0,0.0,0.0,0.0,0.0
185504848,-0.02009165,0.023171933,0.042749792,-0.030777574,0.023002148,0.0,0.0,0.0,0.0,0.0,0.0,0.0,nan,nan,nan,nan,nan,nan,0.0,0.09553146,0.0,0.0,nan,0.0,0.0,0.025056183,0.0,0.0,0.0,0.0,0.0,0.0,0.0,0.0
185704848,-0.055996783,-0.02257777,0.07914902,-0.037403554,0.020743817,0.0,0.0,0.0,0.0,0.0,0.0,0.0,nan,nan,nan,nan,nan,nan,0.0,-0.12866211,0.0,0.0,nan,0.0,0.0,-0.05207008,0.0,0.0,0.0,0.0,0.0,0.0,0.0,0.0
185904848,0.03077516,0.016886305,0.028377905,-0.037831813,0.024742931,0.0,0.0,0.0,0.0,0.0,0.0,0.0,nan,nan,nan,nan,nan,nan,0.0,-0.08326721,0.0,0.0,nan,0.0,0.0,0.06376657,0.0,0.0,0.0,0.0,0.0,0.0,0.0,0.0
186104875,0.0020386735,0.03697181,0.02897751,-0.03800851,0.023878962,0.0,0.0,0.0,0.0,0.0,0.0,0.0,nan,nan,nan,nan,nan,nan,0.0,0.050172806,0.0,0.0,nan,0.0,0.0,0.040559173,0.0,0.0,0.0,0.0,0.0,0.0,0.0,0.0
186304848,0.00079129497,0.032912977,-0.023062637,-0.046286255,0.0211488,0.0,0.0,0.0,0.0,0.0,0.0,0.0,nan,nan,nan,nan,nan,nan,0.0,0.01039505,0.0,0.0,nan,0.0,0.0,0.013791621,0.0,0.0,0.0,0.0,0.0,0.0,0.0,0.0
186504848,-0.0014174003,0.049655695,0.013429958,-0.041907847,0.017498791,0.0,0.0,0.0,0.0,0.0,0.0,0.0,nan,nan,nan,nan,nan,nan,0.0,0.21879387,0.0,0.0,nan,0.0,0.0,0.0067340136,0.0,0.0,0.0,0.0,0.0,0.0,0.0,0.0
186704856,0.0072495006,0.019219188,-0.026703523,-0.050545484,0.02073595,0.0,0.0,0.0,0.0,0.0,0.0,0.0,nan,nan,nan,nan,nan,nan,0.0,0.06817818,0.0,0.0,nan,0.0,0.0,0.029197097,0.0,0.0,0.0,0.0,0.0,0.0,0.0,0.0
186904859,-0.006129611,0.033932466,-0.041914355,-0.04615575,0.018549144,0.0,0.0,0.0,0.0,0.0,0.0,0.0,nan,nan,nan,nan,nan,nan,0.0,0.17616844,0.0,0.0,nan,0.0,0.0,0.021656454,0.0,0.0,0.0,0.0,0.0,0.0,0.0,0.0
187104852,0.0034400125,0.022894593,0.031000506,-0.0521833,0.015241861,0.0,0.0,0.0,0.0,0.0,0.0,0.0,nan,nan,nan,nan,nan,nan,0.0,0.08753967,0.0,0.0,nan,0.0,0.0,-0.002302885,0.0,0.0,0.0,0.0,0.0,0.0,0.0,0.0
187304848,0.03960628,0.014716147,-0.022938825,-0.044711113,0.015693665,0.0,0.0,0.0,0.0,0.0,0.0,0.0,nan,nan,nan,nan,nan,nan,0.0,0.1103878,0.0,0.0,nan,0.0,0.0,-0.025607169,0.0,0.0,0.0,0.0,0.0,0.0,0.0,0.0
187504857,0.025575824,-0.011248378,0.059553612,-0.045407414,0.007358074,0.0,0.0,0.0,0.0,0.0,0.0,0.0,nan,nan,nan,nan,nan,nan,0.0,0.039384842,0.0,0.0,nan,0.0,0.0,-0.021454513,0.0,0.0,0.0,0.0,0.0,0.0,0.0,0.0
187704852,-0.0025437688,0.026814718,0.0048760916,-0.044451684,0.010798812,0.0,0.0,0.0,0.0,0.0,0.0,0.0,nan,nan,nan,nan,nan,nan,0.0,-0.0907383,0.0,0.0,nan,0.0,0.0,0.030881107,0.0,0.0,0.0,0.0,0.0,0.0,0.0,0.0
187904880,0.017581187,0.0027000485,-0.013152629,-0.0393261,0.009382129,0.0,0.0,0.0,0.0,0.0,0.0,0.0,nan,nan,nan,nan,nan,nan,0.0,-0.1527977,0.0,0.0,nan,0.0,0.0,0.041315258,0.0,0.0,0.0,0.0,0.0,0.0,0.0,0.0
188104849,0.055543542,0.010753046,-0.02648263,-0.037051737,0.011493206,0.0,0.0,0.0,0.0,0.0,0.0,0.0,nan,nan,nan,nan,nan,nan,0.0,0.080020905,0.0,0.0,nan,0.0,0.0,-0.03295636,0.0,0.0,0.0,0.0,0.0,0.0,0.0,0.0
188304868,-0.0037093656,0.03623773,-0.038922843,-0.040914446,0.012503862,0.0,0.0,0.0,0.0,0.0,0.0,0.0,nan,nan,nan,nan,nan,nan,0.0,-0.1823101,0.0,0.0,nan,0.0,0.0,0.02034688,0.0,0.0,0.0,0.0,0.0,0.0,0.0,0.0
188504908,0.0030585397,0.06533896,-0.03986673,-0.024984658,0.017471164,0.0,0.0,0.0,0.0,0.0,0.0,0.0,nan,nan,nan,nan,nan,nan,0.0,-0.22267532,0.0,0.0,nan,0.0,0.0,-0.033661544,0.0,0.0,0.0,0.0,0.0,0.0,0.0,0.0
188704852,0.024838664,0.034094512,-0.067639194,-0.033851862,0.017740935,0.0,0.0,0.0,0.0,0.0,0.0,0.0,nan,nan,nan,nan,nan,nan,0.0,-0.24684906,0.0,0.0,nan,0.0,0.0,-0.024251938,0.0,0.0,0.0,0.0,0.0,0.0,0.0,0.0
188904880,0.022984121,0.07572283,-0.052735787,-0.022997767,0.021134526,0.0,0.0,0.0,0.0,0.0,0.0,0.0,nan,nan,nan,nan,nan,nan,0.0,-0.00810051,0.0,0.0,nan,0.0,0.0,-0.0052600503,0.0,0.0,0.0,0.0,0.0,0.0,0.0,0.0
189104848,0.016137186,-0.01883255,-0.04141524,-0.035282314,0.010682821,0.0,0.0,0.0,0.0,0.0,0.0,0.0,nan,nan,nan,nan,nan,nan,0.0,-0.20841026,0.0,0.0,nan,0.0,0.0,-0.016822517,0.0,0.0,0.0,0.0,0.0,0.0,0.0,0.0
189304876,-0.006952039,-0.014188091,0.02838891,-0.034904897,0.0054610074,0.0,0.0,0.0,0.0,0.0,0.0,0.0,nan,nan,nan,nan,nan,nan,0.0,0.14636421,0.0,0.0,nan,0.0,0.0,-0.043492913,0.0,0.0,0.0,0.0,0.0,0.0,0.0,0.0
189504903,-0.026474494,0.02090399,0.018519867,-0.031807452,0.015380949,0.0,0.0,0.0,0.0,0.0,0.0,0.0,nan,nan,nan,nan,nan,nan,0.0,0.043001175,0.0,0.0,nan,0.0,0.0,0.008562386,0.0,0.0,0.0,0.0,0.0,0.0,0.0,0.0
189704876,-0.022181598,-0.007355311,0.01981673,-0.026364326,0.012684733,0.0,0.0,0.0,0.0,0.0,0.0,0.0,nan,nan,nan,nan,nan,nan,0.0,0.18591309,0.0,0.0,nan,0.0,0.0,0.045035124,0.0,0.0,0.0,0.0,0.0,0.0,0.0,0.0
189904858,-0.016289303,0.01070786,-0.002628967,-0.032874316,0.013682395,0.0,0.0,0.0,0.0,0.0,0.0,0.0,nan,nan,nan,nan,nan,nan,0.0,0.0382576,0.0,0.0,nan,0.0,0.0,-0.037181973,0.0,0.0,0.0,0.0,0.0,0.0,0.0,0.0
190104859,0.07502411,0.0540666,-0.038586445,-0.016753733,0.012570202,0.0,0.0,0.0,0.0,0.0,0.0,0.0,nan,nan,nan,nan,nan,nan,0.0,-0.06331825,0.0,0.0,nan,0.0,0.0,0.033929825,0.0,0.0,0.0,0.0,0.0,0.0,0.0,0.0
190304848,-0.02079811,-0.0100174155,0.013683939,-0.025294453,0.0061299503,0.0,0.0,0.0,0.0,0.0,0.0,0.0,nan,nan,nan,nan,nan,nan,0.0,0.12389755,0.0,0.0,nan,0.0,0.0,0.080890864,0.0,0.0,0.0,0.0,0.0,0.0,0.0,0.0
190504848,0.0050199027,0.023437178,0.033328265,-0.032390296,0.007865012,0.0,0.0,0.0,0.0,0.0,0.0,0.0,nan,nan,nan,nan,nan,nan,0.0,0.12211418,0.0,0.0,nan,0.0,0.0,0.010929763,0.0,0.0,0.0,0.0,0.0,0.0,0.0,0.0
190704848,0.030713968,0.019250974,-0.01616021,-0.030532062,0.005109668,0.0,0.0,0.0,0.0,0.0,0.0,0.0,nan,nan,nan,nan,nan,nan,0.0,0.11663246,0.0,0.0,nan,0.0,0.0,0.04634422,0.0,0.0,0.0,0.0,0.0,0.0,0.0,0.0
190904848,-0.021348927,-0.034433328,0.086124875,-0.03240919,-0.003795594,0.0,0.0,0.0,0.0,0.0,0.0,0.0,nan,nan,nan,nan,nan,nan,0.0,-0.22943878,0.0,0.0,nan,0.0,0.0,0.029209018,0.0,0.0,0.0,0.0,0.0,0.0,0.0,0.0
191104953,0.002426988,-0.012468219,0.00353071,-0.039235413,-0.0119437575,0.0,0.0,0.0,0.0,0.0,0.0,0.0,nan,nan,nan,nan,nan,nan,0.0,0.062007904,0.0,0.0,nan,0.0,0.0,0.06964871,0.0,0.0,0.0,0.0,0.0,0.0,0.0,0.0
191304852,-0.02247807,-0.007932149,0.0005182988,-0.04777634,-0.013975441,0.0,0.0,0.0,0.0,0.0,0.0,0.0,nan,nan,nan,nan,nan,nan,0.0,0.020309448,0.0,0.0,nan,0.0,0.0,0.017424643,0.0,0.0,0.0,0.0,0.0,0.0,0.0,0.0
191504849,-0.018805109,0.0384997,0.011140156,-0.052290738,-0.008058846,0.0,0.0,0.0,0.0,0.0,0.0,0.0,nan,nan,nan,nan,nan,nan,0.0,-0.32090378,0.0,0.0,nan,0.0,0.0,0.047553778,0.0,0.0,0.0,0.0,0.0,0.0,0.0,0.0
191704849,0.0042935605,0.010876236,-0.013100704,-0.0451127,-0.008268356,0.0,0.0,0.0,0.0,0.0,0.0,0.0,nan,nan,nan,nan,nan,nan,0.0,-0.045642853,0.0,0.0,nan,0.0,0.0,-0.0117458105,0.0,0.0,0.0,0.0,0.0,0.0,0.0,0.0
191904848,-0.014311401,0.045444913,-0.040969756,-0.052160054,0.0021978915,0.0,0.0,0.0,0.0,0.0,0.0,0.0,nan,nan,nan,nan,nan,nan,0.0,0.104185104,0.0,0.0,nan,0.0,0.0,0.015744507,0.0,0.0,0.0,0.0,0.0,0.0,0.0,0.0
192104880,0.004814766,0.02244026,-0.014720038,-0.055984795,0.00030264258,0.0,0.0,0.0,0.0,0.0,0.0,0.0,nan,nan,nan,nan,nan,nan,0.0,0.06126213,0.0,0.0,nan,0.0,0.0,0.038757324,0.0,0.0,0.0,0.0,0.0,0.0,0.0,0.0
192304848,-0.0038134907,-0.0020389091,-0.0029333783,-0.05038345,0.0013183653,0.0,0.0,0.0,0.0,0.0,0.0,0.0,nan,nan,nan,nan,nan,nan,0.0,-0.0060367584,0.0,0.0,nan,0.0,0.0,0.036968827,0.0,0.0,0.0,0.0,0.0,0.0,0.0,0.0
193504855,0.023207195,0.046240047,-0.10549649,-0.027336359,0.010383457,0.0,0.0,0.0,0.0,0.0,0.0,0.0,nan,nan,nan,nan,nan,nan,0.0,0.06544304,0.0,0.0,nan,0.0,0.0,0.059267104,0.0,0.0,0.0,0.0,0.0,0.0,0.0,0.0
193704848,0.007942259,0.028778799,0.025041755,-0.025813788,0.0084813535,0.0,0.0,0.0,0.0,0.0,0.0,0.0,nan,nan,nan,nan,nan,nan,0.0,-0.19015503,0.0,0.0,nan,0.0,0.0,0.07083872,0.0,0.0,0.0,0.0,0.0,0.0,0.0,0.0
193904871,-0.016632605,0.029842578,0.040412527,-0.022876263,0.008267969,0.0,0.0,0.0,0.0,0.0,0.0,0.0,nan,nan,nan,nan,nan,nan,0.0,0.17682076,0.0,0.0,nan,0.0,0.0,0.042387962,0.0,0.0,0.0,0.0,0.0,0.0,0.0,0.0
