timestamp,timestamp_sample,accel_device_id,gyro_device_id,delta_angle[0],delta_angle[1],delta_angle[2],delta_velocity[0],delta_velocity[1],delta_velocity[2],delta_angle_dt,delta_velocity_dt,delta_velocity_clipping
128608718,128608210,2359306,2359306,-4.4290544e-05,4.6371388e-05,-3.0956493e-05,-0.0007370935,0.0007333372,-0.049524892,5000,5000,0
129108900,129108397,2359306,2359306,-2.8179344e-05,-1.9737843e-05,9.804169e-06,-0.00042641937,0.0004080362,-0.049016766,5005,5005,0
129609153,129608582,2359306,2359306,1.3720676e-05,-1.2333273e-05,-2.0267777e-05,-0.00081385276,0.00053189317,-0.04876761,5001,5001,0
130109282,130108764,2359306,2359306,3.3836855e-05,1.00136995e-05,-2.40376e-05,-0.00062612677,0.00064446696,-0.048653416,4999,4999,0
130609575,130608949,2359306,2359306,-1.761905e-05,-2.647524e-06,-9.818267e-06,-0.0007742824,0.00045186194,-0.04893793,5001,5001,0
131109671,131109135,2359306,2359306,-4.6485253e-05,-1.9445382e-05,-8.74478e-06,-0.00073125644,0.00038691828,-0.04882071,4990,4990,0
131609925,131609324,2359306,2359306,-2.4745224e-05,9.1377177e-07,6.8397235e-06,-0.0008084664,0.00032018687,-0.04894314,5005,5005,0
132110028,132109507,2359306,2359306,1.4202372e-05,-2.6718849e-06,-2.236767e-05,-0.0006060636,0.0005180554,-0.048699796,4999,4999,0
132610213,132609692,2359306,2359306,-1.43089255e-05,-3.5765847e-06,-9.787138e-06,-0.00071695325,0.00048135262,-0.048713595,5001,5001,0
133110538,133109880,2359306,2359306,-3.237359e-05,3.3573822e-06,-1.7217988e-05,-0.00063310267,0.00044203838,-0.04868208,5002,5002,0
133610614,133610068,2359306,2359306,-7.333891e-05,-2.9151543e-06,1.5745365e-05,-0.0010100438,0.0022056068,-0.048239578,5005,5005,0
134110899,134110266,2359306,2359306,-3.7250444e-05,-1.3926513e-05,4.4457065e-06,-0.00070641923,0.00040647577,-0.046894677,4999,4999,0
134610973,134610440,2359306,2359306,3.778516e-06,-3.163358e-05,-3.6673196e-06,-0.0008020965,0.0005194455,-0.050084554,5002,5002,0
135111171,135110627,2359306,2359306,3.294969e-05,-1.6740123e-05,-8.456551e-06,-0.0009377342,0.00038955576,-0.050331544,5003,5003,0
135611348,135610825,2359306,2359306,5.133487e-05,-2.32038e-05,-1.0784545e-05,-0.0011076571,0.00035903903,-0.049333822,5010,5010,0
136111626,136111009,2359306,2359306,2.8323935e-05,-5.7673665e-06,-2.1693784e-05,-0.00049160497,0.0015512295,-0.047807086,5010,5010,0
136611708,136611192,2359306,2359306,-5.794779e-06,1.504647e-05,-5.2577503e-05,0.0019363412,0.0010428294,-0.05005727,5005,5005,0
137111883,137111376,2359306,2359306,6.706015e-05,-7.204575e-05,-1.5740636e-05,-0.001313483,0.0008907097,-0.047747422,5001,5001,0
137607131,137606563,2359306,2359306,-5.20516e-05,-1.1924573e-05,9.973615e-06,-0.0021463516,-0.003989893,-0.047749497,5004,5004,0
138107275,138106762,2359306,2359306,4.0387886e-06,1.34084485e-05,-4.0647075e-07,-0.0006976954,0.0007620296,-0.04847774,5015,5015,0
138607525,138606940,2359306,2359306,-9.516133e-05,2.2434342e-06,1.1175011e-05,-0.0007457883,0.00036181533,-0.047823068,5005,5005,0
139107675,139107144,2359306,2359306,-4.987381e-05,-8.072285e-06,-7.786495e-06,-0.0006537151,0.0021995604,-0.048782725,5011,5011,0
139608050,139607317,2359306,2359306,-6.3013013e-06,8.518405e-06,-2.7769207e-05,-0.0010845647,0.0007794364,-0.047257002,5005,5005,0
140108123,140107503,2359306,2359306,2.9754456e-05,7.58993e-06,-4.366642e-06,-0.0011159186,-0.0014438875,-0.048569344,5002,5002,0
140608204,140607695,2359306,2359306,6.0075894e-05,-6.5996733e-06,-1.2879494e-05,-0.00016964697,0.0008652725,-0.04972355,5005,5005,0
141108397,141107883,2359306,2359306,-5.364898e-05,8.508858e-06,-1.4159513e-05,0.00016790502,0.0014186113,-0.048639987,4990,4990,0
141608616,141608071,2359306,2359306,6.132559e-05,-2.907217e-05,-3.5076316e-06,-0.0009748549,0.0025386042,-0.0486652,4999,4999,0
142108830,142108267,2359306,2359306,0.0001388173,8.51517e-06,-4.6503683e-05,-3.4717155e-05,9.408994e-06,-0.05001689,4998,4998,0
142609038,142608452,2359306,2359306,1.7626696e-06,-2.6181291e-05,-1.8749068e-05,-0.001239507,-2.992793e-05,-0.05076435,5003,5003,0
145109963,145109405,2359306,2359306,1.0050266e-05,-2.0575196e-06,-5.938574e-06,-0.0005015537,0.00049703266,-0.048930567,4999,4999,0
145610121,145609596,2359306,2359306,-2.1896154e-05,-5.054965e-07,2.837698e-06,-0.00048547794,0.00046108817,-0.0486537,4993,4993,0
146110446,146109788,2359306,2359306,-4.566187e-05,-4.5559127e-06,-3.2089342e-06,-0.0004764638,0.00054014917,-0.048692048,4990,4990,0
146610690,146609983,2359306,2359306,-4.388149e-06,6.81492e-07,-1.9821255e-05,-0.0004841168,0.00038122834,-0.048812322,5004,5004,0
147110726,147110173,2359306,2359306,4.730779e-06,-3.5325113e-06,-1.3144922e-05,-0.00050223037,0.00052315847,-0.048694458,5001,5001,0
147610912,147610366,2359306,2359306,-9.1356615e-06,5.419301e-07,-1.6278142e-05,-0.00042210377,0.00055225025,-0.04856742,4997,4997,0
148111066,148110560,2359306,2359306,-1.9384897e-05,4.9220894e-06,-1.1171403e-05,-0.00036397323,0.0005391136,-0.048827212,5000,5000,0
148611285,148610765,2359306,2359306,-1.7077185e-05,-4.382966e-06,-5.8495566e-06,-0.00044776805,0.00044538596,-0.04889225,5014,5014,0
149111615,149110946,2359306,2359306,-2.4788895e-05,-1.8807776e-06,-6.907976e-06,-0.00046598568,0.00043623423,-0.048784073,4994,4994,0
149611655,149611141,2359306,2359306,1.5895293e-06,-9.939283e-06,-9.806089e-06,-0.00049839995,0.0005100772,-0.048844267,5004,5004,0
150111874,150111334,2359306,2359306,-7.3819415e-06,2.5210544e-05,-6.80016e-05,-0.00069452537,0.0004037189,-0.04901737,5003,5003,0
150607030,150606525,2359306,2359306,-6.094479e-05,3.8775775e-06,-2.5096811e-05,-0.0006190988,0.0008392225,-0.048796717,5002,5002,0
151107240,151106723,2359306,2359306,-2.6150396e-05,-9.042232e-06,-1.5041764e-05,-0.00035864318,0.000549578,-0.048681878,5007,5007,0
151607469,151606915,2359306,2359306,1.569548e-05,-1.771713e-07,-1.71093e-05,-0.00046964825,0.00044654077,-0.04878755,5004,5004,0
152107641,152107114,2359306,2359306,1.00685265e-05,4.4559274e-06,-5.86961e-08,-0.0004590806,0.00056712446,-0.0488973,5004,5004,0
152607958,152607305,2359306,2359306,-2.3852363e-05,-8.7125443e-07,-1.6436854e-05,-0.0004706412,0.00046581484,-0.04872209,5005,5005,0
153108107,153107498,2359306,2359306,-1.8061017e-05,-3.9408174e-06,-1.8278482e-06,-0.00042900228,0.00042268066,-0.048793957,5002,5002,0
153608208,153607696,2359306,2359306,-3.4065302e-05,-3.3130518e-06,-1.5617046e-05,-0.0005402333,0.0005412734,-0.048790697,5002,5002,0
154108404,154107890,2359306,2359306,-3.4632062e-06,4.666642e-06,1.3603803e-06,-0.00035487337,0.00047233587,-0.048339706,4963,4963,0
154608615,154608098,2359306,2359306,9.567295e-06,-1.132272e-05,-9.631854e-06,-0.00041553605,0.00048293587,-0.048888873,5010,5010,0
155108795,155108283,2359306,2359306,-1.5876192e-05,-1.2357844e-05,6.42356e-07,-0.0005171765,0.0005445041,-0.048657022,5003,5003,0
155609043,155608481,2359306,2359306,-1.8761946e-05,1.3723817e-06,-1.9949908e-05,-0.00035974453,0.00045924852,-0.0487352,5005,5005,0
156109246,156108675,2359306,2359306,-3.8787457e-05,-3.3976203e-06,-9.788501e-06,-0.00047705715,0.000475731,-0.048581485,4995,4995,0
156609390,156608872,2359306,2359306,2.7104234e-06,-7.772398e-07,-6.011651e-06,-0.00043912375,0.000486407,-0.04889125,5002,5002,0
157109599,157109069,2359306,2359306,1.2497114e-05,6.2133597e-07,-1.6468983e-05,-0.00044035754,0.0006359366,-0.048724458,5002,5002,0
157609778,157609268,2359306,2359306,-2.0809244e-05,-1.2471454e-06,-9.767781e-06,-0.0003587878,0.0006256767,-0.04863999,4991,4991,0
158110035,158109465,2359306,2359306,-5.9681253e-05,-5.5349784e-07,2.301977e-06,-0.00047204853,0.00048242885,-0.04880785,4999,4999,0
158610179,158609663,2359306,2359306,-1.8945457e-05,-6.151081e-06,-5.2145483e-06,-0.00044036855,0.0004717959,-0.04865844,4991,4991,0
159110522,159109863,2359306,2359306,5.687425e-06,5.815491e-07,-1.0543833e-05,-0.00059963827,0.000513041,-0.048655126,5001,5001,0
159610731,159610063,2359306,2359306,-1.3049768e-05,-9.1153415e-06,-1.2197237e-05,-0.000365185,0.0005513378,-0.048663795,5004,5004,0
160110922,160110279,2359306,2359306,-5.5635068e-05,5.868307e-06,-1.2393441e-05,-0.00039268963,0.00036730882,-0.04883167,5000,5000,0
160611096,160610459,2359306,2359306,-1.2521801e-05,-3.0658314e-06,-1.3142853e-05,-0.0003685434,0.00037397823,-0.048719782,4998,4998,0
161111185,161110661,2359306,2359306,5.21726e-06,-8.768555e-06,-5.486717e-06,-0.00040902643,0.000559769,-0.048692927,5004,5004,0
162606784,162606257,2359306,2359306,-5.6698633e-07,-6.8190934e-06,-2.0767395e-07,-0.00042981186,0.0004939563,-0.048805412,4988,4988,0
163107060,163106457,2359306,2359306,-0.00025249508,-0.0006544568,-0.0013653459,-0.0015027198,0.001068757,-0.04973556,5001,5001,0
163607172,163606664,2359306,2359306,0.00014064304,0.0009193293,-0.0004310498,0.0016810095,-0.0013262061,-0.04823958,5000,5000,0
164107422,164106860,2359306,2359306,-7.02784e-05,6.976533e-05,-7.326139e-05,-0.0017477439,0.00039170467,-0.047894843,5005,5005,0
164607578,164607061,2359306,2359306,-1.0873364e-05,1.6620972e-05,-3.0527997e-05,-0.0013318001,-4.300092e-05,-0.04888575,5002,5002,0
165107932,165107260,2359306,2359306,7.5409234e-06,6.270616e-06,-1.3011724e-05,-0.00066701794,8.10306e-05,-0.048785016,4990,4990,0
165608033,165607463,2359306,2359306,-2.3228056e-06,3.3578588e-06,-7.671462e-06,-0.00067042554,6.814014e-05,-0.04863638,4995,4995,0
166108177,166107666,2359306,2359306,-1.0592544e-05,-4.199901e-06,-8.404999e-06,-0.000767401,0.000101249105,-0.048759114,5005,5005,0
166608386,166607866,2359306,2359306,-2.2238639e-05,-6.131056e-07,-8.66601e-06,-0.00067638676,0.00015270682,-0.048749227,5002,5002,0
167108623,167108067,2359306,2359306,-1.1080754e-05,8.203163e-06,-1.7842822e-05,-0.0007621662,-2.3789682e-06,-0.048836865,4999,4999,0
167608792,167608276,2359306,2359306,-6.647121e-06,-3.5918688e-06,-4.4172752e-06,-0.0007150091,2.3155244e-05,-0.0486367,4999,4999,0
168109035,168108475,2359306,2359306,-0.00027561508,-0.0002549429,0.00016339505,-0.001088511,0.00035110186,-0.04981829,5005,5005,0
168609203,168608675,2359306,2359306,0.00011102673,0.0011501645,-5.4261505e-05,-0.002162033,0.00226276,-0.048781343,4999,4999,0
170109806,170109289,2359306,2359306,-3.701768e-05,-2.7437952e-07,-1.6739277e-05,-0.00054818986,0.00034332564,-0.048651557,5003,5003,0
170610007,170609490,2359306,2359306,-0.00014393858,-4.5037214e-06,1.3900387e-06,-0.0005043617,0.00012612288,-0.04870425,4999,4999,0
171110202,171109694,2359306,2359306,-4.4817407e-06,-1.0889959e-05,-1.7766386e-05,-0.00054254796,-9.6903146e-05,-0.04878054,5002,5002,0
171610584,171609906,2359306,2359306,6.4019085e-05,-1.0266188e-05,-2.1547587e-05,-0.00047974224,0.0002515595,-0.048706874,5006,5006,0
172110823,172110116,2359306,2359306,-2.3264512e-05,-1.2082411e-06,-1.9779714e-05,-0.00043717338,0.00033280614,-0.0487115,5003,5003,0
172611008,172610338,2359306,2359306,-9.000725e-05,-3.9851216e-06,-2.3226853e-06,-0.00052970473,4.3920438e-05,-0.048641723,4991,4991,0
173111028,173110516,2359306,2359306,-3.0614334e-05,2.8517811e-06,-1.3280673e-05,-0.0004978403,-5.6292967e-05,-0.048825577,5003,5003,0
173611302,173610722,2359306,2359306,3.1449355e-05,2.751764e-06,-1.8834517e-05,-0.0005543062,0.000108055014,-0.04889074,5003,5003,0
174111484,174110926,2359306,2359306,-6.5446097e-06,-8.633169e-06,-2.3332457e-05,-0.0005275605,0.00026763137,-0.048712395,5001,5001,0
174611677,174611137,2359306,2359306,-4.8937713e-05,1.3581202e-06,-5.4740744e-06,-0.00054879184,0.00017608731,-0.048794687,5007,5007,0
175106857,175106336,2359306,2359306,-2.3436212e-05,2.2479082e-06,2.3075277e-06,-0.00042774947,7.517675e-05,-0.048607044,4999,4999,0
175607067,175606542,2359306,2359306,1.9068912e-05,1.6955863e-06,-7.945876e-06,-0.00044910482,0.000145093,-0.048556026,4991,4991,0
176607505,176606971,2359306,2359306,-2.4407598e-05,-4.062253e-06,-1.0518664e-05,-0.00061316456,0.00019588116,-0.048899565,5009,5009,0
177107688,177107163,2359306,2359306,-2.6936248e-05,-1.0745078e-05,-4.3660012e-07,-0.0006239094,7.5479543e-06,-0.048888914,5003,5003,0
177608049,177607369,2359306,2359306,-3.721154e-07,-1.677017e-05,-1.1533482e-05,-0.00048791835,0.0002002439,-0.048669074,5002,5002,0
178108093,178107586,2359306,2359306,-5.4044995e-06,-5.501335e-06,-1.0360123e-05,-0.00048234637,0.00021997686,-0.048775524,5012,5012,0
178608301,178607783,2359306,2359306,-1.6254862e-05,-5.0209246e-06,-1.0121755e-05,-0.0005238942,0.00015921379,-0.04860485,5000,5000,0
179108507,179107997,2359306,2359306,-2.1390955e-05,-3.7614573e-06,-1.6116594e-05,-0.0005228672,6.4401735e-05,-0.048714478,5006,5006,0
179608706,179608200,2359306,2359306,-1.4597223e-05,-4.0066748e-06,-8.922488e-06,-0.0005862505,6.498508e-05,-0.04884122,5004,5004,0
180108971,180108413,2359306,2359306,-1.5048161e-05,-6.8096e-06,-1.9102203e-05,-0.0006345691,0.00013185952,-0.048693072,4999,4999,0
180609124,180608616,2359306,2359306,-9.601027e-06,-2.4301369e-06,-9.892575e-06,-0.00031219394,0.00017690564,-0.048723932,4990,4990,0
182109755,182109245,2359306,2359306,-8.127359e-06,-6.3164543e-06,-1.5572004e-05,-0.00046166233,0.00018727014,-0.048838954,5005,5005,0
182610017,182609451,2359306,2359306,-2.5377576e-05,-1.151649e-05,-1.4945213e-05,-0.00054061937,0.00012422599,-0.048875023,5000,5000,0
183110182,183109670,2359306,2359306,-2.022017e-06,-6.248169e-06,-6.2140825e-06,-0.000559471,0.00026202895,-0.048685852,5002,5002,0
183610562,183609872,2359306,2359306,-7.306145e-06,-1.1516843e-06,-2.2930435e-05,-0.00047025562,0.00014331185,-0.048901312,5002,5002,0
184110766,184110084,2359306,2359306,-2.3482018e-05,-8.044318e-06,-9.900739e-06,-0.00065438804,0.00026425315,-0.048633236,5005,5005,0
184611024,184610338,2359306,2359306,-5.7970095e-07,7.8413395e-05,-8.203682e-05,0.001062143,-0.0006538766,-0.049554583,5045,5045,0
185111068,185110503,2359306,2359306,-5.3534226e-05,-9.681833e-05,6.181542e-05,-0.0010084733,0.00056326156,-0.050706733,5002,5002,0
185611247,185610724,2359306,2359306,1.9447614e-05,-1.4487267e-05,-4.502269e-05,8.980261e-05,-0.0005524297,-0.05005082,5011,5011,0
186111495,186110933,2359306,2359306,1.153874e-05,-4.290586e-05,0.0001672668,-0.0007139147,0.0007578346,-0.04842532,4999,4999,0
186611652,186611136,2359306,2359306,-2.0753885e-05,1.2182366e-05,-1.362974e-05,-5.1968767e-05,-9.387968e-05,-0.048568495,5002,5002,0
187107003,187106345,2359306,2359306,-5.481573e-06,-8.5864194e-05,-4.6449317e-05,0.0008076307,-0.00029799493,-0.04799846,5001,5001,0
187607116,187606557,2359306,2359306,-2.1685417e-05,-2.0592066e-05,-3.4051536e-05,6.685683e-05,0.0014375545,-0.048423436,4996,4996,0
188107299,188106773,2359306,2359306,-8.039239e-05,3.713016e-05,-1.466271e-06,-0.0011238802,0.0003508836,-0.048730265,5009,5009,0
188607533,188606981,2359306,2359306,-1.319324e-05,-7.0112965e-06,1.5603067e-05,-0.00040098457,-0.00068279536,-0.04914235,5002,5002,0
189107713,189107200,2359306,2359306,1.1607191e-05,4.3844797e-05,-1.8381561e-05,9.583057e-05,-0.00033622154,-0.047790796,5012,5012,0
189608074,189607412,2359306,2359306,-3.1561856e-05,2.1478361e-05,-3.352908e-06,-0.00029226497,9.591813e-05,-0.048542324,5012,5012,0
190108195,190107618,2359306,2359306,-1.1856261e-05,-1.9695797e-06,2.1795831e-06,0.0003843,0.0005312837,-0.048991997,5005,5005,0
190608368,190607835,2359306,2359306,-6.353536e-05,8.926962e-06,-2.0144418e-05,-0.000106774794,-0.0037284982,-0.048476294,4998,4998,0
191108576,191108040,2359306,2359306,8.105499e-05,3.5005127e-05,-2.8676151e-05,-0.00035514426,0.0007182399,-0.048395082,4999,4999,0
191608774,191608257,2359306,2359306,8.215978e-05,-2.8043707e-05,-2.5050018e-05,-0.003195242,0.00094052247,-0.04640177,5003,5003,0
192108976,192108470,2359306,2359306,-0.0002079736,3.9368715e-07,3.9511808e-05,0.00012282863,0.0017036259,-0.04763146,5005,5005,0
193609661,193609114,2359306,2359306,-1.8006776e-05,-1.7206636e-05,-5.0191364e-05,-0.0042022713,0.0034825169,-0.04950841,5006,5006,0
194109961,194109323,2359306,2359306,-7.8084755e-05,3.7011545e-05,-1.143213e-05,-0.00063082256,-0.0018269838,-0.04876223,4994,4994,0
194610058,194609541,2359306,2359306,0.00012452048,-1.3985027e-05,-1.7448305e-05,-0.0015554206,0.0029354924,-0.049255833,5007,5007,0
195110466,195109763,2359306,2359306,6.3509055e-05,4.6764395e-05,-5.0664363e-05,0.0009675675,0.0017529498,-0.04698011,5011,5011,0
195610577,195609972,2359306,2359306,-8.177993e-05,-2.6142949e-05,4.653213e-05,-6.5564986e-05,-0.00015782702,-0.0514291,5009,5009,0
196110809,196110180,2359306,2359306,0.00025384733,-0.00011290472,1.3441247e-05,0.00094209303,0.0028826029,-0.050528605,4987,4987,0
196611000,196610397,2359306,2359306,-0.0003386427,-9.165807e-05,8.8980865e-05,-0.0037359348,0.0010625874,-0.044928994,5003,5003,0
197111125,197110612,2359306,2359306,1.3476459e-05,0.00011410756,-0.00013700372,-0.0016496474,0.00029785224,-0.05180505,4992,4992,0
197611401,197610828,2359306,2359306,-0.00014276837,7.1412185e-05,-4.8518865e-05,5.243868e-05,0.0006564262,-0.05066626,5003,5003,0
198106695,198106041,2359306,2359306,0.00013461895,1.8762987e-05,-4.136485e-05,-0.0010285055,-0.002761115,-0.046050783,4999,4999,0
198611843,198611273,2359306,2359306,-3.8702216e-05,0.00014057921,-0.00012316999,-0.0031094656,0.002058055,-0.048914827,5016,5016,0
199107033,199106473,2359306,2359306,0.000103968014,-8.759938e-05,-3.131905e-05,-0.0026059677,0.0025713646,-0.046700954,5004,5004,0
199607259,199606691,2359306,2359306,0.000304642,1.564713e-05,-7.791863e-05,0.00087618263,0.0013204472,-0.04761924,5005,5005,0
200107473,200106905,2359306,2359306,-0.00021358719,9.3548464e-05,9.878085e-05,-0.0015237598,-3.515092e-05,-0.0488038,5003,5003,0
200607656,200607128,2359306,2359306,-0.000720544,-0.0008731445,-0.00024102861,0.024134383,0.0021808667,-0.056442767,5009,5009,0
201108037,201107356,2359306,2359306,-0.0007663115,2.506005e-05,0.0007814014,0.034299,-0.01574234,-0.032904252,5011,5011,0
201608207,201607583,2359306,2359306,0.00044244857,0.0027519863,5.539876e-05,0.009915636,-0.016442284,-0.093817994,5030,5030,0
202278408,202277847,2359306,2359306,-0.0007451142,-0.0013492904,-0.0015846934,0.028325895,-0.0058332593,-0.036479414,5002,5002,0
203608932,203608428,2359306,2359306,0.0018374061,-0.0013047947,4.1681713e-05,0.014311492,-0.0065916968,-0.042592023,5000,5000,0
204109167,204108646,2359306,2359306,0.0011845385,-0.00096768205,-0.00015952233,0.015928322,-0.0056795855,-0.014738643,4990,4990,0
204609416,204608861,2359306,2359306,0.0016756576,6.0306165e-06,0.00015281951,0.009129391,-0.009041739,-0.03129179,5002,5002,0
205109659,205109090,2359306,2359306,0.00036833814,0.0008638552,-0.00036217287,0.005500668,-0.012139741,-0.057938725,5013,5013,0
205609814,205609299,2359306,2359306,7.717806e-06,0.00093685987,-7.338604e-05,0.0043053892,-0.006377035,-0.077118196,5003,5003,0
206110039,206109521,2359306,2359306,0.00040788754,0.0009492878,-7.820531e-05,0.004911388,-0.009891708,-0.056375228,5005,5005,0
206610410,206609736,2359306,2359306,0.0016710014,-0.00016046347,-9.0854155e-05,0.011653348,-0.010017384,-0.029071387,5002,5002,0
207110671,207109979,2359306,2359306,-0.0007032077,-0.00019432008,0.00039576145,0.0056215744,-0.011948882,-0.050118767,5026,5026,0
207610779,207610180,2359306,2359306,-0.00062861113,0.00035533687,0.00053971907,0.0065976046,-0.009540247,-0.056013964,4992,4992,0
208611127,208610615,2359306,2359306,0.00020419428,5.2938944e-05,0.00015257321,0.012099009,-0.009560169,-0.048582766,5003,5003,0
209111414,209110835,2359306,2359306,0.0009559205,9.247056e-05,-0.00010192409,0.006742269,-0.00845765,-0.057651643,5001,5001,0
209611647,209611056,2359306,2359306,-0.0033791326,-0.00068069604,9.382803e-05,0.0054333834,-0.0112470435,-0.05200803,5003,5003,0
210111807,210111292,2359306,2359306,0.0031457706,-0.0006489784,0.00045306425,0.0150976125,-0.0041196933,-0.00048329317,5012,5012,0
210607037,210606493,2359306,2359306,0.0005182889,0.00041719078,0.00012239239,0.006543549,-0.01226608,-0.049544387,5001,5001,0
211107219,211106713,2359306,2359306,-0.0014396264,0.00038535072,0.00016925072,0.004628121,-0.016189305,-0.057889227,5000,5000,0
211607505,211606944,2359306,2359306,-0.00054008065,-1.1087558e-05,0.0005251263,0.0071952725,-0.014463928,-0.041090045,5014,5014,0
212107667,212107156,2359306,2359306,-0.00023573636,9.621327e-06,0.00052996824,0.009139056,-0.018382624,-0.05691228,5004,5004,0
212608024,212607376,2359306,2359306,2.9050609e-05,0.00041421258,-2.8066039e-05,0.003100467,-0.016592154,-0.04568786,5003,5003,0
213108134,213107598,2359306,2359306,-0.00084646075,0.0003167518,-0.00035350857,0.0048899185,-0.019280875,-0.06115085,5005,5005,0
213608335,213607817,2359306,2359306,-0.0022805938,0.0001090499,0.0005068709,0.008464662,-0.017251581,-0.06290268,4980,4980,0
214108707,214108038,2359306,2359306,-0.00191096,0.00038229788,0.00022551876,0.008875974,-0.011229822,-0.060697246,4999,4999,0
214608780,214608275,2359306,2359306,-0.00213028,0.00017447502,-0.0003036458,0.008907751,-0.009220402,-0.060565636,5003,5003,0
216109432,216108929,2359306,2359306,-0.0007077986,0.00021841908,-0.0007344758,0.011131672,-0.00041331758,-0.043302063,5007,5007,0
216609779,216609170,2359306,2359306,0.0018594975,0.00060386123,-0.001684485,0.006449562,-0.0015273562,-0.04821477,5023,5023,0
217109925,217109370,2359306,2359306,0.0011040256,0.0006011216,-0.0018636716,0.011404127,-0.005494612,-0.06377247,5002,5002,0
217610098,217609591,2359306,2359306,-0.00036342567,0.00022032882,-0.0013680392,0.00434537,-0.006634244,-0.050088763,5002,5002,0
218110555,218109827,2359306,2359306,-0.00069233665,0.00087765517,-0.00059915823,0.010066487,-0.0053129126,-0.062272366,5006,5006,0
218610616,218610039,2359306,2359306,-3.0306825e-05,0.0009847623,-0.0005461715,0.009465219,-0.0020389445,-0.06667162,5005,5005,0
219111039,219110273,2359306,2359306,-0.00023423886,0.0011157185,-0.00028022108,0.0042099506,0.0026236484,-0.056806754,4997,4997,0
219611022,219610484,2359306,2359306,0.0005837204,0.00080862665,-0.00017104844,0.012458297,0.0047380924,-0.063412584,5003,5003,0
220611503,220610930,2359306,2359306,-0.00041037865,0.00054480566,-0.00059433095,0.010560706,0.008976093,-0.05645128,4995,4995,0
221111676,221111153,2359306,2359306,-0.001205982,0.00020199866,-0.0005249285,0.011318373,0.008268646,-0.046592455,5002,5002,0
221607026,221606374,2359306,2359306,-0.002207385,0.00030590847,-0.0012086639,0.0101580275,0.010993633,-0.024224998,5001,5001,0
222107136,222106598,2359306,2359306,-0.0017215085,0.0010962533,-0.0011520041,0.009885565,0.007965083,-0.039907947,5003,5003,0
222607520,222606822,2359306,2359306,0.00018801083,0.0018559117,-0.0012496659,0.008329646,0.008797979,-0.05958642,5005,5005,0
223107603,223107045,2359306,2359306,0.0011414136,0.0015091819,-0.0010684234,0.0066008787,0.008262481,-0.04381992,5001,5001,0
223607940,223607282,2359306,2359306,0.0020636069,0.0015218441,-0.0022584528,0.007047054,0.011103337,-0.068392985,5000,5000,0
224108079,224107492,2359306,2359306,0.0031101701,0.0013733087,-0.0028101958,0.006638664,0.0062720585,-0.08243264,5003,5003,0
225608740,225608166,2359306,2359306,0.0004532803,0.0009842315,-0.0006987655,0.006921594,0.0012243263,-0.06282942,5002,5002,0
226108930,226108399,2359306,2359306,0.0028726798,-0.00033211635,-0.0013418465,0.008277537,0.0036854127,-0.04704102,5007,5007,0
226609166,226608614,2359306,2359306,0.0029627995,-0.00030778846,-0.001502816,0.008323401,-0.0011111096,-0.04073887,4992,4992,0
227109428,227108837,2359306,2359306,-0.0019808218,-0.00055009685,0.00010081248,0.0042971764,-0.007402478,-0.036001325,5002,5002,0
227609647,227609061,2359306,2359306,-0.00085912034,-5.3487693e-05,0.0003726111,0.0042920783,-0.004892072,-0.045168158,5002,5002,0
228109884,228109292,2359306,2359306,-9.414298e-06,-7.8330355e-05,0.00031464812,0.0058105662,0.00022114058,-0.04558185,5008,5008,0
228610053,228609511,2359306,2359306,0.002935049,-4.3324475e-05,-0.0003830112,0.0053472826,0.0065361247,-0.05404916,4999,4999,0
229110508,229109736,2359306,2359306,0.0024005666,-0.00026282005,-0.0010858645,0.008983332,0.0037626645,-0.03534507,4996,4996,0
229610641,229609975,2359306,2359306,-0.000636616,-0.00013705448,-0.00083591713,0.008962815,-0.0041228514,-0.045247663,5016,5016,0
230110999,230110194,2359306,2359306,-0.0022923374,-0.0002292161,0.0004965878,0.0055412515,-0.006657699,-0.051878348,4984,4984,0
230611125,230610425,2359306,2359306,-0.0009340594,7.302445e-05,0.00019363577,0.0026752246,-0.004111359,-0.07012335,5013,5013,0
231111249,231110652,2359306,2359306,0.00023194434,0.00010769711,-0.00015333357,0.00053329463,-0.0033556535,-0.060652018,5015,5015,0
231611412,231610867,2359306,2359306,0.0014248051,-1.5724574e-05,-0.000713266,0.0020095566,0.00087837724,-0.040912993,5001,5001,0
233607435,233606771,2359306,2359306,0.0003147213,0.0005593298,-0.00023648533,-0.012400478,-0.007852112,-0.061998803,5009,5009,0
234107513,234107004,2359306,2359306,0.002270546,0.00021864488,-0.0008506779,-0.00692839,-0.001636453,-0.04700648,5012,5012,0
234607730,234607220,2359306,2359306,0.00058409444,-2.4578826e-06,-0.00076587824,-0.004997306,-0.002857075,-0.03756698,4996,4996,0
235108132,235107446,2359306,2359306,0.0003035213,-0.00053368794,-0.0009536159,-0.00040490832,-0.004151188,-0.028125033,5003,5003,0
235608188,235607673,2359306,2359306,-0.0011014754,-0.00041579045,-0.00050018105,0.0014377855,-0.006067766,-0.05693638,5005,5005,0
236608657,236608137,2359306,2359306,-0.00040962728,-0.00040849712,-0.00052145845,0.007909434,-0.00493119,-0.043827757,5008,5008,0
237108941,237108365,2359306,2359306,-0.00012422717,8.8140456e-05,-0.00077401265,-2.721856e-05,-0.009290097,-0.06033121,5017,5017,0
237609084,237608580,2359306,2359306,-0.0019080194,0.0002274104,-0.00058301585,-0.0018434249,-0.007403935,-0.052871875,4994,4994,0
238109321,238108804,2359306,2359306,-0.000467254,0.0006526575,-0.0006389765,5.896613e-05,-0.0010705257,-0.049640547,5002,5002,0
238609557,238609031,2359306,2359306,-0.00016437437,0.0010758453,-0.00080572895,0.0022356545,-0.002474818,-0.07105681,5002,5002,0
239109773,239109270,2359306,2359306,0.00070212106,0.00081762555,-0.0010211655,-0.00588271,-0.00037525303,-0.059755344,5012,5012,0
239610014,239609486,2359306,2359306,0.00021676485,0.00030051408,-0.00094004074,0.0017091852,-0.00089529256,-0.053734235,4993,4993,0
240110233,240109713,2359306,2359306,0.000119162025,0.0003190689,-0.0007156234,0.0016648221,0.00036536326,-0.05231596,5002,5002,0
240610556,240609951,2359306,2359306,-0.00016300048,0.00041761983,-0.0004980957,-0.0054620076,0.0018763164,-0.047697913,5012,5012,0
241110795,241110170,2359306,2359306,-0.0011966176,0.00037797095,8.67679e-05,-0.0013859157,0.0022579841,-0.05123494,5003,5003,0
241610945,241610397,2359306,2359306,-0.0010365915,-5.144622e-05,-7.665004e-06,0.0026926736,0.006618938,-0.042185217,5002,5002,0
242111221,242110626,2359306,2359306,-0.002691169,0.00030950896,-0.00017998213,0.00016598759,0.00836466,-0.032197908,5003,5003,0
242611434,242610853,2359306,2359306,-0.0018844284,0.0004101496,-0.0014403926,0.0022198372,0.014302686,-0.040076382,5001,5001,0
243111613,243111081,2359306,2359306,0.0015381469,0.0015047735,-0.0023057591,-0.0036634265,0.009421916,-0.059596688,5003,5003,0
243611825,243611319,2359306,2359306,0.0018844195,0.0017566184,-0.0018529837,-0.00234537,0.006220888,-0.07893071,5013,5013,0
244107107,244106535,2359306,2359306,0.0009915371,0.0013363903,-0.0010037225,-0.004792812,0.0011117543,-0.08896999,5003,5003,0
244607283,244606763,2359306,2359306,-0.0011895783,0.00032109066,-0.0006089686,-0.004519005,0.0048768534,-0.046485413,5004,5004,0
245107559,245106993,2359306,2359306,-0.00094139227,-0.00031628433,-0.0002840475,-0.005270917,0.009640023,-0.03021773,5003,5003,0
245607728,245607221,2359306,2359306,-0.0008545374,-0.00027812488,-0.00085045665,0.0016817885,0.009018538,-0.03448262,5005,5005,0
246108034,246107447,2359306,2359306,0.0008312529,-0.0003240337,-0.0011806686,-0.005235448,0.01090408,-0.032647688,5003,5003,0
248609093,248608590,2359306,2359306,-0.0013669316,5.369359e-05,0.0012172374,-0.003449111,-0.005148837,-0.049241472,5000,5000,0
249109400,249108819,2359306,2359306,-0.00047908074,3.0462508e-05,0.0008565746,-0.005766128,0.003465651,-0.0435369,5003,5003,0
249609563,249609048,2359306,2359306,0.0011645643,-0.00015851978,3.4991284e-05,-0.005999508,0.006427224,-0.040891033,5003,5003,0
250109794,250109282,2359306,2359306,0.00027050852,4.967838e-05,-0.00016816736,-0.0048594954,0.0029877399,-0.047958627,4983,4983,0
250610035,250609517,2359306,2359306,0.0005228756,7.836803e-05,-0.00031632656,-0.0027579714,0.00031708417,-0.05168414,4993,4993,0
251110403,251109761,2359306,2359306,-0.0003386519,0.00017379088,-0.00019348843,-0.0016011682,-0.005528832,-0.056500148,5019,5019,0
251610613,251609972,2359306,2359306,-0.0007246238,0.0001225098,-2.0849404e-05,-0.00378932,-0.0069798105,-0.052476667,5001,5001,0
252110794,252110194,2359306,2359306,-0.00076736254,0.00024304794,-1.31207e-05,-0.007888797,-0.007640396,-0.052551344,4988,4988,0
252611056,252610425,2359306,2359306,-0.00011139802,-0.00020393507,-0.0004632083,-0.005886679,-0.013025196,-0.037993282,4996,4996,0
253111204,253110655,2359306,2359306,-0.00051343394,0.000100626006,-0.0004917312,-0.0005295417,-0.010616321,-0.055824544,5003,5003,0
253611396,253610884,2359306,2359306,0.0005045245,0.0017702725,-0.0014462247,-0.008094808,-0.018358773,-0.07334133,4999,4999,0
254111731,254111125,2359306,2359306,-0.0003700995,-0.0014470229,-0.0005003888,-0.0026828018,-0.018029826,-0.036778707,5011,5011,0
254606915,254606342,2359306,2359306,0.0014431549,-0.0027176002,0.0012907847,0.0072178566,-0.007683588,0.04114548,5002,5002,0
255107504,255106571,2359306,2359306,0.0021378614,0.0023675342,-0.00053191883,-0.0062865117,-0.007259213,-0.066954136,5003,5003,0
255607332,255606802,2359306,2359306,-0.0018044702,0.002826539,-0.0012485521,-0.0061830804,-0.01924783,-0.12685634,5005,5005,0
256107536,256107033,2359306,2359306,-0.0019640455,-0.0008916373,0.00038705821,-0.0026323395,-0.018661825,-0.041817762,5002,5002,0
256607968,256607279,2359306,2359306,0.0005683788,-0.0050235223,0.0012015463,0.011161154,-0.0040074154,0.07233208,5021,5021,0
257108029,257107493,2359306,2359306,0.0003862954,0.0015418747,-0.0005583867,-0.0024178368,-0.0035586017,-0.05480371,5005,5005,0
257608256,257607724,2359306,2359306,-0.0022851431,0.0024966386,-0.0018885453,-0.00958826,-0.019327892,-0.123578385,5005,5005,0
258108538,258107952,2359306,2359306,-0.003368844,-0.0008793031,0.0003641119,-0.007971135,-0.021155607,-0.048740868,5002,5002,0
258608768,258608184,2359306,2359306,-0.0009517062,0.0013206053,-0.0001307247,-0.005841473,-0.007929167,-0.0716944,5002,5002,0
259108927,259108415,2359306,2359306,-0.000350087,0.0014009117,-0.0017953443,-0.0048753535,-0.00972257,-0.087790154,5005,5005,0
259609170,259608652,2359306,2359306,-0.0030401703,0.00015325456,-0.000969626,-0.0024813563,-0.013451113,-0.053274263,5009,5009,0
260109382,260108873,2359306,2359306,2.7169242e-05,0.0013570096,-0.0009411638,-0.0022818653,-0.0046237404,-0.06615179,4993,4993,0
260609632,260609110,2359306,2359306,0.001158347,0.0021018314,-0.0019097013,-0.0023605353,-0.0075279763,-0.09302975,5005,5005,0
261109979,261109335,2359306,2359306,-0.00032583726,0.0017037826,-0.0018390896,-0.0004979976,-0.009589973,-0.068833075,5003,5003,0
261610082,261609567,2359306,2359306,0.00073949865,0.0013233967,-0.001630804,-0.0018461649,-0.0083578,-0.07467263,4992,4992,0
263611123,263610494,2359306,2359306,0.00027727496,-0.00024378019,-0.0003650895,-0.0020885821,0.0015980217,-0.034075104,5006,5006,0
264111246,264110722,2359306,2359306,-0.0013492513,0.00048127817,0.0002676491,0.0027790884,0.0058048903,-0.052915115,5002,5002,0
264611485,264610954,2359306,2359306,-0.00089440687,9.497663e-05,-0.00014252169,-0.00040913728,0.01482164,-0.03755094,4994,4994,0
265106885,265106182,2359306,2359306,-0.00048757493,0.00013679195,-0.00079154834,0.00056175975,0.010587386,-0.047842,4996,4996,0
265607053,265606423,2359306,2359306,-0.0011649159,0.00059469725,-0.0009204597,-0.001492482,0.01791003,-0.034130473,5012,5012,0
266107195,266106650,2359306,2359306,-0.0012703242,0.00093853986,-0.00074026827,0.0037383768,0.016460229,-0.048046116,4999,4999,0
266607440,266606878,2359306,2359306,0.0008551078,0.001376595,-0.0013300393,0.00059303106,0.006561408,-0.06613709,5006,5006,0
267107628,267107112,2359306,2359306,-0.00045986508,0.0011503584,-0.0008936793,-0.0024253402,0.016409684,-0.060013298,5006,5006,0
268108196,268107576,2359306,2359306,0.00013521111,0.00112515,-0.0011291497,-0.0002504164,0.016451372,-0.057373717,5009,5009,0
268608321,268607803,2359306,2359306,0.0016048999,0.00080088055,-0.0013827089,-0.008103011,0.013939846,-0.058223486,4967,4967,0
269108601,269108036,2359306,2359306,0.0014376976,0.0011188916,-0.0007175913,-0.008629209,0.0072146826,-0.06359966,5003,5003,0
269608801,269608272,2359306,2359306,0.0025233333,-0.00039660343,-0.000699261,-0.007350603,0.013317741,-0.050998494,5009,5009,0
270109027,270108499,2359306,2359306,0.0015642553,-0.00042589387,-0.0008121784,-0.004631398,0.010479947,-0.049530804,5006,5006,0
270609331,270608728,2359306,2359306,0.0014902748,-0.00017775291,-0.00045886528,-0.0070374226,0.005389192,-0.04302809,5001,5001,0
271109471,271108961,2359306,2359306,0.00029341682,-2.2117001e-06,0.0006215203,-0.0095209805,0.005317112,-0.048997276,5004,5004,0
271609711,271609195,2359306,2359306,0.0004897379,-0.0002451661,0.00051277183,-0.00920966,0.011749823,-0.036724642,5006,5006,0
272109994,272109424,2359306,2359306,-0.0011353103,0.00016764214,-0.0016794726,-0.0061490363,0.0016353403,-0.048788402,5001,5001,0
272610165,272609656,2359306,2359306,-0.0010989583,-2.0764774e-06,0.0013780983,-0.003033557,-0.004966237,-0.052560583,5003,5003,0
274110953,274110388,2359306,2359306,0.00022367836,0.00030713977,0.0022087845,-0.0074965507,0.003715669,-0.04882085,5035,5035,0
274611159,274610586,2359306,2359306,0.0016604341,-0.00070802,-0.0013240854,-0.0054071844,0.013008165,-0.039034728,4995,4995,0
275111333,275110818,2359306,2359306,-0.0016357709,0.00013261028,-0.0010121239,-0.0116331745,-0.006580562,-0.054814503,5002,5002,0
275611570,275611052,2359306,2359306,-0.00090708485,0.00074802974,-3.5475765e-05,-0.00849228,-0.0038153802,-0.07306745,5000,5000,0
276106811,276106281,2359306,2359306,0.0006858991,0.00063609,-0.00021242502,-0.012664452,-0.0013745154,-0.08535159,4989,4989,0
276607021,276606514,2359306,2359306,-0.0010759425,0.00023090557,0.00055019103,-0.008916196,0.00804772,-0.05110153,4995,4995,0
277107318,277106755,2359306,2359306,0.0055429214,-0.0006495125,-0.002177876,-0.0071258754,0.0022627902,-0.023902394,5014,5014,0
277607517,277606988,2359306,2359306,-0.0040444783,-0.00013890064,-0.0010940647,8.657056e-05,-0.013740693,-0.057540894,5004,5004,0
278107720,278107210,2359306,2359306,-0.0047258055,-0.00019255353,0.0026327693,-0.0052420446,-0.0061278343,-0.054210614,4997,4997,0
278608008,278607444,2359306,2359306,0.0050183255,-0.0004795349,-0.0011475531,2.5315987e-05,0.0063672275,-0.031046502,5005,5005,0
279108190,279107677,2359306,2359306,0.0031692511,-0.00042871144,-0.002593034,-0.0016941894,-0.0015855178,-0.04119897,5005,5005,0
279608422,279607907,2359306,2359306,-0.0030219879,-0.0008338468,-0.0005259197,0.0044771116,-0.016647575,-0.042461034,5002,5002,0
280108651,280108141,2359306,2359306,-0.0003146298,0.00023579613,0.000880981,-0.0024248823,-0.006445437,-0.039636433,5002,5002,0
280608882,280608375,2359306,2359306,0.004681872,0.0004428757,-0.0024834368,-0.003409121,-0.013191628,-0.060764376,5006,5006,0
281109215,281108607,2359306,2359306,0.0022535578,-0.00074281637,-0.0012449082,0.0014945145,-0.026008373,-0.010039847,5002,5002,0
281609358,281608837,2359306,2359306,-0.00343851,-0.0007295514,0.002201158,0.0014709621,-0.012890436,-0.016636208,5001,5001,0
282609928,282609313,2359306,2359306,-0.0020768105,0.0009643068,-3.0182928e-05,-0.0045301802,0.0020939314,-0.07657028,5012,5012,0
283110077,283109540,2359306,2359306,-0.0034050131,0.00038464696,-6.692761e-05,-0.008019185,-0.0024409962,-0.06371981,5005,5005,0
283610481,283609769,2359306,2359306,-0.0031101666,0.00027057322,-8.3268336e-05,-0.005067093,0.0026145705,-0.036218613,5003,5003,0
284110674,284110013,2359306,2359306,0.0017508701,0.0006065418,-0.0017843981,-0.0059637474,0.0025979765,-0.044409905,5014,5014,0
284610971,284610235,2359306,2359306,0.00072367926,0.00035313173,-0.0021228536,-0.007159266,-0.002289933,-0.048168812,5002,5002,0
285111009,285110470,2359306,2359306,0.00020993318,0.000307915,-0.0015633972,-0.006561868,-0.007951912,-0.05323367,5003,5003,0
285611213,285610703,2359306,2359306,-0.00010558337,0.00016004895,-0.0012339335,-0.006403654,-0.008964757,-0.035713844,4990,4990,0
286111486,286110937,2359306,2359306,-0.000545767,0.0005579596,-0.0010056994,-0.0063253874,-0.0070726527,-0.06774236,4989,4989,0
286611752,286611168,2359306,2359306,-3.2084652e-05,0.00063439435,-0.0011380897,-0.011513205,-0.009613163,-0.06540927,5001,5001,0
287107058,287106400,2359306,2359306,0.00014519723,0.0005216608,-0.0009332799,-0.009416581,-0.005996998,-0.03631235,5001,5001,0
287607142,287606633,2359306,2359306,0.0008855515,0.00045010078,-0.0010887705,-0.0054485393,0.0008276751,-0.055676777,5004,5004,0
288107445,288106867,2359306,2359306,-0.00025060464,0.00030248574,-0.0009260388,-0.009737932,-0.008195011,-0.074561775,5005,5005,0
288607632,288607103,2359306,2359306,-0.0007642553,0.00021052505,-0.0002742947,-0.006165918,-0.006007239,-0.0607168,5005,5005,0
289107997,289107343,2359306,2359306,0.0007496919,0.00030476745,-0.00045588342,-0.011236849,0.00041190215,-0.050186176,5014,5014,0
289608117,289607573,2359306,2359306,-0.00027059612,0.00021626701,-0.0004175251,-0.018717024,0.0010462146,-0.041205507,5004,5004,0
290108425,290107840,2359306,2359306,-0.0030658797,0.0002911507,8.170156e-05,-0.020521117,0.0028475197,-0.03923466,5043,5043,0
290608628,290608031,2359306,2359306,-0.0029474117,0.00041958137,0.0009587521,-0.017161632,0.0053287093,-0.05311706,4999,4999,0
291108786,291108280,2359306,2359306,0.0025565033,-0.00025565218,-0.0017446656,-0.005586917,0.0069507137,-0.046880327,4989,4989,0
291609007,291608501,2359306,2359306,0.0015914844,7.44515e-05,-0.0018250104,-0.008485658,0.0005011516,-0.04785061,5005,5005,0
293609992,293609433,2359306,2359306,0.0005502377,-8.395819e-05,-0.00037856115,-0.007680451,0.009735769,-0.05286301,5000,5000,0
294110186,294109677,2359306,2359306,-0.0016001376,-0.00022742887,-0.001319286,-0.004209582,0.0031496391,-0.025858253,5014,5014,0
294610585,294609900,2359306,2359306,-0.0010761116,0.0009436534,-0.00030952136,-0.007616631,-0.003554579,-0.08595152,5001,5001,0
295110716,295110138,2359306,2359306,0.0013759489,0.00022100838,-0.00078509597,-0.008500795,0.010679662,-0.063649565,4994,4994,0
295610952,295610368,2359306,2359306,-0.0002683641,5.4767737e-05,-0.0017584239,-0.016491795,0.0038370942,-0.03545576,5000,5000,0
296111215,296110628,2359306,2359306,-0.0021568972,0.00090039754,-0.00037285482,-0.016019285,-0.0014743631,-0.06840606,5028,5028,0
296611404,296610836,2359306,2359306,0.002227934,8.072141e-05,-0.0009941111,-0.009266833,0.008177193,-0.04757663,5003,5003,0
297111585,297111071,2359306,2359306,-0.00037211142,0.0008067633,-0.00097574265,-0.019849777,0.003017714,-0.07701699,5004,5004,0
297607018,297606301,2359306,2359306,-0.0016722252,0.000715135,-3.9312807e-05,-0.0117283985,0.0007749916,-0.07490594,4993,4993,0
298112053,298111535,2359306,2359306,0.00027467846,-0.00030845293,-0.00047200243,-0.016096305,0.000504174,-0.018571118,4993,4993,0
298607432,298606771,2359306,2359306,0.00036127513,-2.3004948e-05,-0.0008148645,-0.00819279,0.0023153604,-0.05464262,5007,5007,0
299107511,299107002,2359306,2359306,0.0010400211,0.00043274683,-0.0006912735,-0.009919266,-0.00082486373,-0.06675553,4982,4982,0
299607898,299607237,2359306,2359306,0.0009978974,-0.00024378106,-0.00034726635,-0.007948957,0.004970374,-0.04287278,5003,5003,0
300108059,300107473,2359306,2359306,-0.0009772277,1.510298e-05,-0.0003200385,-0.0067113657,-0.003158584,-0.04798872,5007,5007,0
300608214,300607709,2359306,2359306,-0.003139284,0.00040583836,0.00032484328,-0.012008422,-0.0047359453,-0.047579113,5010,5010,0
301108453,301107939,2359306,2359306,0.0017111755,0.00020366732,-0.00017819775,-0.0065671285,0.010782231,-0.045600757,5003,5003,0
301608675,301608171,2359306,2359306,0.003570346,-0.00021843826,-0.0016126065,-0.01134176,0.0022626123,-0.037513796,4994,4994,0
303609693,303609107,2359306,2359306,0.0066931318,-0.0005541867,-0.0027318404,-0.0009556333,-0.0028368882,-0.02273528,5002,5002,0
304109939,304109339,2359306,2359306,-0.0025152783,-0.00021306294,-0.0009399845,-0.0021999923,-0.022046117,-0.044562437,4988,4988,0
304610092,304609573,2359306,2359306,-0.004306695,0.00042836065,0.0018278962,-0.009278999,-0.010613912,-0.08169243,5002,5002,0
305110505,305109807,2359306,2359306,0.0018596784,-9.167329e-05,9.6443755e-06,-0.0070660845,0.003929927,-0.041507762,5001,5001,0
305610765,305610044,2359306,2359306,0.0038943102,-1.7057637e-05,-0.0025944684,-0.0059462423,-0.006636187,-0.047817606,5006,5006,0
306110962,306110280,2359306,2359306,-0.00070483505,-0.0010677539,7.0471186e-05,-0.0021477595,-0.019492233,-0.016600676,4996,4996,0
306611077,306610510,2359306,2359306,-0.0034987584,0.00039293265,0.0016512788,-0.005649867,-0.009438522,-0.06833382,5001,5001,0
307111278,307110756,2359306,2359306,0.004709062,0.00077222934,-0.0014639879,-0.00681544,-0.0035451846,-0.06765933,5014,5014,0
307611493,307610980,2359306,2359306,0.004439762,7.27088e-05,-0.0028653415,0.0021069911,-0.0208139,-0.03244447,5003,5003,0
309607471,309606914,2359306,2359306,-0.0016328506,0.0020317324,-0.0015231759,0.0024109597,-0.016246293,-0.065667816,5005,5005,0
310107687,310107155,2359306,2359306,-0.0015945506,0.00018457364,-0.00050998357,0.0034234289,-0.023795798,-0.0956113,5009,5009,0
310608071,310607384,2359306,2359306,0.00026775175,-0.0067252456,0.0013654011,0.021288827,-0.0027223914,0.06959115,5005,5005,0
311108149,311107617,2359306,2359306,0.0023279018,0.0010256838,5.7527348e-05,0.006952562,-0.00039896063,-0.024874447,5005,5005,0
311608435,311607889,2359306,2359306,0.00072229403,0.004181956,-0.0019649777,0.003952439,-0.009065048,-0.12783974,5013,5013,0
312108653,312108082,2359306,2359306,-0.00164198,0.00079755165,-0.0017403803,0.011621893,-0.019183375,-0.1044005,5001,5001,0
312608846,312608321,2359306,2359306,-0.0007643173,-0.005884694,0.0008987,0.023884613,-0.009075415,0.046428096,4998,4998,0
313109086,313108551,2359306,2359306,-0.0003214399,0.00022161119,0.00019232983,0.007186614,-0.0044410597,-0.036788758,4992,4992,0
313609310,313608788,2359306,2359306,-0.00093931024,0.0011447936,-0.0005326028,0.0058664493,-0.0032762685,-0.07575116,5004,5004,0
314109540,314109028,2359306,2359306,-0.0013800305,0.0010386456,-0.0004235101,0.00985852,-0.0003979331,-0.071669936,5011,5011,0
314609766,314609257,2359306,2359306,-0.0017884881,0.0007308479,-0.00025886061,0.003471749,0.005055079,-0.04544427,5006,5006,0
315110014,315109490,2359306,2359306,-0.0016840084,0.0008367433,-0.0008024012,0.01009923,0.005747484,-0.0497602,5002,5002,0
315610230,315609723,2359306,2359306,-0.0004208939,0.0015190147,-0.0013263898,0.002174926,0.0078361565,-0.039503045,5003,5003,0
316110605,316109972,2359306,2359306,0.002407447,0.0017598759,-0.0021878232,0.005864849,0.008284043,-0.08216287,5018,5018,0
316610772,316610191,2359306,2359306,0.0005890367,0.00041329343,-0.0019252017,0.003480311,0.0030689018,-0.0643639,4987,4987,0
317111061,317110428,2359306,2359306,-0.0008318359,0.0013103394,-0.0016862926,0.0014236877,-0.00028705702,-0.061967507,5004,5004,0
317611232,317610662,2359306,2359306,0.0004915525,0.0014124607,-0.0021512706,0.0019174058,-0.0005934975,-0.06486357,5003,5003,0
318111407,318110896,2359306,2359306,-9.970925e-05,0.0011143966,-0.0016834965,0.00013604887,-0.003267682,-0.06257663,5003,5003,0
318611653,318611133,2359306,2359306,0.00052936433,0.00094440335,-0.0010081303,-0.00063429563,-0.001973835,-0.06256593,5002,5002,0
319111926,319111363,2359306,2359306,0.00083651673,0.00083904836,-0.00097580993,-0.018141594,0.0013496544,-0.042267162,5001,5001,0
319607112,319606597,2359306,2359306,0.00065486005,0.0005878675,-0.0011619303,-0.02090711,0.0032054642,-0.050407685,5005,5005,0
320107445,320106838,2359306,2359306,0.0020520354,-9.59237e-05,-0.00025348976,-0.012447211,0.006276816,-0.052317914,5011,5011,0
320607580,320607065,2359306,2359306,0.0012957529,-0.0006096549,-0.0014734424,-0.009562406,0.0044570514,-0.03844439,5002,5002,0
321107989,321107298,2359306,2359306,-0.00290605,0.00010550848,-0.0006866114,-0.010768475,0.0014043093,-0.040041286,5002,5002,0
321608128,321607554,2359306,2359306,-0.0021170743,0.0009119319,0.000935606,-0.010649877,0.00526408,-0.0530442,5024,5024,0
322108282,322107768,2359306,2359306,0.00056091987,-2.2774335e-05,-0.00077372894,-0.008908615,0.01043041,-0.04173665,4989,4989,0
322608514,322608005,2359306,2359306,0.0007101773,-0.0004301008,-0.0027446263,-0.0106156,0.0058947667,-0.04661809,5004,5004,0
323108755,323108244,2359306,2359306,-0.00013311386,0.00034985595,-0.0015076372,-0.010584997,-0.0010051886,-0.05102541,5007,5007,0
323609054,323608473,2359306,2359306,0.00041627276,0.0003699172,-0.00024755314,-0.011311428,0.00030151478,-0.05346456,5005,5005,0
324109274,324108705,2359306,2359306,0.0010230313,-8.687131e-05,-2.700956e-05,-0.011821933,0.004066358,-0.05219931,4999,4999,0
324609445,324608939,2359306,2359306,0.0032449146,-0.00017146577,-0.0007643307,-0.011562211,0.0037167573,-0.050945614,5002,5002,0
327110897,327110114,2359306,2359306,0.0003237312,-0.00025616982,0.00026613977,-0.011532295,0.0052125743,-0.049213298,4990,4990,0
327611014,327610351,2359306,2359306,-0.00040709914,3.6374495e-06,-1.7470491e-05,-0.011103829,0.003306129,-0.04422512,4986,4986,0
328111129,328110583,2359306,2359306,-0.0006589003,-8.6312466e-05,0.000101984064,-0.011327017,0.001428913,-0.044663347,5003,5003,0
328611342,328610817,2359306,2359306,0.00038917194,8.277625e-05,-0.0004146472,-0.009880174,0.0008851862,-0.04828631,4999,4999,0
329111569,329111053,2359306,2359306,-0.00036973634,4.7426052e-05,-0.00044936137,-0.011096236,-0.0018880891,-0.046949837,5004,5004,0
329606906,329606284,2359306,2359306,2.9098132e-06,0.0001301822,-0.00034868356,-0.011394855,-0.0016506998,-0.05178901,4990,4990,0
330112042,330111528,2359306,2359306,-0.0018288568,5.08789e-05,0.00010584616,-0.011703861,-0.0034838766,-0.048637193,5000,5000,0
330607321,330606761,2359306,2359306,-0.0018568254,8.908388e-05,0.0005460666,-0.010953647,0.00021181098,-0.043120217,5012,5012,0
331107517,331106993,2359306,2359306,-0.0011126873,-0.0001008521,0.00015698795,-0.010604828,0.0053213253,-0.038844764,5007,5007,0
331607730,331607223,2359306,2359306,-0.00081496424,0.00016307792,-0.00067384035,-0.011242755,0.005452007,-0.046530034,5005,5005,0
332108128,332107459,2359306,2359306,-0.001029955,0.0002862494,-0.0010440794,-0.010510537,0.0059198854,-0.04001019,5006,5006,0
332608257,332607697,2359306,2359306,-0.00086654886,0.0015401909,-0.0010669442,-0.011490634,0.005084632,-0.056529596,5010,5010,0
333108444,333107924,2359306,2359306,0.00055849727,0.0010420468,-0.0019670904,-0.012383642,0.003311939,-0.06562533,5001,5001,0
333608732,333608172,2359306,2359306,-0.00061863835,0.0010675592,-0.0017926923,-0.0117459,-0.00086547027,-0.062050216,5014,5014,0
334108908,334108396,2359306,2359306,-4.128294e-05,0.0009733707,-0.00112676,-0.011710805,-0.0011861302,-0.060982235,5004,5004,0
334609156,334608636,2359306,2359306,-0.00028021692,0.00096414133,-0.0009804962,-0.012126613,-0.00088330806,-0.06267887,5008,5008,0
335109432,335108862,2359306,2359306,0.001611322,0.00032272952,-0.0013264759,-0.012720674,0.00068406726,-0.054518644,5001,5001,0
335609612,335609108,2359306,2359306,0.00026605377,0.00047718585,-0.0012460854,-0.012241781,-0.003137593,-0.06057362,5014,5014,0
336109927,336109337,2359306,2359306,-0.00042705165,0.00023296803,-0.0005751535,-0.0114462795,-0.0032728692,-0.05095056,5008,5008,0
336610080,336609566,2359306,2359306,1.7078008e-05,-2.4422841e-05,-0.00019106519,-0.010080423,-0.00093042996,-0.03367908,4995,4995,0
337110474,337109801,2359306,2359306,0.0013702575,-0.00018961218,-0.0008283884,-0.011201827,-0.0002855265,-0.04960284,5001,5001,0
337610784,337610039,2359306,2359306,0.0005011214,8.184874e-06,-0.00096700084,-0.0107295485,-0.0015620858,-0.053290233,5006,5006,0
338110808,338110278,2359306,2359306,-6.320255e-05,-9.170155e-05,-0.00033903896,-0.010847605,-0.003248258,-0.04943617,4998,4998,0
338611113,338610507,2359306,2359306,-0.0011601312,-9.942742e-05,0.00025989907,-0.011000871,-0.0017593849,-0.051151667,5003,5003,0
339111355,339110762,2359306,2359306,0.00045005966,-0.00014579631,0.0003062231,-0.011481841,0.0024804226,-0.04058488,5023,5023,0
339611488,339610976,2359306,2359306,0.00032136546,-9.607861e-05,-0.000606432,-0.010498991,0.00063892495,-0.044717416,5002,5002,0
340111725,340111219,2359306,2359306,0.0013833083,6.1496435e-06,-0.00083942735,-0.010652131,-0.00078848586,-0.038692214,5010,5010,0
340606956,340606443,2359306,2359306,0.0015075925,-0.00012228191,-0.0019102152,-0.011734472,-0.0062757824,-0.058224898,5001,5001,0
341107248,341106681,2359306,2359306,-0.0013567356,-0.0002507182,-0.00019644795,-0.009574877,-0.010604892,-0.039651934,5007,5007,0
341607507,341606914,2359306,2359306,0.0010546661,0.00034608535,0.00036085045,-0.0117785605,-0.0064015887,-0.045398585,5005,5005,0
342107673,342107149,2359306,2359306,0.0025585752,-0.00010519114,-0.0011064344,-0.009565668,-0.0075582224,-0.027495986,4997,4997,0
342608061,342607382,2359306,2359306,-0.0012178179,0.0002551883,3.66669e-05,-0.012202398,-0.010353115,-0.057279374,5002,5002,0
343108181,343107619,2359306,2359306,-0.0011974022,5.827986e-05,0.0009518097,-0.012389401,-0.008094272,-0.04760752,5006,5006,0
343608427,343607859,2359306,2359306,0.0008792068,9.0068475e-05,-0.0002201632,-0.011754372,-0.004699144,-0.042452592,4996,4996,0
344108599,344108090,2359306,2359306,-0.00022272377,2.727246e-05,-0.00043677448,-0.010907158,-0.0065627643,-0.045016456,5004,5004,0
344608838,344608323,2359306,2359306,-0.00067752786,0.00019527912,-0.00030361954,-0.011765265,-0.0083491625,-0.05221464,5005,5005,0
345109060,345108555,2359306,2359306,0.0004461775,-4.8090045e-05,-0.00037137416,-0.011805056,-0.007404179,-0.052287888,4978,4978,0
345609321,345608799,2359306,2359306,-0.0022402573,-0.00015462896,-0.00011580714,-0.010462664,-0.009352012,-0.058074176,5011,5011,0
346609783,346609279,2359306,2359306,0.0020270231,0.00023761849,-0.001652509,-0.012703908,-0.0089599695,-0.05841709,5021,5021,0
347110028,347109495,2359306,2359306,-0.00028330908,-0.000109665096,-0.0007326209,-0.0109961275,-0.00978861,-0.039786927,4997,4997,0
347610247,347609743,2359306,2359306,-0.00059671694,-0.000402259,-0.00011440892,-0.010131762,-0.010819142,-0.038065314,5011,5011,0
348110560,348109972,2359306,2359306,-0.0012010509,0.0003069888,-0.00021393762,-0.010236479,-0.009990906,-0.048103075,5009,5009,0
348610863,348610200,2359306,2359306,-0.00025949365,0.000108589185,-0.0006560079,-0.010277573,-0.0066770464,-0.04730574,5000,5000,0
349111002,349110438,2359306,2359306,-0.0003208659,-0.00031542088,-0.001286142,-0.011140602,-0.012518602,-0.06342443,5004,5004,0
349611235,349610672,2359306,2359306,0.0011253513,8.937131e-05,5.9335536e-05,-0.009777908,-0.0147751095,-0.03553434,4990,4990,0
350111430,350110907,2359306,2359306,0.0011298266,0.00064767734,8.573772e-05,-0.010794951,-0.008581095,-0.05832217,4993,4993,0
351111931,351111378,2359306,2359306,-0.0027245663,6.3365595e-05,0.0011562746,-0.009759442,-0.008698651,-0.05081529,4997,4997,0
351607117,351606609,2359306,2359306,-0.0010769456,0.0006407732,-0.00071720517,-0.008957566,-0.0060257805,-0.07066508,5002,5002,0
352107692,352106845,2359306,2359306,-0.0016211842,-0.00014778593,-0.0016596772,-0.010294698,-0.006019674,-0.051609837,5005,5005,0
352607596,352607077,2359306,2359306,-0.0013510324,-0.0009644189,-0.0010913601,-0.007840112,-0.0074751438,-0.034918625,4994,4994,0
353608070,353607567,2359306,2359306,-0.0013566874,-0.0004467681,-0.0011257007,-0.005319173,-0.016833946,-0.048649978,5022,5022,0
354108434,354107784,2359306,2359306,0.0026687733,0.00010050256,0.00041946364,-0.005529766,-0.010284405,-0.022565056,4982,4982,0
354608537,354608018,2359306,2359306,-0.0010797441,0.00045012333,0.00053420116,-0.0047957767,-0.011877382,-0.04794482,5001,5001,0
355108796,355108253,2359306,2359306,-0.0017271284,0.0014401956,0.00091146753,-0.0042726775,-0.010128355,-0.06216225,4999,4999,0
356609552,356608959,2359306,2359306,-0.005319388,-0.0014300799,0.00087596953,-0.004942793,-0.012253063,-0.03829242,5003,5003,0
357109725,357109196,2359306,2359306,-0.0008639183,-3.0766474e-05,0.0018968651,-0.0032056668,-0.0032447367,-0.043199293,4996,4996,0
357610062,357609438,2359306,2359306,0.004679181,-0.00040178464,-0.001064416,-0.00086549803,-0.0033200881,-0.05381717,5009,5009,0
358110173,358109664,2359306,2359306,0.0020323708,-1.7073771e-05,-0.0013437701,-0.002637394,-0.0055705686,-0.035291884,5001,5001,0
358610552,358609900,2359306,2359306,-0.0015818218,-0.0014330465,-0.0001186279,-0.0028887505,-0.006158217,-0.034238897,5001,5001,0
359110817,359110136,2359306,2359306,-0.0070509515,0.0010780415,-0.00046470427,-0.0058112275,-0.003892931,-0.06040486,4991,4991,0
359610947,359610370,2359306,2359306,-0.006456573,0.0014457954,-0.005759696,-0.009051345,-0.00626209,-0.019099034,5000,5000,0
360111188,360110605,2359306,2359306,0.006801828,-0.0020709082,-0.0022868677,-0.011563825,-0.086677246,-0.06181893,4994,4994,0
360611432,360610846,2359306,2359306,-0.005559579,-0.0026116692,-0.00027273982,-0.016305575,-0.02731074,-0.07056147,5007,5007,0
361111608,361111082,2359306,2359306,0.0038662609,-0.0009025901,-0.0003670531,-5.7810008e-05,0.019254152,-0.039917327,5006,5006,0
361611824,361611317,2359306,2359306,-0.0020470994,-7.2262883e-06,0.00022519846,-0.0002272963,0.0011226531,-0.05121243,5009,5009,0
362107123,362106543,2359306,2359306,-0.00039273236,3.307676e-05,7.4455056e-05,-0.001701614,-0.0027545425,-0.048469413,4988,4988,0
362607291,362606779,2359306,2359306,0.0011623495,2.632194e-05,-0.00014411726,-0.0009970373,0.0009659202,-0.048559062,4994,4994,0
364108049,364107481,2359306,2359306,0.00012093436,3.7874585e-07,-3.251763e-05,-0.00093181245,0.0001391841,-0.048705634,5002,5002,0
364608358,364607717,2359306,2359306,0.00039363754,-2.9505895e-06,-5.6792192e-05,-0.0009161308,0.0014540794,-0.048683602,5003,5003,0
365108508,365107952,2359306,2359306,-0.000110974506,-4.8720967e-06,-7.831504e-06,-0.001031,0.0018510006,-0.048660543,5002,5002,0
