timestamp,voltage_v,voltage_filtered_v,current_a,current_filtered_a,average_current_a,discharged_mah,remaining,scale,temperature,cell_count,voltage_cell_v[0],voltage_cell_v[1],voltage_cell_v[2],voltage_cell_v[3],max_cell_voltage_delta,capacity,cycle_count,run_time_to_empty,average_time_to_empty,serial_number,connected,system_source,priority,is_powering_off,warning
93440342,16.65633,16.642881,38.9856,38.97225,0.0,976.4228,0.9214409,1.0094405,0.0,4,0.0,0.0,0.0,0.0,0.0,0,0,0,0,0,1,1,0,0,0
93943561,16.607683,16.637653,38.9608,38.97196,0.0,981.8703,0.9188269,1.0097578,0.0,4,0.0,0.0,0.0,0.0,0.0,0,0,0,0,0,1,1,0,0,0
94447406,16.617413,16.63051,38.9608,38.971474,0.0,987.3245,0.91525537,1.0101914,0.0,4,0.0,0.0,0.0,0.0,0.0,0,0,0,0,0,1,1,0,0,0
94950647,16.617413,16.624418,38.973198,38.97143,0.0,992.77246,0.91220933,1.0105616,0.0,4,0.0,0.0,0.0,0.0,0.0,0,0,0,0,0,1,1,0,0,0
95453978,16.607683,16.620571,38.973198,38.973503,0.0,998.2216,0.9102858,1.0107956,0.0,4,0.0,0.0,0.0,0.0,0.0,0,0,0,0,0,1,1,0,0,0
95945110,16.588226,16.617315,38.9856,38.972424,0.0,1003.5385,0.90865785,1.0109936,0.0,4,0.0,0.0,0.0,0.0,0.0,0,0,0,0,0,1,1,0,0,0
96445154,16.597956,16.616781,38.973198,38.970474,0.0,1008.95135,0.9083908,1.011026,0.0,4,0.0,0.0,0.0,0.0,0.0,0,0,0,0,0,1,1,0,0,0
96948334,16.617413,16.615593,38.9608,38.97131,0.0,1014.3986,0.9077967,1.0110984,0.0,4,0.0,0.0,0.0,0.0,0.0,0,0,0,0,0,1,1,0,0,0
97451530,16.597956,16.615828,38.9856,38.972515,0.0,1019.84625,0.907914,1.0110841,0.0,4,0.0,0.0,0.0,0.0,0.0,0,0,0,0,0,1,1,0,0,0
97955497,16.597956,16.615877,38.9608,38.974648,0.0,1025.3026,0.9079388,1.0110811,0.0,4,0.0,0.0,0.0,0.0,0.0,0,0,0,0,0,1,1,0,0,0
98458678,16.597956,16.616606,38.9856,38.974525,0.0,1030.75,0.9083031,1.0110368,0.0,4,0.0,0.0,0.0,0.0,0.0,0,0,0,0,0,1,1,0,0,0
98962740,16.636871,16.61687,38.9608,38.974792,0.0,1036.2072,0.90843564,1.0110207,0.0,4,0.0,0.0,0.0,0.0,0.0,0,0,0,0,0,1,1,0,0,0
99465958,16.597956,16.616253,38.9856,38.97449,0.0,1041.6549,0.90812665,1.0110582,0.0,4,0.0,0.0,0.0,0.0,0.0,0,0,0,0,0,1,1,0,0,0
99969161,16.607683,16.614845,38.9856,38.974876,0.0,1047.1025,0.90742284,1.0111439,0.0,4,0.0,0.0,0.0,0.0,0.0,0,0,0,0,0,1,1,0,0,0
100461128,16.607683,16.615047,38.973198,38.974003,0.0,1052.4285,0.90752393,1.0111315,0.0,4,0.0,0.0,0.0,0.0,0.0,0,0,0,0,0,1,1,0,0,0
100964615,16.617413,16.61513,38.9856,38.97613,0.0,1057.8801,0.90756494,1.0111266,0.0,4,0.0,0.0,0.0,0.0,0.0,0,0,0,0,0,1,1,0,0,0
101467554,16.607683,16.61426,38.9608,38.974697,0.0,1063.325,0.90713006,1.0111796,0.0,4,0.0,0.0,0.0,0.0,0.0,0,0,0,0,0,1,1,0,0,0
101971471,16.597956,16.613802,38.9608,38.972317,0.0,1068.7799,0.9069012,1.0112073,0.0,4,0.0,0.0,0.0,0.0,0.0,0,0,0,0,0,1,1,0,0,0
102474711,16.607683,16.614613,38.9856,38.97392,0.0,1074.2279,0.9073065,1.011158,0.0,4,0.0,0.0,0.0,0.0,0.0,0,0,0,0,0,1,1,0,0,0
102977924,16.578497,16.613972,38.973198,38.973778,0.0,1079.6754,0.90698606,1.0111971,0.0,4,0.0,0.0,0.0,0.0,0.0,0,0,0,0,0,1,1,0,0,0
103481926,16.636871,16.614204,38.9608,38.976254,0.0,1085.1324,0.9071024,1.0111829,0.0,4,0.0,0.0,0.0,0.0,0.0,0,0,0,0,0,1,1,0,0,0
103973170,16.617413,16.61447,38.973198,38.9759,0.0,1090.451,0.90723497,1.0111668,0.0,4,0.0,0.0,0.0,0.0,0.0,0,0,0,0,0,1,1,0,0,0
104476288,16.607683,16.615362,38.9608,38.97334,0.0,1095.8973,0.9076813,1.0111125,0.0,4,0.0,0.0,0.0,0.0,0.0,0,0,0,0,0,1,1,0,0,0
104980314,16.617413,16.615187,38.9856,38.97544,0.0,1101.3547,0.90759355,1.0111231,0.0,4,0.0,0.0,0.0,0.0,0.0,0,0,0,0,0,1,1,0,0,0
105483398,16.617413,16.615559,38.9856,38.975002,0.0,1106.801,0.9077795,1.0111005,0.0,4,0.0,0.0,0.0,0.0,0.0,0,0,0,0,0,1,1,0,0,0
105986721,16.607683,16.615496,38.973198,38.975246,0.0,1112.2502,0.90774804,1.0111043,0.0,4,0.0,0.0,0.0,0.0,0.0,0,0,0,0,0,1,1,0,0,0
107985131,16.607683,16.612688,38.9856,38.976574,0.0,1133.8857,0.90634423,1.0112752,0.0,4,0.0,0.0,0.0,0.0,0.0,0,0,0,0,0,1,1,0,0,0
108488335,16.578497,16.610298,38.973198,38.97737,0.0,1139.3337,0.9170645,1.0099717,0.0,4,0.0,0.0,0.0,0.0,0.0,0,0,0,0,0,1,1,0,0,0
108991560,16.461746,16.58528,38.998,38.977333,0.0,1144.7817,0.9372204,1.00753,0.0,4,0.0,0.0,0.0,0.0,0.0,0,0,0,0,0,1,1,0,0,0
109495535,15.916913,16.470581,38.9608,38.974903,0.0,1150.2377,0.9357622,1.0077063,0.0,4,0.0,0.0,0.0,0.0,0.0,0,0,0,0,0,1,1,0,0,0
109986709,15.848809,16.36285,38.9856,38.97354,0.0,1155.5548,0.93208486,1.008151,0.0,4,0.0,0.0,0.0,0.0,0.0,0,0,0,0,0,1,1,0,0,0
110490680,16.023933,16.248398,38.973198,38.971924,0.0,1161.0099,0.9175957,1.0099072,0.0,4,0.0,0.0,0.0,0.0,0.0,0,0,0,0,0,1,1,0,0,0
110993937,15.761247,16.160488,38.9856,38.973415,0.0,1166.4581,0.9010275,1.011923,0.0,4,0.0,0.0,0.0,0.0,0.0,0,0,0,0,0,1,1,0,0,0
111493177,15.887726,16.094633,38.973198,38.973225,0.0,1171.8629,0.8887909,1.0134168,0.0,4,0.0,0.0,0.0,0.0,0.0,0,0,0,0,0,1,1,0,0,0
111997105,15.819622,16.060495,38.9608,38.972263,0.0,1177.3181,0.88388234,1.0140172,0.0,4,0.0,0.0,0.0,0.0,0.0,0,0,0,0,0,1,1,0,0,0
112500251,15.809893,15.99062,38.9608,38.970573,0.0,1182.7646,0.86330587,1.0165423,0.0,4,0.0,0.0,0.0,0.0,0.0,0,0,0,0,0,1,1,0,0,0
113003608,15.761247,15.926952,38.9856,38.96877,0.0,1188.2131,0.8427227,1.0190808,0.0,4,0.0,0.0,0.0,0.0,0.0,0,0,0,0,0,1,1,0,0,0
113507493,16.111496,15.901818,38.9856,38.966812,0.0,1193.667,0.83456594,1.0200902,0.0,4,0.0,0.0,0.0,0.0,0.0,0,0,0,0,0,1,1,0,0,0
113998692,15.498559,15.875056,38.9608,38.967648,0.0,1198.9839,0.82687455,1.0210439,0.0,4,0.0,0.0,0.0,0.0,0.0,0,0,0,0,0,1,1,0,0,0
114498343,16.169872,15.889333,38.9608,38.966515,0.0,1204.392,0.8304451,1.0206009,0.0,4,0.0,0.0,0.0,0.0,0.0,0,0,0,0,0,1,1,0,0,0
115001151,15.926642,15.844788,38.9484,38.968315,0.0,1209.8351,0.8125685,1.0228225,0.0,4,0.0,0.0,0.0,0.0,0.0,0,0,0,0,0,1,1,0,0,0
115505167,15.741789,15.819109,38.9484,38.967247,0.0,1215.2905,0.80292016,1.0240256,0.0,4,0.0,0.0,0.0,0.0,0.0,0,0,0,0,0,1,1,0,0,0
116008202,15.800163,15.794402,38.9856,38.966072,0.0,1220.7352,0.79448014,1.0250802,0.0,4,0.0,0.0,0.0,0.0,0.0,0,0,0,0,0,1,1,0,0,0
116498714,15.858539,15.792145,38.9608,38.969246,0.0,1226.0452,0.79337484,1.0252185,0.0,4,0.0,0.0,0.0,0.0,0.0,0,0,0,0,0,1,1,0,0,0
117003514,15.877996,15.780729,38.9856,38.96729,0.0,1231.5089,0.7894171,1.025714,0.0,4,0.0,0.0,0.0,0.0,0.0,0,0,0,0,0,1,1,0,0,0
117502672,15.809893,15.777335,38.9484,38.967575,0.0,1236.9121,0.7880867,1.0258807,0.0,4,0.0,0.0,0.0,0.0,0.0,0,0,0,0,0,1,1,0,0,0
118005994,15.926642,15.751303,38.973198,38.967316,0.0,1242.3595,0.7766779,1.027312,0.0,4,0.0,0.0,0.0,0.0,0.0,0,0,0,0,0,1,1,0,0,0
118510011,15.761247,15.737442,39.0228,38.96816,0.0,1247.8151,0.7701605,1.0281316,0.0,4,0.0,0.0,0.0,0.0,0.0,0,0,0,0,0,1,1,0,0,0
119013185,15.72233,15.727719,38.9608,38.96636,0.0,1253.2611,0.76565343,1.028699,0.0,4,0.0,0.0,0.0,0.0,0.0,0,0,0,0,0,1,1,0,0,0
119505142,15.994747,15.736181,38.973198,38.967655,0.0,1258.5864,0.7686079,1.028327,0.0,4,0.0,0.0,0.0,0.0,0.0,0,0,0,0,0,1,1,0,0,0
120008375,15.965559,15.720128,38.9484,38.965538,0.0,1264.0333,0.76144105,1.02923,0.0,4,0.0,0.0,0.0,0.0,0.0,0,0,0,0,0,1,1,0,0,0
120511428,15.469372,15.714371,38.9608,38.96528,0.0,1269.478,0.75887567,1.0295537,0.0,4,0.0,0.0,0.0,0.0,0.0,0,0,0,0,0,1,1,0,0,0
121015490,15.410996,15.711788,38.9608,38.967094,0.0,1274.9344,0.75664026,1.0298358,0.0,4,0.0,0.0,0.0,0.0,0.0,0,0,0,0,0,1,1,0,0,0
121518638,15.916913,15.7032385,38.973198,38.966137,0.0,1280.3804,0.75245935,1.0303639,0.0,4,0.0,0.0,0.0,0.0,0.0,0,0,0,0,0,1,1,0,0,0
122009851,15.751517,15.695344,38.973198,38.966972,0.0,1285.6975,0.74882776,1.0308231,0.0,4,0.0,0.0,0.0,0.0,0.0,0,0,0,0,0,1,1,0,0,0
122514031,15.712601,15.691492,38.973198,38.96903,0.0,1291.1554,0.7452772,1.0312724,0.0,4,0.0,0.0,0.0,0.0,0.0,0,0,0,0,0,1,1,0,0,0
123017044,15.712601,15.690438,38.9484,38.96583,0.0,1296.5997,0.74548227,1.0312464,0.0,4,0.0,0.0,0.0,0.0,0.0,0,0,0,0,0,1,1,0,0,0
123520382,15.809893,15.6915865,38.9608,38.968307,0.0,1302.0487,0.7462471,1.0311496,0.0,4,0.0,0.0,0.0,0.0,0.0,0,0,0,0,0,1,1,0,0,0
124022849,15.654226,15.672593,38.936,38.9668,0.0,1307.487,0.7374981,1.0322583,0.0,4,0.0,0.0,0.0,0.0,0.0,0,0,0,0,0,1,1,0,0,0
124515951,15.819622,15.674885,38.9856,38.965645,0.0,1312.8242,0.7387541,1.032099,0.0,4,0.0,0.0,0.0,0.0,0.0,0,0,0,0,0,1,1,0,0,0
125018594,15.469372,15.668898,38.973198,38.96521,0.0,1318.2648,0.7363375,1.0324055,0.0,4,0.0,0.0,0.0,0.0,0.0,0,0,0,0,0,1,1,0,0,0
125521936,15.887726,15.663931,38.9608,38.967506,0.0,1323.7131,0.7348822,1.0325903,0.0,4,0.0,0.0,0.0,0.0,0.0,0,0,0,0,0,1,1,0,0,0
126025971,15.527747,15.6556,38.9608,38.96448,0.0,1329.168,0.7300442,1.0332047,0.0,4,0.0,0.0,0.0,0.0,0.0,0,0,0,0,0,1,1,0,0,0
126525047,15.37208,15.6392,38.9856,38.966637,0.0,1334.5707,0.72191316,1.034239,0.0,4,0.0,0.0,0.0,0.0,0.0,0,0,0,0,0,1,1,0,0,0
127029113,15.479101,15.642595,38.9856,38.967224,0.0,1340.0267,0.72258455,1.0341536,0.0,4,0.0,0.0,0.0,0.0,0.0,0,0,0,0,0,1,1,0,0,0
127532392,15.518018,15.646763,38.9856,38.967117,0.0,1345.4746,0.72529966,1.033808,0.0,4,0.0,0.0,0.0,0.0,0.0,0,0,0,0,0,1,1,0,0,0
128035650,15.459642,15.639137,38.9856,38.967327,0.0,1350.9222,0.72040254,1.0344315,0.0,4,0.0,0.0,0.0,0.0,0.0,0,0,0,0,0,1,1,0,0,0
128526679,15.566664,15.636994,38.973198,38.964096,0.0,1356.2363,0.7191828,1.0345869,0.0,4,0.0,0.0,0.0,0.0,0.0,0,0,0,0,0,1,1,0,0,0
129026754,15.352622,15.633935,38.9856,38.96659,0.0,1361.6495,0.71798116,1.03474,0.0,4,0.0,0.0,0.0,0.0,0.0,0,0,0,0,0,1,1,0,0,0
129529934,15.82935,15.627889,38.9856,38.967415,0.0,1367.0962,0.7164114,1.0349401,0.0,4,0.0,0.0,0.0,0.0,0.0,0,0,0,0,0,1,1,0,0,0
130033950,15.819622,15.625933,38.973198,38.969322,0.0,1372.5524,0.71459657,1.0351716,0.0,4,0.0,0.0,0.0,0.0,0.0,0,0,0,0,0,1,1,0,0,0
130537023,15.547205,15.612405,38.9856,38.96636,0.0,1377.9972,0.7071522,1.0361221,0.0,4,0.0,0.0,0.0,0.0,0.0,0,0,0,0,0,1,1,0,0,0
131040237,15.537476,15.611641,38.9608,38.965614,0.0,1383.4438,0.70699865,1.0361418,0.0,4,0.0,0.0,0.0,0.0,0.0,0,0,0,0,0,1,1,0,0,0
131531418,15.7320595,15.623537,38.9608,38.966198,0.0,1388.7605,0.71181184,1.035527,0.0,4,0.0,0.0,0.0,0.0,0.0,0,0,0,0,0,1,1,0,0,0
132035642,15.586122,15.6317425,38.9484,38.966488,0.0,1394.218,0.71433717,1.0352046,0.0,4,0.0,0.0,0.0,0.0,0.0,0,0,0,0,0,1,1,0,0,0
132538736,15.751517,15.600276,38.9608,38.96719,0.0,1399.6641,0.70199376,1.0367818,0.0,4,0.0,0.0,0.0,0.0,0.0,0,0,0,0,0,1,1,0,0,0
133042016,15.440185,15.603647,38.973198,38.96888,0.0,1405.1119,0.70343953,1.0365969,0.0,4,0.0,0.0,0.0,0.0,0.0,0,0,0,0,0,1,1,0,0,0
133533890,15.547205,15.605901,38.9856,38.968197,0.0,1410.436,0.7027958,1.0366791,0.0,4,0.0,0.0,0.0,0.0,0.0,0,0,0,0,0,1,1,0,0,0
134037107,15.469372,15.527335,38.9608,38.966785,0.0,1415.8824,0.6716431,1.0406803,0.0,4,0.0,0.0,0.0,0.0,0.0,0,0,0,0,0,1,1,0,0,0
134539513,15.284517,15.625758,38.9608,38.970352,0.0,1421.3213,0.7064608,1.0362105,0.0,4,0.0,0.0,0.0,0.0,0.0,0,0,0,0,0,1,1,0,0,0
135044375,15.858539,15.617884,38.973198,38.9699,0.0,1426.7863,0.70493394,1.0364057,0.0,4,0.0,0.0,0.0,0.0,0.0,0,0,0,0,0,1,1,0,0,0
135547573,15.313705,15.588439,38.936,38.967297,0.0,1432.2329,0.6944092,1.0377533,0.0,4,0.0,0.0,0.0,0.0,0.0,0,0,0,0,0,1,1,0,0,0
136050688,15.2164135,15.576588,38.9608,38.96491,0.0,1437.6785,0.6870125,1.0387025,0.0,4,0.0,0.0,0.0,0.0,0.0,0,0,0,0,0,1,1,0,0,0
136542799,15.60558,15.577514,38.9608,38.966377,0.0,1443.0059,0.6885336,1.0385071,0.0,4,0.0,0.0,0.0,0.0,0.0,0,0,0,0,0,1,1,0,0,0
137045951,15.37208,15.582156,38.9484,38.967636,0.0,1448.452,0.69004613,1.0383129,0.0,4,0.0,0.0,0.0,0.0,0.0,0,0,0,0,0,1,1,0,0,0
137549924,15.547205,15.5766735,38.9856,38.96846,0.0,1453.9076,0.68734723,1.0386595,0.0,4,0.0,0.0,0.0,0.0,0.0,0,0,0,0,0,1,1,0,0,0
138053065,15.761247,15.564338,38.973198,38.967045,0.0,1459.3535,0.68299466,1.0392188,0.0,4,0.0,0.0,0.0,0.0,0.0,0,0,0,0,0,1,1,0,0,0
138552367,15.693143,15.5734215,38.9608,38.96635,0.0,1464.7578,0.6873129,1.0386639,0.0,4,0.0,0.0,0.0,0.0,0.0,0,0,0,0,0,1,1,0,0,0
139055523,15.323434,15.5482855,38.9856,38.965076,0.0,1470.2037,0.676133,1.0401018,0.0,4,0.0,0.0,0.0,0.0,0.0,0,0,0,0,0,1,1,0,0,0
139547479,15.72233,15.554565,38.9608,38.966034,0.0,1475.5286,0.67925054,1.0397004,0.0,4,0.0,0.0,0.0,0.0,0.0,0,0,0,0,0,1,1,0,0,0
140050751,15.6834135,15.555221,38.9856,38.966084,0.0,1480.9758,0.6787279,1.0397676,0.0,4,0.0,0.0,0.0,0.0,0.0,0,0,0,0,0,1,1,0,0,0
140549820,15.440185,15.574051,38.9608,38.967182,0.0,1486.3782,0.6882494,1.0385436,0.0,4,0.0,0.0,0.0,0.0,0.0,0,0,0,0,0,1,1,0,0,0
141053937,15.537476,15.559218,38.9856,38.96948,0.0,1491.8351,0.6825312,1.0392784,0.0,4,0.0,0.0,0.0,0.0,0.0,0,0,0,0,0,1,1,0,0,0
141557183,15.790434,15.560313,38.973198,38.969597,0.0,1497.283,0.6834095,1.0391655,0.0,4,0.0,0.0,0.0,0.0,0.0,0,0,0,0,0,1,1,0,0,0
142060361,15.469372,15.562562,38.9856,38.96727,0.0,1502.7291,0.6841286,1.039073,0.0,4,0.0,0.0,0.0,0.0,0.0,0,0,0,0,0,1,1,0,0,0
142552304,15.6834135,15.567235,38.9608,38.967094,0.0,1508.054,0.6852501,1.0389289,0.0,4,0.0,0.0,0.0,0.0,0.0,0,0,0,0,0,1,1,0,0,0
143055490,15.527747,15.558198,38.9856,38.9674,0.0,1513.5004,0.6824034,1.0392948,0.0,4,0.0,0.0,0.0,0.0,0.0,0,0,0,0,0,1,1,0,0,0
143558684,15.634768,15.546815,38.9856,38.967068,0.0,1518.9468,0.6769226,1.0400001,0.0,4,0.0,0.0,0.0,0.0,0.0,0,0,0,0,0,1,1,0,0,0
144061838,15.294247,15.539747,38.9608,38.96649,0.0,1524.393,0.6701868,1.040868,0.0,4,0.0,0.0,0.0,0.0,0.0,0,0,0,0,0,1,1,0,0,0
144561853,15.498559,15.524418,38.936,38.967117,0.0,1529.8053,0.66463643,1.0415845,0.0,4,0.0,0.0,0.0,0.0,0.0,0,0,0,0,0,1,1,0,0,0
145061117,15.469372,15.510058,38.9484,38.966644,0.0,1535.2092,0.65784436,1.0424623,0.0,4,0.0,0.0,0.0,0.0,0.0,0,0,0,0,0,1,1,0,0,0
145565180,15.206684,15.522631,38.973198,38.96829,0.0,1540.6658,0.6641157,1.0416517,0.0,4,0.0,0.0,0.0,0.0,0.0,0,0,0,0,0,1,1,0,0,0
146068345,15.469372,15.52183,38.9856,38.96812,0.0,1546.112,0.66343385,1.0417398,0.0,4,0.0,0.0,0.0,0.0,0.0,0,0,0,0,0,1,1,0,0,0
146559590,15.537476,15.52501,38.936,38.96534,0.0,1551.4287,0.66460496,1.0415885,0.0,4,0.0,0.0,0.0,0.0,0.0,0,0,0,0,0,1,1,0,0,0
147062786,15.352622,15.531788,38.9484,38.96711,0.0,1556.8755,0.6677626,1.0411808,0.0,4,0.0,0.0,0.0,0.0,0.0,0,0,0,0,0,1,1,0,0,0
147566773,15.498559,15.524647,38.9608,38.96546,0.0,1562.3301,0.6658247,1.041431,0.0,4,0.0,0.0,0.0,0.0,0.0,0,0,0,0,0,1,1,0,0,0
148065923,15.479101,15.520999,38.9608,38.965572,0.0,1567.7329,0.6643742,1.0416183,0.0,4,0.0,0.0,0.0,0.0,0.0,0,0,0,0,0,1,1,0,0,0
148569822,15.508288,15.527662,38.9856,38.965733,0.0,1573.1866,0.66671354,1.0413163,0.0,4,0.0,0.0,0.0,0.0,0.0,0,0,0,0,0,1,1,0,0,0
149073133,15.625038,15.527486,38.9608,38.96889,0.0,1578.635,0.66761285,1.0412002,0.0,4,0.0,0.0,0.0,0.0,0.0,0,0,0,0,0,1,1,0,0,0
149564355,15.518018,15.516346,38.973198,38.96907,0.0,1583.9523,0.66290647,1.0418079,0.0,4,0.0,0.0,0.0,0.0,0.0,0,0,0,0,0,1,1,0,0,0
150067537,15.459642,15.461183,38.9856,38.967655,0.0,1589.3986,0.6403702,1.044728,0.0,4,0.0,0.0,0.0,0.0,0.0,0,0,0,0,0,1,1,0,0,0
150571394,15.819622,15.519227,38.9856,38.969543,0.0,1594.8527,0.6634186,1.0417417,0.0,4,0.0,0.0,0.0,0.0,0.0,0,0,0,0,0,1,1,0,0,0
151075116,15.459642,15.505883,38.9608,38.96728,0.0,1600.3042,0.65720826,1.0425447,0.0,4,0.0,0.0,0.0,0.0,0.0,0,0,0,0,0,1,1,0,0,0
151573924,15.566664,15.511813,38.9856,38.967037,0.0,1605.7032,0.66102964,1.0420505,0.0,4,0.0,0.0,0.0,0.0,0.0,0,0,0,0,0,1,1,0,0,0
152077936,15.566664,15.517661,38.973198,38.96756,0.0,1611.1592,0.6638153,1.0416905,0.0,4,0.0,0.0,0.0,0.0,0.0,0,0,0,0,0,1,1,0,0,0
152581094,15.712601,15.526238,38.9856,38.967274,0.0,1616.6056,0.6688383,1.0410421,0.0,4,0.0,0.0,0.0,0.0,0.0,0,0,0,0,0,1,1,0,0,0
153080295,15.576392,15.489929,38.9608,38.96711,0.0,1622.0089,0.6538122,1.0429844,0.0,4,0.0,0.0,0.0,0.0,0.0,0,0,0,0,0,1,1,0,0,0
153584335,15.498559,15.506018,38.973198,38.968872,0.0,1627.4651,0.65797406,1.0424457,0.0,4,0.0,0.0,0.0,0.0,0.0,0,0,0,0,0,1,1,0,0,0
154075567,15.527747,15.498319,38.9856,38.96823,0.0,1632.7821,0.65527326,1.0427952,0.0,4,0.0,0.0,0.0,0.0,0.0,0,0,0,0,0,1,1,0,0,0
154578757,15.61531,15.498215,38.936,38.966274,0.0,1638.2284,0.65451795,1.0428929,0.0,4,0.0,0.0,0.0,0.0,0.0,0,0,0,0,0,1,1,0,0,0
155082686,15.469372,15.523976,38.9608,38.968884,0.0,1643.6836,0.6640089,1.0416654,0.0,4,0.0,0.0,0.0,0.0,0.0,0,0,0,0,0,1,1,0,0,0
155585877,15.420726,15.5335245,38.9608,38.969246,0.0,1649.1304,0.66764814,1.0411956,0.0,4,0.0,0.0,0.0,0.0,0.0,0,0,0,0,0,1,1,0,0,0
156088995,15.342893,15.534256,38.9608,38.967438,0.0,1654.5765,0.6683977,1.0410988,0.0,4,0.0,0.0,0.0,0.0,0.0,0,0,0,0,0,1,1,0,0,0
157096312,15.595851,15.498737,38.9608,38.967056,0.0,1665.48,0.65507776,1.0428205,0.0,4,0.0,0.0,0.0,0.0,0.0,0,0,0,0,0,1,1,0,0,0
157599800,15.508288,15.487811,38.9856,38.967434,0.0,1670.9298,0.65091497,1.0433596,0.0,4,0.0,0.0,0.0,0.0,0.0,0,0,0,0,0,1,1,0,0,0
158103745,15.245601,15.472373,38.9608,38.968887,0.0,1676.3855,0.64428884,1.044219,0.0,4,0.0,0.0,0.0,0.0,0.0,0,0,0,0,0,1,1,0,0,0
158594753,15.459642,15.495353,38.9856,38.96775,0.0,1681.7,0.65371305,1.0429971,0.0,4,0.0,0.0,0.0,0.0,0.0,0,0,0,0,0,1,1,0,0,0
159097942,15.634768,15.500073,38.9856,38.96867,0.0,1687.1469,0.6555231,1.0427628,0.0,4,0.0,0.0,0.0,0.0,0.0,0,0,0,0,0,1,1,0,0,0
159601035,15.265059,15.495619,38.973198,38.97195,0.0,1692.5935,0.6525753,1.0431445,0.0,4,0.0,0.0,0.0,0.0,0.0,0,0,0,0,0,1,1,0,0,0
160105119,15.566664,15.490409,38.9608,38.96712,0.0,1698.0496,0.65163594,1.0432662,0.0,4,0.0,0.0,0.0,0.0,0.0,0,0,0,0,0,1,1,0,0,0
160596327,15.566664,15.494703,38.9608,38.968563,0.0,1703.3671,0.6539238,1.0429698,0.0,4,0.0,0.0,0.0,0.0,0.0,0,0,0,0,0,1,1,0,0,0
161099501,15.712601,15.517154,38.9608,38.9686,0.0,1708.8136,0.6641329,1.0416495,0.0,4,0.0,0.0,0.0,0.0,0.0,0,0,0,0,0,1,1,0,0,0
161603489,15.586122,15.519053,38.9608,38.965927,0.0,1714.2683,0.6638487,1.0416862,0.0,4,0.0,0.0,0.0,0.0,0.0,0,0,0,0,0,1,1,0,0,0
162114743,15.61531,15.520611,38.9608,38.968227,0.0,1719.8026,0.66499025,1.0415387,0.0,4,0.0,0.0,0.0,0.0,0.0,0,0,0,0,0,1,1,0,0,0
162606164,15.410996,15.514149,38.9484,38.968906,0.0,1725.1223,0.6628302,1.0418178,0.0,4,0.0,0.0,0.0,0.0,0.0,0,0,0,0,0,1,1,0,0,0
163109917,15.430455,15.503427,38.9608,38.96758,0.0,1730.5752,0.65874845,1.0423454,0.0,4,0.0,0.0,0.0,0.0,0.0,0,0,0,0,0,1,1,0,0,0
163613146,15.342893,15.511854,38.9608,38.967625,0.0,1736.0227,0.6622637,1.041891,0.0,4,0.0,0.0,0.0,0.0,0.0,0,0,0,0,0,1,1,0,0,0
164116307,15.459642,15.50898,38.9856,38.96906,0.0,1741.4696,0.6597393,1.0422173,0.0,4,0.0,0.0,0.0,0.0,0.0,0,0,0,0,0,1,1,0,0,0
164607517,15.469372,15.512043,38.973198,38.97054,0.0,1746.787,0.66170484,1.0419632,0.0,4,0.0,0.0,0.0,0.0,0.0,0,0,0,0,0,1,1,0,0,0
165111512,15.61531,15.503573,38.9608,38.96978,0.0,1752.2423,0.65733796,1.0425279,0.0,4,0.0,0.0,0.0,0.0,0.0,0,0,0,0,0,1,1,0,0,0
165614710,15.352622,15.499229,38.9484,38.971466,0.0,1757.6897,0.6562441,1.0426695,0.0,4,0.0,0.0,0.0,0.0,0.0,0,0,0,0,0,1,1,0,0,0
166117899,15.430455,15.49834,38.9608,38.97099,0.0,1763.1368,0.6556471,1.0427468,0.0,4,0.0,0.0,0.0,0.0,0.0,0,0,0,0,0,1,1,0,0,0
166610136,15.547205,15.51399,38.9608,38.970615,0.0,1768.4655,0.66166764,1.041968,0.0,4,0.0,0.0,0.0,0.0,0.0,0,0,0,0,0,1,1,0,0,0
168120312,15.644497,15.499212,38.9608,38.969154,0.0,1784.8125,0.6549528,1.0428367,0.0,4,0.0,0.0,0.0,0.0,0.0,0,0,0,0,0,1,1,0,0,0
168623729,15.595851,15.475505,38.9608,38.970127,0.0,1790.2623,0.6454256,1.0440716,0.0,4,0.0,0.0,0.0,0.0,0.0,0,0,0,0,0,1,1,0,0,0
169126703,15.576392,15.488378,38.9608,38.96841,0.0,1795.707,0.64917547,1.0435852,0.0,4,0.0,0.0,0.0,0.0,0.0,0,0,0,0,0,1,1,0,0,0
169630711,15.37208,15.482277,38.973198,38.96987,0.0,1801.163,0.64805585,1.0437303,0.0,4,0.0,0.0,0.0,0.0,0.0,0,0,0,0,0,1,1,0,0,0
170133967,15.391539,15.478787,38.9484,38.96777,0.0,1806.6106,0.64557344,1.0440524,0.0,4,0.0,0.0,0.0,0.0,0.0,0,0,0,0,0,1,1,0,0,0
170625057,15.420726,15.4649,38.9608,38.968094,0.0,1811.9264,0.64020616,1.0447493,0.0,4,0.0,0.0,0.0,0.0,0.0,0,0,0,0,0,1,1,0,0,0
171128989,15.498559,15.460141,38.9608,38.96866,0.0,1817.3813,0.63838845,1.0449855,0.0,4,0.0,0.0,0.0,0.0,0.0,0,0,0,0,0,1,1,0,0,0
171632340,15.508288,15.468832,38.9608,38.967983,0.0,1822.8297,0.64173967,1.0445501,0.0,4,0.0,0.0,0.0,0.0,0.0,0,0,0,0,0,1,1,0,0,0
172135849,15.401268,15.457447,38.9608,38.9674,0.0,1828.28,0.6354225,1.0453713,0.0,4,0.0,0.0,0.0,0.0,0.0,0,0,0,0,0,1,1,0,0,0
172639602,15.459642,15.471572,38.9608,38.96835,0.0,1833.7329,0.64029104,1.0447383,0.0,4,0.0,0.0,0.0,0.0,0.0,0,0,0,0,0,1,1,0,0,0
173142737,15.673684,15.469284,38.9856,38.970676,0.0,1839.18,0.6400488,1.0447698,0.0,4,0.0,0.0,0.0,0.0,0.0,0,0,0,0,0,1,1,0,0,0
173633927,15.381809,15.474435,38.973198,38.96894,0.0,1844.4968,0.64120084,1.04462,0.0,4,0.0,0.0,0.0,0.0,0.0,0,0,0,0,0,1,1,0,0,0
174137017,15.566664,15.466438,38.9608,38.96949,0.0,1849.9427,0.6384495,1.0449777,0.0,4,0.0,0.0,0.0,0.0,0.0,0,0,0,0,0,1,1,0,0,0
174641125,15.741789,15.479721,38.9856,38.970066,0.0,1855.3999,0.6438044,1.044282,0.0,4,0.0,0.0,0.0,0.0,0.0,0,0,0,0,0,1,1,0,0,0
175144327,15.440185,15.482463,38.973198,38.96991,0.0,1860.8472,0.6457651,1.0440274,0.0,4,0.0,0.0,0.0,0.0,0.0,0,0,0,0,0,1,1,0,0,0
175647651,15.693143,15.504288,38.9608,38.968765,0.0,1866.2953,0.653776,1.042989,0.0,4,0.0,0.0,0.0,0.0,0.0,0,0,0,0,0,1,1,0,0,0
176151531,15.508288,15.4971285,38.973198,38.969017,0.0,1871.7495,0.64954835,1.0435368,0.0,4,0.0,0.0,0.0,0.0,0.0,0,0,0,0,0,1,1,0,0,0
176654764,15.566664,15.4910965,38.9484,38.96957,0.0,1877.1971,0.64839727,1.043686,0.0,4,0.0,0.0,0.0,0.0,0.0,0,0,0,0,0,1,1,0,0,0
177157839,15.391539,15.47364,38.973198,38.96892,0.0,1882.6431,0.6413277,1.0446036,0.0,4,0.0,0.0,0.0,0.0,0.0,0,0,0,0,0,1,1,0,0,0
177661878,15.488831,15.472511,38.973198,38.969112,0.0,1888.0991,0.64160234,1.044568,0.0,4,0.0,0.0,0.0,0.0,0.0,0,0,0,0,0,1,1,0,0,0
178165113,15.634768,15.442136,38.973198,38.969143,0.0,1893.5468,0.62869054,1.0462478,0.0,4,0.0,0.0,0.0,0.0,0.0,0,0,0,0,0,1,1,0,0,0
178668291,15.488831,15.447376,38.973198,38.966217,0.0,1898.9928,0.6295431,1.0461367,0.0,4,0.0,0.0,0.0,0.0,0.0,0,0,0,0,0,1,1,0,0,0
179160326,15.37208,15.459657,38.9608,38.96632,0.0,1904.3188,0.6358803,1.0453117,0.0,4,0.0,0.0,0.0,0.0,0.0,0,0,0,0,0,1,1,0,0,0
179663511,15.449913,15.4492855,38.9856,38.968067,0.0,1909.7656,0.6308182,1.0459706,0.0,4,0.0,0.0,0.0,0.0,0.0,0,0,0,0,0,1,1,0,0,0
180166610,15.673684,15.442869,38.9484,38.966747,0.0,1915.211,0.62734777,1.0464228,0.0,4,0.0,0.0,0.0,0.0,0.0,0,0,0,0,0,1,1,0,0,0
180670598,15.537476,15.455088,38.9608,38.96571,0.0,1920.6654,0.6319693,1.0458207,0.0,4,0.0,0.0,0.0,0.0,0.0,0,0,0,0,0,1,1,0,0,0
181173990,15.547205,15.470415,38.9608,38.967575,0.0,1926.1145,0.63792115,1.0450463,0.0,4,0.0,0.0,0.0,0.0,0.0,0,0,0,0,0,1,1,0,0,0
181677120,15.586122,15.471024,38.973198,38.96844,0.0,1931.5609,0.63860303,1.0449576,0.0,4,0.0,0.0,0.0,0.0,0.0,0,0,0,0,0,1,1,0,0,0
182169104,15.430455,15.451088,38.973198,38.96645,0.0,1936.8861,0.63024884,1.0460448,0.0,4,0.0,0.0,0.0,0.0,0.0,0,0,0,0,0,1,1,0,0,0
182672335,15.527747,15.444575,38.9608,38.96579,0.0,1942.3331,0.6280392,1.0463327,0.0,4,0.0,0.0,0.0,0.0,0.0,0,0,0,0,0,1,1,0,0,0
183175535,15.323434,15.434821,38.9856,38.96964,0.0,1947.7806,0.6240805,1.0468489,0.0,4,0.0,0.0,0.0,0.0,0.0,0,0,0,0,0,1,1,0,0,0
183677842,15.099664,15.417294,38.9608,38.966694,0.0,1953.2174,0.61669046,1.0478139,0.0,4,0.0,0.0,0.0,0.0,0.0,0,0,0,0,0,1,1,0,0,0
184170685,15.508288,15.417443,38.973198,38.966213,0.0,1958.5516,0.61677724,1.0478026,0.0,4,0.0,0.0,0.0,0.0,0.0,0,0,0,0,0,1,1,0,0,0
184669891,15.158038,15.408324,38.9608,38.964344,0.0,1963.9543,0.6142195,1.048137,0.0,4,0.0,0.0,0.0,0.0,0.0,0,0,0,0,0,1,1,0,0,0
185173880,15.265059,15.429402,38.973198,38.963383,0.0,1969.4087,0.62326604,1.0469551,0.0,4,0.0,0.0,0.0,0.0,0.0,0,0,0,0,0,1,1,0,0,0
185677115,15.566664,15.4395895,38.973198,38.96674,0.0,1974.8561,0.6260908,1.0465866,0.0,4,0.0,0.0,0.0,0.0,0.0,0,0,0,0,0,1,1,0,0,0
186180347,15.25533,15.452332,38.9608,38.964405,0.0,1980.303,0.6331957,1.0456611,0.0,4,0.0,0.0,0.0,0.0,0.0,0,0,0,0,0,1,1,0,0,0
186683599,15.14831,15.437566,38.9608,38.965134,0.0,1985.7504,0.62850267,1.0462723,0.0,4,0.0,0.0,0.0,0.0,0.0,0,0,0,0,0,1,1,0,0,0
187175587,15.158038,15.404097,38.9856,38.965595,0.0,1991.0758,0.6129635,1.0483012,0.0,4,0.0,0.0,0.0,0.0,0.0,0,0,0,0,0,1,1,0,0,0
187678726,15.265059,15.408211,38.973198,38.967796,0.0,1996.522,0.6129473,1.0483034,0.0,4,0.0,0.0,0.0,0.0,0.0,0,0,0,0,0,1,1,0,0,0
188181928,15.294247,15.406687,38.973198,38.968754,0.0,2001.9689,0.61230546,1.0483874,0.0,4,0.0,0.0,0.0,0.0,0.0,0,0,0,0,0,1,1,0,0,0
188685929,15.420726,15.408789,38.9608,38.9655,0.0,2007.4237,0.6146944,1.0480748,0.0,4,0.0,0.0,0.0,0.0,0.0,0,0,0,0,0,1,1,0,0,0
189185170,15.430455,15.404159,38.9608,38.96402,0.0,2012.8273,0.61267453,1.0483391,0.0,4,0.0,0.0,0.0,0.0,0.0,0,0,0,0,0,1,1,0,0,0
189688328,15.362351,15.406286,38.9608,38.96572,0.0,2018.2737,0.61342794,1.0482405,0.0,4,0.0,0.0,0.0,0.0,0.0,0,0,0,0,0,1,1,0,0,0
190192313,15.420726,15.413296,38.9856,38.9693,0.0,2023.7295,0.6160429,1.0478985,0.0,4,0.0,0.0,0.0,0.0,0.0,0,0,0,0,0,1,1,0,0,0
190695580,15.391539,15.4010315,38.9608,38.96706,0.0,2029.1764,0.610298,1.0486501,0.0,4,0.0,0.0,0.0,0.0,0.0,0,0,0,0,0,1,1,0,0,0
191186751,15.556934,15.409968,38.9608,38.96736,0.0,2034.4928,0.6119173,1.0484382,0.0,4,0.0,0.0,0.0,0.0,0.0,0,0,0,0,0,1,1,0,0,0
191689995,15.352622,15.416992,38.9856,38.968166,0.0,2039.94,0.6154297,1.0479788,0.0,4,0.0,0.0,0.0,0.0,0.0,0,0,0,0,0,1,1,0,0,0
192193962,15.469372,15.413741,38.9856,38.96859,0.0,2045.3949,0.6138323,1.0481876,0.0,4,0.0,0.0,0.0,0.0,0.0,0,0,0,0,0,1,1,0,0,0
192696993,15.381809,15.410773,38.9484,38.967968,0.0,2050.8394,0.6122349,1.0483966,0.0,4,0.0,0.0,0.0,0.0,0.0,0,0,0,0,0,1,1,0,0,0
193200247,15.420726,15.391324,38.973198,38.96764,0.0,2056.2869,0.6040953,1.0494628,0.0,4,0.0,0.0,0.0,0.0,0.0,0,0,0,0,0,1,1,0,0,0
193704317,15.381809,15.39487,38.9608,38.968056,0.0,2061.7437,0.60572034,1.0492498,0.0,4,0.0,0.0,0.0,0.0,0.0,0,0,0,0,0,1,1,0,0,0
194207568,15.294247,15.38467,38.9608,38.96399,0.0,2067.1904,0.60069734,1.0499085,0.0,4,0.0,0.0,0.0,0.0,0.0,0,0,0,0,0,1,1,0,0,0
194710742,15.401268,15.380296,38.973198,38.9665,0.0,2072.637,0.5990427,1.0501256,0.0,4,0.0,0.0,0.0,0.0,0.0,0,0,0,0,0,1,1,0,0,0
195202741,15.37208,15.38848,38.973198,38.965206,0.0,2077.962,0.6014994,1.0498033,0.0,4,0.0,0.0,0.0,0.0,0.0,0,0,0,0,0,1,1,0,0,0
195706017,15.420726,15.39237,38.998,38.96774,0.0,2083.4106,0.6033743,1.0495573,0.0,4,0.0,0.0,0.0,0.0,0.0,0,0,0,0,0,1,1,0,0,0
196209124,15.294247,15.3855295,38.973198,38.968452,0.0,2088.8567,0.5998991,1.0500132,0.0,4,0.0,0.0,0.0,0.0,0.0,0,0,0,0,0,1,1,0,0,0
196713226,15.089934,15.383357,38.9608,38.966835,0.0,2094.313,0.5986627,1.0501755,0.0,4,0.0,0.0,0.0,0.0,0.0,0,0,0,0,0,1,1,0,0,0
197216308,15.537476,15.388658,38.9608,38.967846,0.0,2099.7585,0.5981458,1.0502434,0.0,4,0.0,0.0,0.0,0.0,0.0,0,0,0,0,0,1,1,0,0,0
197719562,15.430455,15.384407,38.973198,38.966328,0.0,2105.2056,0.5951069,1.0506426,0.0,4,0.0,0.0,0.0,0.0,0.0,0,0,0,0,0,1,1,0,0,0
198211531,15.508288,15.3824415,38.9608,38.96607,0.0,2110.531,0.5935653,1.0508453,0.0,4,0.0,0.0,0.0,0.0,0.0,0,0,0,0,0,1,1,0,0,0
198714699,15.566664,15.375223,38.973198,38.968925,0.0,2115.9775,0.5926774,1.050962,0.0,4,0.0,0.0,0.0,0.0,0.0,0,0,0,0,0,1,1,0,0,0
199217792,15.235872,15.373363,38.9608,38.966995,0.0,2121.4229,0.5927227,1.050956,0.0,4,0.0,0.0,0.0,0.0,0.0,0,0,0,0,0,1,1,0,0,0
199720317,15.430455,15.349551,39.0104,38.96642,0.0,2126.862,0.5833381,1.0521914,0.0,4,0.0,0.0,0.0,0.0,0.0,0,0,0,0,0,1,1,0,0,0
200221148,15.37208,15.352646,38.9856,38.96632,0.0,2132.283,0.5836175,1.0521545,0.0,4,0.0,0.0,0.0,0.0,0.0,0,0,0,0,0,1,1,0,0,0
200724492,15.070476,15.353774,39.0104,38.96468,0.0,2137.7305,0.58505136,1.0519657,0.0,4,0.0,0.0,0.0,0.0,0.0,0,0,0,0,0,1,1,0,0,0
201228311,15.537476,15.356236,38.973198,38.966324,0.0,2143.1843,0.5852712,1.0519367,0.0,4,0.0,0.0,0.0,0.0,0.0,0,0,0,0,0,1,1,0,0,0
201731544,15.333163,15.332222,38.9484,38.964775,0.0,2148.6316,0.5748971,1.0533051,0.0,4,0.0,0.0,0.0,0.0,0.0,0,0,0,0,0,1,1,0,0,0
202222639,15.051018,15.33333,38.9608,38.96618,0.0,2153.9475,0.5746415,1.0533389,0.0,4,0.0,0.0,0.0,0.0,0.0,0,0,0,0,0,1,1,0,0,0
202726172,15.586122,15.329173,38.9608,38.965305,0.0,2159.3977,0.57097083,1.053824,0.0,4,0.0,0.0,0.0,0.0,0.0,0,0,0,0,0,1,1,0,0,0
203229917,15.352622,15.332911,38.9856,38.968437,0.0,2164.8503,0.57219964,1.0536615,0.0,4,0.0,0.0,0.0,0.0,0.0,0,0,0,0,0,1,1,0,0,0
203733216,15.2164135,15.32872,38.9608,38.966183,0.0,2170.2974,0.5702346,1.0539212,0.0,4,0.0,0.0,0.0,0.0,0.0,0,0,0,0,0,1,1,0,0,0
204224280,15.401268,15.307423,38.9608,38.965744,0.0,2175.6128,0.56303436,1.0548743,0.0,4,0.0,0.0,0.0,0.0,0.0,0,0,0,0,0,1,1,0,0,0
204728704,15.070476,15.298506,38.9484,38.964394,0.0,2181.0725,0.5601824,1.0552522,0.0,4,0.0,0.0,0.0,0.0,0.0,0,0,0,0,0,1,1,0,0,0
205231513,15.333163,15.28312,38.936,38.96276,0.0,2186.5144,0.5547326,1.0559751,0.0,4,0.0,0.0,0.0,0.0,0.0,0,0,0,0,0,1,1,0,0,0
205734724,15.2164135,15.291978,38.9608,38.961945,0.0,2191.9597,0.558142,1.0555227,0.0,4,0.0,0.0,0.0,0.0,0.0,0,0,0,0,0,1,1,0,0,0
206238749,15.352622,15.296188,39.0104,38.962624,0.0,2197.4146,0.56033355,1.0552322,0.0,4,0.0,0.0,0.0,0.0,0.0,0,0,0,0,0,1,1,0,0,0
206730183,15.479101,15.323293,38.973198,38.9649,0.0,2202.7334,0.5715559,1.0537466,0.0,4,0.0,0.0,0.0,0.0,0.0,0,0,0,0,0,1,1,0,0,0
207233151,15.401268,15.313945,38.9484,38.96223,0.0,2208.176,0.56780034,1.0542432,0.0,4,0.0,0.0,0.0,0.0,0.0,0,0,0,0,0,1,1,0,0,0
207737105,15.303976,15.3152075,38.936,38.96242,0.0,2213.63,0.5664633,1.0544202,0.0,4,0.0,0.0,0.0,0.0,0.0,0,0,0,0,0,1,1,0,0,0
208240330,15.226143,15.301296,38.973198,38.963158,0.0,2219.076,0.5592664,1.0553737,0.0,4,0.0,0.0,0.0,0.0,0.0,0,0,0,0,0,1,1,0,0,0
208731419,15.245601,15.310658,38.973198,38.96531,0.0,2224.3914,0.56392556,1.0547562,0.0,4,0.0,0.0,0.0,0.0,0.0,0,0,0,0,0,1,1,0,0,0
209235553,15.274789,15.306282,38.9608,38.96403,0.0,2229.8472,0.5618971,1.0550249,0.0,4,0.0,0.0,0.0,0.0,0.0,0,0,0,0,0,1,1,0,0,0
209738697,15.14831,15.285192,38.9608,38.963913,0.0,2235.2927,0.553047,1.056199,0.0,4,0.0,0.0,0.0,0.0,0.0,0,0,0,0,0,1,1,0,0,0
210241968,15.25533,15.280924,38.9484,38.962208,0.0,2240.739,0.55115014,1.056451,0.0,4,0.0,0.0,0.0,0.0,0.0,0,0,0,0,0,1,1,0,0,0
210744288,15.021831,15.286804,38.9608,38.96756,0.0,2246.177,0.5527418,1.0562395,0.0,4,0.0,0.0,0.0,0.0,0.0,0,0,0,0,0,1,1,0,0,0
211236993,15.070476,15.290724,38.9484,38.965675,0.0,2251.5093,0.554962,1.0559447,0.0,4,0.0,0.0,0.0,0.0,0.0,0,0,0,0,0,1,1,0,0,0
211740301,15.303976,15.274341,38.973198,38.965187,0.0,2256.9568,0.54908496,1.0567254,0.0,4,0.0,0.0,0.0,0.0,0.0,0,0,0,0,0,1,1,0,0,0
212244374,15.401268,15.266964,38.9608,38.96418,0.0,2262.4126,0.5443347,1.0573572,0.0,4,0.0,0.0,0.0,0.0,0.0,0,0,0,0,0,1,1,0,0,0
212747479,15.323434,15.253684,38.973198,38.961716,0.0,2267.8577,0.5369366,1.0583428,0.0,4,0.0,0.0,0.0,0.0,0.0,0,0,0,0,0,1,1,0,0,0
213250729,15.14831,15.235637,38.9856,38.964397,0.0,2273.306,0.528611,1.0594542,0.0,4,0.0,0.0,0.0,0.0,0.0,0,0,0,0,0,1,1,0,0,0
213741918,15.352622,15.242808,38.9608,38.961597,0.0,2278.622,0.5315197,1.0590656,0.0,4,0.0,0.0,0.0,0.0,0.0,0,0,0,0,0,1,1,0,0,0
214245965,15.37208,15.257497,38.9608,38.962498,0.0,2284.0784,0.5365265,1.0583975,0.0,4,0.0,0.0,0.0,0.0,0.0,0,0,0,0,0,1,1,0,0,0
214745117,15.313705,15.267119,38.9608,38.96258,0.0,2289.4802,0.54085666,1.0578203,0.0,4,0.0,0.0,0.0,0.0,0.0,0,0,0,0,0,1,1,0,0,0
215248370,15.342893,15.260104,38.9484,38.96277,0.0,2294.9268,0.5379155,1.0582123,0.0,4,0.0,0.0,0.0,0.0,0.0,0,0,0,0,0,1,1,0,0,0
215752278,15.089934,15.256136,38.9608,38.96331,0.0,2300.3813,0.5357893,1.0584959,0.0,4,0.0,0.0,0.0,0.0,0.0,0,0,0,0,0,1,1,0,0,0
216243481,15.158038,15.23736,38.9608,38.959324,0.0,2305.6968,0.5281709,1.059513,0.0,4,0.0,0.0,0.0,0.0,0.0,0,0,0,0,0,1,1,0,0,0
216746640,15.187226,15.236573,38.9856,38.9606,0.0,2311.1418,0.5285657,1.0594602,0.0,4,0.0,0.0,0.0,0.0,0.0,0,0,0,0,0,1,1,0,0,0
218257181,15.196955,15.23647,38.9484,38.96203,0.0,2327.4912,0.52839357,1.0594832,0.0,4,0.0,0.0,0.0,0.0,0.0,0,0,0,0,0,1,1,0,0,0
218748348,15.381809,15.234038,38.9484,38.96154,0.0,2332.8074,0.52824193,1.0595034,0.0,4,0.0,0.0,0.0,0.0,0.0,0,0,0,0,0,1,1,0,0,0
219252391,15.303976,15.224741,38.9608,38.961727,0.0,2338.262,0.5243357,1.0600257,0.0,4,0.0,0.0,0.0,0.0,0.0,0,0,0,0,0,1,1,0,0,0
219751534,15.342893,15.193265,38.973198,38.95961,0.0,2343.6636,0.50996333,1.0619518,0.0,4,0.0,0.0,0.0,0.0,0.0,0,0,0,0,0,1,1,0,0,0
220255505,15.294247,15.204234,38.9484,38.960354,0.0,2349.1174,0.5122755,1.0616415,0.0,4,0.0,0.0,0.0,0.0,0.0,0,0,0,0,0,1,1,0,0,0
220758682,15.566664,15.216941,38.9484,38.961754,0.0,2354.5635,0.51650316,1.0610745,0.0,4,0.0,0.0,0.0,0.0,0.0,0,0,0,0,0,1,1,0,0,0
221257978,15.333163,15.185124,38.973198,38.96174,0.0,2359.9673,0.5023282,1.0629778,0.0,4,0.0,0.0,0.0,0.0,0.0,0,0,0,0,0,1,1,0,0,0
221759608,15.021831,15.180383,38.9608,38.96105,0.0,2365.3962,0.5016454,1.0630697,0.0,4,0.0,0.0,0.0,0.0,0.0,0,0,0,0,0,1,1,0,0,0
222261123,15.391539,15.182614,38.9856,38.959618,0.0,2370.8235,0.5015753,1.0630791,0.0,4,0.0,0.0,0.0,0.0,0.0,0,0,0,0,0,1,1,0,0,0
222752286,15.459642,15.188239,38.9608,38.95938,0.0,2376.1392,0.5045493,1.0626792,0.0,4,0.0,0.0,0.0,0.0,0.0,0,0,0,0,0,1,1,0,0,0
223255652,15.303976,15.193613,38.9856,38.963326,0.0,2381.5876,0.50640184,1.0624301,0.0,4,0.0,0.0,0.0,0.0,0.0,0,0,0,0,0,1,1,0,0,0
223759470,15.430455,15.2176895,38.9856,38.96069,0.0,2387.0396,0.5147956,1.0613035,0.0,4,0.0,0.0,0.0,0.0,0.0,0,0,0,0,0,1,1,0,0,0
224262797,15.449913,15.235226,38.9608,38.960697,0.0,2392.4863,0.52160865,1.0603907,0.0,4,0.0,0.0,0.0,0.0,0.0,0,0,0,0,0,1,1,0,0,0
224765918,15.089934,15.217387,38.9608,38.961704,0.0,2397.9316,0.513562,1.0614688,0.0,4,0.0,0.0,0.0,0.0,0.0,0,0,0,0,0,1,1,0,0,0
225269966,15.041288,15.216604,38.9484,38.962265,0.0,2403.3867,0.51483613,1.061298,0.0,4,0.0,0.0,0.0,0.0,0.0,0,0,0,0,0,1,1,0,0,0
225773183,15.158038,15.194989,38.9856,38.962795,0.0,2408.833,0.5066293,1.0623996,0.0,4,0.0,0.0,0.0,0.0,0.0,0,0,0,0,0,1,1,0,0,0
226276267,15.080205,15.19077,38.936,38.959686,0.0,2414.278,0.50477344,1.062649,0.0,4,0.0,0.0,0.0,0.0,0.0,0,0,0,0,0,1,1,0,0,0
226768287,15.430455,15.167347,38.9484,38.959904,0.0,2419.603,0.49607164,1.0638201,0.0,4,0.0,0.0,0.0,0.0,0.0,0,0,0,0,0,1,1,0,0,0
227271576,15.313705,15.159456,38.9236,38.9604,0.0,2425.0505,0.4912632,1.0644684,0.0,4,0.0,0.0,0.0,0.0,0.0,0,0,0,0,0,1,1,0,0,0
227774732,15.177497,15.131704,38.9484,38.96049,0.0,2430.495,0.479245,1.066092,0.0,4,0.0,0.0,0.0,0.0,0.0,0,0,0,0,0,1,1,0,0,0
228278652,15.109393,15.099993,38.9856,38.960533,0.0,2435.9485,0.46754867,1.0676769,0.0,4,0.0,0.0,0.0,0.0,0.0,0,0,0,0,0,1,1,0,0,0
228769906,15.031559,15.0889435,38.973198,38.95501,0.0,2441.263,0.46362954,1.068209,0.0,4,0.0,0.0,0.0,0.0,0.0,0,0,0,0,0,1,1,0,0,0
229273221,15.041288,15.124268,38.973198,38.960133,0.0,2446.71,0.47796565,1.0662651,0.0,4,0.0,0.0,0.0,0.0,0.0,0,0,0,0,0,1,1,0,0,0
229776993,15.206684,15.182446,38.9484,38.96116,0.0,2452.1633,0.5019048,1.0630348,0.0,4,0.0,0.0,0.0,0.0,0.0,0,0,0,0,0,1,1,0,0,0
230280354,15.099664,15.193967,38.9608,38.95931,0.0,2457.6104,0.50396377,1.0627578,0.0,4,0.0,0.0,0.0,0.0,0.0,0,0,0,0,0,1,1,0,0,0
230783524,15.070476,15.168004,38.9608,38.959564,0.0,2463.0554,0.49244338,1.0643091,0.0,4,0.0,0.0,0.0,0.0,0.0,0,0,0,0,0,1,1,0,0,0
231275548,14.924539,15.175639,38.9608,38.960426,0.0,2468.38,0.49712926,1.0636777,0.0,4,0.0,0.0,0.0,0.0,0.0,0,0,0,0,0,1,1,0,0,0
231778732,15.235872,15.16188,38.9484,38.959774,0.0,2473.8254,0.4913271,1.0644597,0.0,4,0.0,0.0,0.0,0.0,0.0,0,0,0,0,0,1,1,0,0,0
232281949,15.002372,15.156472,38.9484,38.959743,0.0,2479.2717,0.4871934,1.0650176,0.0,4,0.0,0.0,0.0,0.0,0.0,0,0,0,0,0,1,1,0,0,0
232785129,15.119122,15.154427,38.9608,38.96065,0.0,2484.718,0.4866069,1.0650969,0.0,4,0.0,0.0,0.0,0.0,0.0,0,0,0,0,0,1,1,0,0,0
233277132,14.875893,15.144453,38.9608,38.959175,0.0,2490.0422,0.483074,1.0655742,0.0,4,0.0,0.0,0.0,0.0,0.0,0,0,0,0,0,1,1,0,0,0
233780344,15.342893,15.13522,38.9608,38.958134,0.0,2495.4878,0.4801777,1.0659658,0.0,4,0.0,0.0,0.0,0.0,0.0,0,0,0,0,0,1,1,0,0,0
234284365,15.226143,15.122761,38.936,38.958866,0.0,2500.9426,0.47376472,1.066834,0.0,4,0.0,0.0,0.0,0.0,0.0,0,0,0,0,0,1,1,0,0,0
234787435,15.430455,15.134682,38.9856,38.960327,0.0,2506.387,0.47851306,1.066191,0.0,4,0.0,0.0,0.0,0.0,0.0,0,0,0,0,0,1,1,0,0,0
235286715,14.759143,15.084142,38.936,38.958755,0.0,2511.79,0.45707685,1.0690999,0.0,4,0.0,0.0,0.0,0.0,0.0,0,0,0,0,0,1,1,0,0,0
235789955,15.2164135,15.132037,38.9608,38.959194,0.0,2517.2363,0.47297794,1.0669405,0.0,4,0.0,0.0,0.0,0.0,0.0,0,0,0,0,0,1,1,0,0,0
236293876,15.274789,15.108848,38.936,38.957546,0.0,2522.689,0.4643014,1.0681177,0.0,4,0.0,0.0,0.0,0.0,0.0,0,0,0,0,0,1,1,0,0,0
236785169,15.119122,15.107184,38.973198,38.95702,0.0,2528.0051,0.464701,1.0680635,0.0,4,0.0,0.0,0.0,0.0,0.0,0,0,0,0,0,1,1,0,0,0
237288339,15.089934,15.107004,38.9484,38.956993,0.0,2533.45,0.46438533,1.0681063,0.0,4,0.0,0.0,0.0,0.0,0.0,0,0,0,0,0,1,1,0,0,0
237792343,14.856435,15.107702,38.9236,38.954723,0.0,2538.9036,0.464989,1.0680244,0.0,4,0.0,0.0,0.0,0.0,0.0,0,0,0,0,0,1,1,0,0,0
238295458,14.914809,15.109956,38.9608,38.95377,0.0,2544.3472,0.4660986,1.0678737,0.0,4,0.0,0.0,0.0,0.0,0.0,0,0,0,0,0,1,1,0,0,0
238798610,15.2164135,15.108182,38.9484,38.957382,0.0,2549.792,0.4657157,1.0679257,0.0,4,0.0,0.0,0.0,0.0,0.0,0,0,0,0,0,1,1,0,0,0
239303170,15.14831,15.10936,38.9608,38.955975,0.0,2555.2517,0.46613246,1.0678691,0.0,4,0.0,0.0,0.0,0.0,0.0,0,0,0,0,0,1,1,0,0,0
239793935,15.012101,15.093463,38.9608,38.956867,0.0,2560.5625,0.4567111,1.0691496,0.0,4,0.0,0.0,0.0,0.0,0.0,0,0,0,0,0,1,1,0,0,0
240297111,15.235872,15.102909,38.9484,38.95915,0.0,2566.008,0.46135217,1.0685184,0.0,4,0.0,0.0,0.0,0.0,0.0,0,0,0,0,0,1,1,0,0,0
240801087,15.37208,15.08639,38.9608,38.958195,0.0,2571.4612,0.4556659,1.069292,0.0,4,0.0,0.0,0.0,0.0,0.0,0,0,0,0,0,1,1,0,0,0
241304591,15.177497,15.0884695,38.998,38.95777,0.0,2576.9094,0.4561165,1.0692306,0.0,4,0.0,0.0,0.0,0.0,0.0,0,0,0,0,0,1,1,0,0,0
241807493,15.313705,15.102523,38.936,38.95688,0.0,2582.3523,0.4616993,1.0684713,0.0,4,0.0,0.0,0.0,0.0,0.0,0,0,0,0,0,1,1,0,0,0
243317903,15.060747,15.081036,38.9608,38.95765,0.0,2598.697,0.45151597,1.0698571,0.0,4,0.0,0.0,0.0,0.0,0.0,0,0,0,0,0,1,1,0,0,0
243809900,15.051018,15.079611,38.9484,38.956593,0.0,2604.021,0.45045835,1.0700012,0.0,4,0.0,0.0,0.0,0.0,0.0,0,0,0,0,0,1,1,0,0,0
244313191,14.934268,15.093837,38.9608,38.954296,0.0,2609.4666,0.45673543,1.0691463,0.0,4,0.0,0.0,0.0,0.0,0.0,0,0,0,0,0,1,1,0,0,0
244816376,14.720226,15.109528,38.936,38.95485,0.0,2614.9114,0.46407443,1.0681486,0.0,4,0.0,0.0,0.0,0.0,0.0,0,0,0,0,0,1,1,0,0,0
245320341,15.25533,15.091478,38.9484,38.95396,0.0,2620.3643,0.453986,1.0695206,0.0,4,0.0,0.0,0.0,0.0,0.0,0,0,0,0,0,1,1,0,0,0
245811510,14.90508,15.079017,38.9608,38.954105,0.0,2625.6794,0.44980794,1.0700898,0.0,4,0.0,0.0,0.0,0.0,0.0,0,0,0,0,0,1,1,0,0,0
246314748,15.099664,15.075679,38.936,38.953934,0.0,2631.1233,0.45013076,1.0700458,0.0,4,0.0,0.0,0.0,0.0,0.0,0,0,0,0,0,1,1,0,0,0
246818624,15.002372,15.079015,38.9608,38.956326,0.0,2636.576,0.45068341,1.0699705,0.0,4,0.0,0.0,0.0,0.0,0.0,0,0,0,0,0,1,1,0,0,0
247321931,15.128851,15.075056,38.936,38.95553,0.0,2642.022,0.44913942,1.070181,0.0,4,0.0,0.0,0.0,0.0,0.0,0,0,0,0,0,1,1,0,0,0
247825130,15.099664,15.063564,38.9484,38.95461,0.0,2647.4678,0.44360906,1.0709356,0.0,4,0.0,0.0,0.0,0.0,0.0,0,0,0,0,0,1,1,0,0,0
248327430,14.982914,15.070691,38.9856,38.9549,0.0,2652.9028,0.44650918,1.0705397,0.0,4,0.0,0.0,0.0,0.0,0.0,0,0,0,0,0,1,1,0,0,0
248820356,15.021831,15.046663,38.9484,38.956306,0.0,2658.2368,0.43489724,1.0721264,0.0,4,0.0,0.0,0.0,0.0,0.0,0,0,0,0,0,1,1,0,0,0
249323411,15.119122,15.038151,38.9484,38.953873,0.0,2663.6794,0.43054372,1.0727224,0.0,4,0.0,0.0,0.0,0.0,0.0,0,0,0,0,0,1,1,0,0,0
249826706,14.885622,15.031221,38.9484,38.95544,0.0,2669.1262,0.42851192,1.0730008,0.0,4,0.0,0.0,0.0,0.0,0.0,0,0,0,0,0,1,1,0,0,0
250330698,14.943996,15.026433,38.9608,38.955044,0.0,2674.5806,0.42837888,1.073019,0.0,4,0.0,0.0,0.0,0.0,0.0,0,0,0,0,0,1,1,0,0,0
250834168,14.924539,15.028841,38.9484,38.95255,0.0,2680.028,0.42963868,1.0728464,0.0,4,0.0,0.0,0.0,0.0,0.0,0,0,0,0,0,1,1,0,0,0
251335512,14.866163,15.028883,38.9856,38.955345,0.0,2685.4534,0.4279974,1.0730714,0.0,4,0.0,0.0,0.0,0.0,0.0,0,0,0,0,0,1,1,0,0,0
251837169,14.895351,15.049893,38.9484,38.95318,0.0,2690.8813,0.43633443,1.0719297,0.0,4,0.0,0.0,0.0,0.0,0.0,0,0,0,0,0,1,1,0,0,0
252328347,15.070476,15.054478,38.9484,38.95501,0.0,2696.1958,0.43944293,1.0715047,0.0,4,0.0,0.0,0.0,0.0,0.0,0,0,0,0,0,1,1,0,0,0
252831559,15.158038,15.045422,38.9484,38.95641,0.0,2701.641,0.43712503,1.0718216,0.0,4,0.0,0.0,0.0,0.0,0.0,0,0,0,0,0,1,1,0,0,0
253335420,15.060747,15.0359535,38.9608,38.95477,0.0,2707.0928,0.4323457,1.0724757,0.0,4,0.0,0.0,0.0,0.0,0.0,0,0,0,0,0,1,1,0,0,0
253838603,15.051018,15.019908,38.973198,38.951305,0.0,2712.537,0.4250105,1.073481,0.0,4,0.0,0.0,0.0,0.0,0.0,0,0,0,0,0,1,1,0,0,0
254341955,14.710497,15.005616,38.9484,38.955406,0.0,2717.9849,0.41880733,1.0743326,0.0,4,0.0,0.0,0.0,0.0,0.0,0,0,0,0,0,1,1,0,0,0
254833890,15.080205,15.008973,38.936,38.954205,0.0,2723.3076,0.4200676,1.0741595,0.0,4,0.0,0.0,0.0,0.0,0.0,0,0,0,0,0,1,1,0,0,0
255337090,14.836976,15.008274,38.9608,38.955723,0.0,2728.753,0.41932184,1.0742619,0.0,4,0.0,0.0,0.0,0.0,0.0,0,0,0,0,0,1,1,0,0,0
255840361,15.410996,15.008745,38.9484,38.95625,0.0,2734.1987,0.41842014,1.0743859,0.0,4,0.0,0.0,0.0,0.0,0.0,0,0,0,0,0,1,1,0,0,0
256344384,14.807789,15.001489,38.9484,38.95478,0.0,2739.6523,0.4155119,1.0747856,0.0,4,0.0,0.0,0.0,0.0,0.0,0,0,0,0,0,1,1,0,0,0
256847570,15.060747,15.003219,38.9484,38.954872,0.0,2745.0964,0.4157794,1.0747489,0.0,4,0.0,0.0,0.0,0.0,0.0,0,0,0,0,0,1,1,0,0,0
257350708,14.963455,15.005256,38.936,38.953888,0.0,2750.541,0.41680938,1.0746073,0.0,4,0.0,0.0,0.0,0.0,0.0,0,0,0,0,0,1,1,0,0,0
257854763,15.158038,15.000419,38.9608,38.95592,0.0,2755.996,0.4155324,1.0747828,0.0,4,0.0,0.0,0.0,0.0,0.0,0,0,0,0,0,1,1,0,0,0
258357898,15.119122,15.004269,38.936,38.95724,0.0,2761.4404,0.4166749,1.0746257,0.0,4,0.0,0.0,0.0,0.0,0.0,0,0,0,0,0,1,1,0,0,0
258849114,14.934268,14.997891,38.9608,38.954185,0.0,2766.755,0.41320974,1.0751023,0.0,4,0.0,0.0,0.0,0.0,0.0,0,0,0,0,0,1,1,0,0,0
259353156,15.099664,15.012591,38.9484,38.955864,0.0,2772.2095,0.41751558,1.0745101,0.0,4,0.0,0.0,0.0,0.0,0.0,0,0,0,0,0,1,1,0,0,0
259856269,14.982914,14.998529,38.936,38.95312,0.0,2777.6526,0.41260892,1.075185,0.0,4,0.0,0.0,0.0,0.0,0.0,0,0,0,0,0,1,1,0,0,0
260359571,14.924539,14.997732,38.936,38.95082,0.0,2783.0981,0.4124034,1.0752133,0.0,4,0.0,0.0,0.0,0.0,0.0,0,0,0,0,0,1,1,0,0,0
260863454,15.012101,14.995477,38.9608,38.951817,0.0,2788.5508,0.4123729,1.0752175,0.0,4,0.0,0.0,0.0,0.0,0.0,0,0,0,0,0,1,1,0,0,0
261354686,14.836976,14.980061,38.936,38.95183,0.0,2793.8652,0.40550452,1.0761636,0.0,4,0.0,0.0,0.0,0.0,0.0,0,0,0,0,0,1,1,0,0,0
261857898,15.031559,14.976172,38.9484,38.954292,0.0,2799.3108,0.40419608,1.076344,0.0,4,0.0,0.0,0.0,0.0,0.0,0,0,0,0,0,1,1,0,0,0
262361922,14.78833,14.958511,38.9484,38.954338,0.0,2804.7646,0.39524823,1.0775795,0.0,4,0.0,0.0,0.0,0.0,0.0,0,0,0,0,0,1,1,0,0,0
262861164,15.021831,14.95317,38.9608,38.95366,0.0,2810.1665,0.39385778,1.0777718,0.0,4,0.0,0.0,0.0,0.0,0.0,0,0,0,0,0,1,1,0,0,0
263364310,15.13858,14.962425,38.9856,38.95268,0.0,2815.6094,0.39609176,1.0774629,0.0,4,0.0,0.0,0.0,0.0,0.0,0,0,0,0,0,1,1,0,0,0
263868343,14.973185,14.967996,38.9608,38.95378,0.0,2821.0637,0.39861804,1.0771139,0.0,4,0.0,0.0,0.0,0.0,0.0,0,0,0,0,0,1,1,0,0,0
264371405,14.7007675,14.967066,38.9608,38.95236,0.0,2826.5063,0.39686662,1.0773559,0.0,4,0.0,0.0,0.0,0.0,0.0,0,0,0,0,0,1,1,0,0,0
264862596,14.846705,14.97645,38.9484,38.951565,0.0,2831.8206,0.40205413,1.0766395,0.0,4,0.0,0.0,0.0,0.0,0.0,0,0,0,0,0,1,1,0,0,0
265366727,14.963455,14.968693,38.9484,38.954033,0.0,2837.277,0.3993252,1.0770162,0.0,4,0.0,0.0,0.0,0.0,0.0,0,0,0,0,0,1,1,0,0,0
265865902,14.866163,14.952017,38.9608,38.954075,0.0,2842.678,0.3917449,1.078064,0.0,4,0.0,0.0,0.0,0.0,0.0,0,0,0,0,0,1,1,0,0,0
266369055,14.759143,14.938208,38.9608,38.951374,0.0,2848.1216,0.38550454,1.0789281,0.0,4,0.0,0.0,0.0,0.0,0.0,0,0,0,0,0,1,1,0,0,0
266873152,15.002372,14.939614,38.9484,38.95007,0.0,2853.5757,0.38672858,1.0787585,0.0,4,0.0,0.0,0.0,0.0,0.0,0,0,0,0,0,1,1,0,0,0
267364361,14.953726,14.916014,38.936,38.95124,0.0,2858.8906,0.37632686,1.0802015,0.0,4,0.0,0.0,0.0,0.0,0.0,0,0,0,0,0,1,1,0,0,0
267867485,14.652122,14.918434,38.9484,38.950806,0.0,2864.3345,0.3771122,1.0800924,0.0,4,0.0,0.0,0.0,0.0,0.0,0,0,0,0,0,1,1,0,0,0
268371795,14.934268,14.923356,38.9484,38.950085,0.0,2869.7905,0.378969,1.0798346,0.0,4,0.0,0.0,0.0,0.0,0.0,0,0,0,0,0,1,1,0,0,0
268874599,15.041288,14.947443,38.9484,38.94892,0.0,2875.2302,0.3896473,1.0783544,0.0,4,0.0,0.0,0.0,0.0,0.0,0,0,0,0,0,1,1,0,0,0
269377795,15.002372,14.944655,38.9608,38.95154,0.0,2880.6748,0.38791353,1.0785944,0.0,4,0.0,0.0,0.0,0.0,0.0,0,0,0,0,0,1,1,0,0,0
269881967,14.866163,14.933663,38.936,38.954853,0.0,2886.1304,0.382335,1.0793675,0.0,4,0.0,0.0,0.0,0.0,0.0,0,0,0,0,0,1,1,0,0,0
270381028,14.652122,14.941062,38.9484,38.953423,0.0,2891.5308,0.38503867,1.0789927,0.0,4,0.0,0.0,0.0,0.0,0.0,0,0,0,0,0,1,1,0,0,0
270884345,14.973185,14.932319,38.9608,38.951057,0.0,2896.9766,0.3820923,1.0794013,0.0,4,0.0,0.0,0.0,0.0,0.0,0,0,0,0,0,1,1,0,0,0
271388327,14.914809,14.942966,38.936,38.950928,0.0,2902.4297,0.3864854,1.0787922,0.0,4,0.0,0.0,0.0,0.0,0.0,0,0,0,0,0,1,1,0,0,0
271879525,14.934268,14.944304,38.936,38.95147,0.0,2907.7449,0.38675147,1.0787554,0.0,4,0.0,0.0,0.0,0.0,0.0,0,0,0,0,0,1,1,0,0,0
272382678,14.924539,14.933441,38.9484,38.9513,0.0,2913.1885,0.38128167,1.0795137,0.0,4,0.0,0.0,0.0,0.0,0.0,0,0,0,0,0,1,1,0,0,0
272886708,14.856435,14.9192,38.9608,38.95235,0.0,2918.642,0.3759721,1.0802507,0.0,4,0.0,0.0,0.0,0.0,0.0,0,0,0,0,0,1,1,0,0,0
273389802,15.206684,14.901497,38.9608,38.951664,0.0,2924.085,0.369417,1.0811622,0.0,4,0.0,0.0,0.0,0.0,0.0,0,0,0,0,0,1,1,0,0,0
273889979,15.021831,14.903552,38.9608,38.951775,0.0,2929.4956,0.37039787,1.0810257,0.0,4,0.0,0.0,0.0,0.0,0.0,0,0,0,0,0,1,1,0,0,0
274393220,14.914809,14.92105,38.936,38.95,0.0,2934.9404,0.3769291,1.0801178,0.0,4,0.0,0.0,0.0,0.0,0.0,0,0,0,0,0,1,1,0,0,0
274896308,14.836976,14.917877,38.9608,38.950188,0.0,2940.3843,0.37499076,1.0803871,0.0,4,0.0,0.0,0.0,0.0,0.0,0,0,0,0,0,1,1,0,0,0
275395392,14.836976,14.903444,38.9608,38.952984,0.0,2945.7847,0.36899406,1.081221,0.0,4,0.0,0.0,0.0,0.0,0.0,0,0,0,0,0,1,1,0,0,0
275899719,14.90508,14.905793,38.9608,38.953407,0.0,2951.242,0.36948568,1.0811527,0.0,4,0.0,0.0,0.0,0.0,0.0,0,0,0,0,0,1,1,0,0,0
276402790,14.914809,14.917756,38.9608,38.952805,0.0,2956.6855,0.3741768,1.0805002,0.0,4,0.0,0.0,0.0,0.0,0.0,0,0,0,0,0,1,1,0,0,0
276905911,14.691039,14.908395,38.9608,38.95316,0.0,2962.129,0.37004024,1.0810754,0.0,4,0.0,0.0,0.0,0.0,0.0,0,0,0,0,0,1,1,0,0,0
277397934,14.593747,14.908869,38.998,38.953724,0.0,2967.453,0.36942416,1.0811611,0.0,4,0.0,0.0,0.0,0.0,0.0,0,0,0,0,0,1,1,0,0,0
277901359,14.817518,14.911518,38.936,38.95176,0.0,2972.8994,0.37021238,1.0810515,0.0,4,0.0,0.0,0.0,0.0,0.0,0,0,0,0,0,1,1,0,0,0
278404311,15.109393,14.929044,38.936,38.95233,0.0,2978.3418,0.37798625,1.0799711,0.0,4,0.0,0.0,0.0,0.0,0.0,0,0,0,0,0,1,1,0,0,0
278908313,14.817518,14.938503,38.9484,38.952503,0.0,2983.7952,0.38120538,1.0795243,0.0,4,0.0,0.0,0.0,0.0,0.0,0,0,0,0,0,1,1,0,0,0
279411631,14.924539,14.936933,38.9608,38.95149,0.0,2989.2407,0.38045913,1.0796278,0.0,4,0.0,0.0,0.0,0.0,0.0,0,0,0,0,0,1,1,0,0,0
279914626,15.537476,14.946887,38.9608,38.948948,0.0,2994.6824,0.38555032,1.0789218,0.0,4,0.0,0.0,0.0,0.0,0.0,0,0,0,0,0,1,1,0,0,0
280406754,15.051018,14.929371,38.936,38.95239,0.0,3000.0078,0.37975055,1.0797261,0.0,4,0.0,0.0,0.0,0.0,0.0,0,0,0,0,0,1,1,0,0,0
280909902,14.827247,14.905672,38.9608,38.951656,0.0,3005.4514,0.37043744,1.0810202,0.0,4,0.0,0.0,0.0,0.0,0.0,0,0,0,0,0,1,1,0,0,0
281413205,14.953726,14.881521,38.9608,38.951023,0.0,3010.8972,0.36078578,1.0823646,0.0,4,0.0,0.0,0.0,0.0,0.0,0,0,0,0,0,1,1,0,0,0
281917198,15.119122,14.883484,38.9484,38.952114,0.0,3016.3503,0.3626526,1.0821043,0.0,4,0.0,0.0,0.0,0.0,0.0,0,0,0,0,0,1,1,0,0,0
282420238,15.060747,14.923825,38.9484,38.95184,0.0,3021.7925,0.37893945,1.0798388,0.0,4,0.0,0.0,0.0,0.0,0.0,0,0,0,0,0,1,1,0,0,0
282911513,14.827247,14.913288,38.936,38.95181,0.0,3027.108,0.37601215,1.0802453,0.0,4,0.0,0.0,0.0,0.0,0.0,0,0,0,0,0,1,1,0,0,0
283415546,14.739684,14.912447,38.9236,38.95244,0.0,3032.5623,0.37580043,1.0802746,0.0,4,0.0,0.0,0.0,0.0,0.0,0,0,0,0,0,1,1,0,0,0
283914741,14.924539,14.927192,38.9608,38.950394,0.0,3037.9631,0.3815139,1.0794815,0.0,4,0.0,0.0,0.0,0.0,0.0,0,0,0,0,0,1,1,0,0,0
284417902,14.934268,14.914764,38.9608,38.950855,0.0,3043.407,0.3742097,1.0804957,0.0,4,0.0,0.0,0.0,0.0,0.0,0,0,0,0,0,1,1,0,0,0
284921956,14.739684,14.898827,38.9484,38.953148,0.0,3048.8618,0.36616403,1.0816151,0.0,4,0.0,0.0,0.0,0.0,0.0,0,0,0,0,0,1,1,0,0,0
285413124,15.109393,14.898128,38.9484,38.951084,0.0,3054.1753,0.36639053,1.0815835,0.0,4,0.0,0.0,0.0,0.0,0.0,0,0,0,0,0,1,1,0,0,0
285916311,14.924539,14.907101,38.973198,38.951378,0.0,3059.6194,0.3699196,1.0810922,0.0,4,0.0,0.0,0.0,0.0,0.0,0,0,0,0,0,1,1,0,0,0
286420331,15.012101,14.917283,38.9484,38.95143,0.0,3065.072,0.37453204,1.0804509,0.0,4,0.0,0.0,0.0,0.0,0.0,0,0,0,0,0,1,1,0,0,0
286923577,14.875893,14.916791,38.9484,38.949898,0.0,3070.517,0.37361318,1.0805786,0.0,4,0.0,0.0,0.0,0.0,0.0,0,0,0,0,0,1,1,0,0,0
287926714,14.924539,14.917647,38.9608,38.95069,0.0,3081.3706,0.37350875,1.0805931,0.0,4,0.0,0.0,0.0,0.0,0.0,0,0,0,0,0,1,1,0,0,0
288429868,14.691039,14.917604,38.9608,38.950447,0.0,3086.815,0.37470132,1.0804273,0.0,4,0.0,0.0,0.0,0.0,0.0,0,0,0,0,0,1,1,0,0,0
288929878,14.846705,14.918105,38.9608,38.949,0.0,3092.224,0.37437135,1.0804732,0.0,4,0.0,0.0,0.0,0.0,0.0,0,0,0,0,0,1,1,0,0,0
289421128,14.914809,14.913646,38.9484,38.949944,0.0,3097.5388,0.37237912,1.0807501,0.0,4,0.0,0.0,0.0,0.0,0.0,0,0,0,0,0,1,1,0,0,0
289924199,15.051018,14.918764,38.936,38.950745,0.0,3102.982,0.37300044,1.0806638,0.0,4,0.0,0.0,0.0,0.0,0.0,0,0,0,0,0,1,1,0,0,0
290427545,14.924539,14.924505,38.973198,38.950188,0.0,3108.428,0.376612,1.0801619,0.0,4,0.0,0.0,0.0,0.0,0.0,0,0,0,0,0,1,1,0,0,0
290931584,14.836976,14.918161,38.9608,38.949642,0.0,3113.881,0.37422782,1.0804931,0.0,4,0.0,0.0,0.0,0.0,0.0,0,0,0,0,0,1,1,0,0,0
291422634,14.914809,14.896487,38.936,38.949398,0.0,3119.193,0.36436158,1.0818661,0.0,4,0.0,0.0,0.0,0.0,0.0,0,0,0,0,0,1,1,0,0,0
291925877,14.856435,14.894106,38.936,38.950428,0.0,3124.6384,0.36381036,1.0819429,0.0,4,0.0,0.0,0.0,0.0,0.0,0,0,0,0,0,1,1,0,0,0
292429953,14.836976,14.872733,38.9484,38.952076,0.0,3130.0925,0.35492975,1.083182,0.0,4,0.0,0.0,0.0,0.0,0.0,0,0,0,0,0,1,1,0,0,0
292933193,14.778601,14.882989,38.936,38.950565,0.0,3135.5376,0.35944682,1.0825514,0.0,4,0.0,0.0,0.0,0.0,0.0,0,0,0,0,0,1,1,0,0,0
293436281,14.78833,14.898139,38.9484,38.94875,0.0,3140.98,0.36515266,1.0817559,0.0,4,0.0,0.0,0.0,0.0,0.0,0,0,0,0,0,1,1,0,0,0
293940291,14.934268,14.901857,38.9608,38.952057,0.0,3146.4346,0.36767465,1.0814047,0.0,4,0.0,0.0,0.0,0.0,0.0,0,0,0,0,0,1,1,0,0,0
294443596,14.759143,14.885757,38.936,38.951237,0.0,3151.8804,0.36077577,1.082366,0.0,4,0.0,0.0,0.0,0.0,0.0,0,0,0,0,0,1,1,0,0,0
294942773,14.934268,14.880873,38.9484,38.94938,0.0,3157.2815,0.35854942,1.0826766,0.0,4,0.0,0.0,0.0,0.0,0.0,0,0,0,0,0,1,1,0,0,0
295446632,14.895351,14.871883,38.936,38.94761,0.0,3162.7322,0.35417014,1.0832881,0.0,4,0.0,0.0,0.0,0.0,0.0,0,0,0,0,0,1,1,0,0,0
295949898,14.836976,14.867761,38.9608,38.950848,0.0,3168.1768,0.35211164,1.0835757,0.0,4,0.0,0.0,0.0,0.0,0.0,0,0,0,0,0,1,1,0,0,0
296449163,14.875893,14.885388,38.936,38.95189,0.0,3173.5786,0.35816604,1.08273,0.0,4,0.0,0.0,0.0,0.0,0.0,0,0,0,0,0,1,1,0,0,0
296953140,14.739684,14.903839,38.9484,38.950783,0.0,3179.032,0.36696273,1.0815039,0.0,4,0.0,0.0,0.0,0.0,0.0,0,0,0,0,0,1,1,0,0,0
297456367,14.759143,14.910759,38.936,38.950558,0.0,3184.4758,0.37141496,1.0808842,0.0,4,0.0,0.0,0.0,0.0,0.0,0,0,0,0,0,1,1,0,0,0
