timestamp,ref_timestamp,ref_lat,ref_lon,x,y,z,delta_xy[0],delta_xy[1],delta_z,vx,vy,vz,z_deriv,delta_vxy[0],delta_vxy[1],delta_vz,ax,ay,az,yaw,ref_alt,dist_bottom,dist_bottom_rate,eph,epv,evh,evv,vxy_max,vz_max,hagl_min,hagl_max,xy_valid,z_valid,v_xy_valid,v_z_valid,xy_reset_counter,z_reset_counter,vxy_reset_counter,vz_reset_counter,xy_global,z_global,dist_bottom_valid
93539869,0,0.0,0.0,0.0,0.0,-0.025535857,4.6288296e-08,5.209874e-07,0.0,-9.97317e-06,-0.0044084336,-0.0024204187,-0.009610358,1.1561957e-05,0.00013013298,0.0,0.003988228,-0.0038385184,-0.013059999,0.755567,0.0,0.105963126,0.0024204187,0.12201167,0.24825244,0.10140077,0.107587144,inf,inf,inf,inf,0,1,0,1,1,0,1,1,0,0,0
93647890,0,0.0,0.0,0.0,0.0,-0.025028558,4.6288296e-08,5.209874e-07,0.0,-1.06483e-05,-0.0046868417,-0.0028059725,-0.008451603,1.1561957e-05,0.00013013298,0.0,0.0011449764,0.014569987,-0.012172513,0.7554433,0.0,0.103228174,0.0028059725,0.12302592,0.24941796,0.10188057,0.10788345,inf,inf,inf,inf,0,1,0,1,1,0,1,1,0,0,0
93743069,0,0.0,0.0,0.0,0.0,-0.023202347,4.6288296e-08,5.209874e-07,0.0,-9.3397735e-05,-0.004406317,-0.002762077,-0.005783355,1.1561957e-05,0.00013013298,0.0,-0.014523139,-0.008154287,-0.015135777,0.75538087,0.0,0.108776726,0.002762077,0.12153598,0.24795713,0.10106363,0.10746519,inf,inf,inf,inf,0,1,0,1,1,0,1,1,0,0,0
93847118,0,0.0,0.0,0.0,0.0,-0.021401664,4.6288296e-08,5.209874e-07,0.0,-0.00030912829,-0.0046050316,-0.0023305246,-0.003074267,1.1561957e-05,0.00013013298,0.0,-0.0066079115,0.004625874,0.0018412571,0.75529045,0.0,0.10335982,0.0023305246,0.120973505,0.24745359,0.10079377,0.10727439,inf,inf,inf,inf,0,1,0,1,1,0,1,1,0,0,0
93951069,0,0.0,0.0,0.0,0.0,-0.023622088,4.6288296e-08,5.209874e-07,0.0,3.8841466e-05,-0.0045090453,-0.002880408,-0.0056315097,1.1561957e-05,0.00013013298,0.0,-0.0043701977,-0.005614719,0.0029531606,0.7552011,0.0,0.1,0.002880408,0.12202738,0.24862139,0.10133902,0.10757945,inf,inf,inf,inf,0,1,0,1,1,0,1,1,0,0,0
94055090,0,0.0,0.0,0.0,0.0,-0.028639399,4.6288296e-08,5.209874e-07,0.0,4.393336e-05,-0.005214536,-0.004903783,-0.011928196,1.1561957e-05,0.00013013298,0.0,0.0015856568,-0.0122861955,0.0040014517,0.75502354,0.0,0.1,0.004903783,0.12304135,0.24976496,0.10184212,0.10787145,inf,inf,inf,inf,0,1,0,1,1,0,1,1,0,0,0
94159087,0,0.0,0.0,0.0,0.0,-0.030734194,4.6288296e-08,5.209874e-07,0.0,0.00017145346,-0.0053957873,-0.0058104824,-0.013512675,1.1561957e-05,0.00013013298,0.0,-0.012181344,0.014408553,-0.014340257,0.7548392,0.0,0.10511206,0.0058104824,0.12213515,0.24892233,0.10133276,0.10761823,inf,inf,inf,inf,0,1,0,1,1,0,1,1,0,0,0
94255114,0,0.0,0.0,0.0,0.0,-0.030393172,4.6288296e-08,5.209874e-07,0.0,0.00024273345,-0.004542687,-0.0053475914,-0.011382485,1.1561957e-05,0.00013013298,0.0,-0.0037642133,0.0038304108,-0.021685334,0.75464165,0.0,0.10591778,0.0053475914,0.12246884,0.24935122,0.101485975,0.107715495,inf,inf,inf,inf,0,1,0,1,1,0,1,1,0,0,0
94358304,0,0.0,0.0,0.0,0.0,-0.031926658,4.6288296e-08,5.209874e-07,0.0,0.00013468252,-0.0048003374,-0.0070676883,-0.013349635,1.1561957e-05,0.00013013298,0.0,-0.014599453,0.0015992224,-0.025450163,0.7544905,0.0,0.1,0.0070676883,0.121658646,0.2485467,0.1010652,0.10748152,inf,inf,inf,inf,0,1,0,1,1,0,1,1,0,0,0
94462269,0,0.0,0.0,0.0,0.0,-0.03598855,4.6288296e-08,5.209874e-07,0.0,-0.00032123417,-0.0047919145,-0.008835194,-0.017539846,1.1561957e-05,0.00013013298,0.0,-0.0064967936,0.007679869,0.012428924,0.7543489,0.0,0.1,0.008835194,0.120912276,0.24777228,0.100696445,0.10726108,inf,inf,inf,inf,0,1,0,1,1,0,1,1,0,0,0
94558323,0,0.0,0.0,0.0,0.0,-0.037226167,4.6288296e-08,5.209874e-07,0.0,-0.0008085792,-0.004484574,-0.009635397,-0.017760446,1.1561957e-05,0.00013013298,0.0,-0.008725563,0.02287696,-0.021616396,0.7540486,0.0,0.104222104,0.009635397,0.12130423,0.248191,0.100919396,0.10737971,inf,inf,inf,inf,0,1,0,1,1,0,1,1,0,0,0
94662282,0,0.0,0.0,0.0,0.0,-0.03722461,4.6288296e-08,5.209874e-07,0.0,-0.00065478956,-0.004379053,-0.010054705,-0.016258316,1.1561957e-05,0.00013013298,0.0,-0.011009938,-0.011181483,0.007345179,0.7536803,0.0,0.10861078,0.010054705,0.12060274,0.24743505,0.10058438,0.10717084,inf,inf,inf,inf,0,1,0,1,1,0,1,1,0,0,0
94766275,0,0.0,0.0,0.0,0.0,-0.036169328,4.6288296e-08,5.209874e-07,0.0,-0.0010450482,-0.004988678,-0.009132095,-0.012698588,1.1561957e-05,0.00013013298,0.0,0.0023379764,-0.029066868,0.00043662565,0.753328,0.0,0.10466813,0.009132095,0.12170991,0.24860454,0.10118697,0.10748312,inf,inf,inf,inf,0,1,0,1,1,0,1,1,0,0,0
94870269,0,0.0,0.0,0.0,0.0,-0.038514033,4.6288296e-08,5.209874e-07,0.0,-0.0015674629,-0.0052111973,-0.011233773,-0.015733283,1.1561957e-05,0.00013013298,0.0,-0.01092868,-0.012805209,-0.015033517,0.75306016,0.0,0.100705534,0.011233773,0.12105606,0.24787672,0.100880094,0.10728423,inf,inf,inf,inf,0,1,0,1,1,0,1,1,0,0,0
94966268,0,0.0,0.0,0.0,0.0,-0.041708417,4.6288296e-08,5.209874e-07,0.0,-0.0017724563,-0.005451853,-0.0123237595,-0.01846885,1.1561957e-05,0.00013013298,0.0,0.01236965,-0.028581973,0.0075668823,0.75279844,0.0,0.1,0.0123237595,0.11981226,0.2464953,0.10026961,0.1069123,inf,inf,inf,inf,0,1,0,1,1,0,1,1,0,0,0
95070269,0,0.0,0.0,0.0,0.0,-0.0471318,4.6288296e-08,5.209874e-07,0.0,-0.0021672559,-0.005720302,-0.014222901,-0.023701362,1.1561957e-05,0.00013013298,0.0,0.012329554,-0.007141013,-0.007975909,0.7525046,0.0,0.1,0.014222901,0.12099392,0.24770589,0.10092835,0.10724487,inf,inf,inf,inf,0,1,0,1,1,0,1,1,0,0,0
95173469,0,0.0,0.0,0.0,0.0,-0.051253077,4.6288296e-08,5.209874e-07,0.0,-0.0025786438,-0.005080892,-0.015126416,-0.026028186,1.1561957e-05,0.00013013298,0.0,-0.01024906,0.011156198,0.0052712397,0.75227123,0.0,0.101242214,0.015126416,0.12043479,0.24703562,0.10067736,0.107070506,inf,inf,inf,inf,0,1,0,1,1,0,1,1,0,0,0
95273493,0,0.0,0.0,0.0,0.0,-0.050573256,4.6288296e-08,5.209874e-07,0.0,-0.002583371,-0.004707366,-0.014778258,-0.022329317,1.1561957e-05,0.00013013298,0.0,0.014662431,-0.00089601445,0.0035137937,0.75201386,0.0,0.11137528,0.014778258,0.12103158,0.24760091,0.10102767,0.10723207,inf,inf,inf,inf,0,1,0,1,1,0,1,1,0,0,0
95377469,0,0.0,0.0,0.0,0.0,-0.04842314,4.6288296e-08,5.209874e-07,0.0,-0.002812618,-0.005181422,-0.014097467,-0.017240895,1.1561957e-05,0.00013013298,0.0,0.0033152525,-0.020015918,-0.010451364,0.7517343,0.0,0.10866636,0.014097467,0.12063221,0.2471549,0.10086763,0.107071415,inf,inf,inf,inf,0,1,0,1,1,0,1,1,0,0,0
95481469,0,0.0,0.0,0.0,0.0,-0.050225608,4.6288296e-08,5.209874e-07,0.0,-0.0029460303,-0.0052811154,-0.01485956,-0.018023146,1.1561957e-05,0.00013013298,0.0,0.004216195,-0.00486905,0.007845398,0.75152004,0.0,0.1,0.01485956,0.12174355,0.24832723,0.10143849,0.1073873,inf,inf,inf,inf,0,1,0,1,1,0,1,1,0,0,0
95577473,0,0.0,0.0,0.0,0.0,-0.053457923,4.6288296e-08,5.209874e-07,0.0,-0.0029079546,-0.00503052,-0.016263375,-0.020874882,1.1561957e-05,0.00013013298,0.0,0.011792868,-0.012654206,-0.023315791,0.75129306,0.0,0.100537986,0.016263375,0.12047018,0.24694055,0.10078105,0.10701459,inf,inf,inf,inf,0,1,0,1,1,0,1,1,0,0,0
95681470,0,0.0,0.0,0.0,0.0,-0.05673522,4.6288296e-08,5.209874e-07,0.0,-0.002557005,-0.0047785714,-0.01798872,-0.023579795,1.1561957e-05,0.00013013298,0.0,0.008423133,-0.012271335,-0.010069366,0.7510255,0.0,0.1,0.01798872,0.11989251,0.24626687,0.10049403,0.106839284,inf,inf,inf,inf,0,1,0,1,1,0,1,1,0,0,0
95785469,0,0.0,0.0,0.0,0.0,-0.05910908,4.6288296e-08,5.209874e-07,0.0,-0.0024239214,-0.0042836224,-0.01909194,-0.02441686,1.1561957e-05,0.00013013298,0.0,-0.012434157,0.00022171576,-0.011225176,0.7507452,0.0,0.11032677,0.01909194,0.12110394,0.2474997,0.10114858,0.10718252,inf,inf,inf,inf,0,1,0,1,1,0,1,1,0,0,0
95881469,0,0.0,0.0,0.0,0.0,-0.05561522,4.6288296e-08,5.209874e-07,0.0,-0.0017102543,-0.0042955857,-0.017364476,-0.0169613,1.1561957e-05,0.00013013298,0.0,-0.0011750183,-0.0049343375,0.015964553,0.75043106,0.0,0.12295014,0.017364476,0.119931795,0.24618104,0.10055629,0.10683603,inf,inf,inf,inf,0,1,0,1,1,0,1,1,0,0,0
95988669,0,0.0,0.0,0.0,0.0,-0.048155043,4.6288296e-08,5.209874e-07,0.0,-0.001484566,-0.0037788379,-0.014553867,-0.005269303,1.1561957e-05,0.00013013298,0.0,-0.0028038856,0.0016638231,0.022353409,0.7501758,0.0,0.12507509,0.014553867,0.119457595,0.2455792,0.100337744,0.10668889,inf,inf,inf,inf,0,1,0,1,1,0,1,1,0,0,0
96091069,0,0.0,0.0,0.0,0.0,-0.04233207,4.6288296e-08,5.209874e-07,0.0,-0.00076044205,-0.0035862152,-0.012047128,0.0029944545,1.1561957e-05,0.00013013298,0.0,0.01314493,-0.019409698,0.01939023,0.7499663,0.0,0.11742824,0.012047128,0.12074184,0.24686366,0.10103456,0.10705412,inf,inf,inf,inf,0,1,0,1,1,0,1,1,0,0,0
96192669,0,0.0,0.0,0.0,0.0,-0.0372528,4.6288296e-08,5.209874e-07,0.0,-0.00036107702,-0.0028886697,-0.010272798,0.008804554,1.1561957e-05,0.00013013298,0.0,0.0029299709,-0.00539827,-0.028289592,0.74968207,0.0,0.111065924,0.010272798,0.120527394,0.2465437,0.10099043,0.10694629,inf,inf,inf,inf,0,1,0,1,1,0,1,1,0,0,0
96288672,0,0.0,0.0,0.0,0.0,-0.03491268,4.6288296e-08,5.209874e-07,0.0,0.00010019553,-0.0024204485,-0.009352153,0.010660358,1.1561957e-05,0.00013013298,0.0,0.018171323,0.004018132,-0.0034845031,0.7493585,0.0,0.107192665,0.009352153,0.11927511,0.24510907,0.10032662,0.10661108,inf,inf,inf,inf,0,1,0,1,1,0,1,1,0,0,0
96392675,0,0.0,0.0,0.0,0.0,-0.034460124,4.6288296e-08,5.209874e-07,0.0,0.0005471499,-0.0018837611,-0.009503947,0.009424114,1.1561957e-05,0.00013013298,0.0,-0.0048465943,0.0024766005,0.029773071,0.7490463,0.0,0.10383114,0.009503947,0.12045496,0.24628681,0.10094052,0.10697061,inf,inf,inf,inf,0,1,0,1,1,0,1,1,0,0,0
96496669,0,0.0,0.0,0.0,0.0,-0.030789545,4.6288296e-08,5.209874e-07,0.0,0.0010875192,-0.0021631664,-0.0077060475,0.0133890025,1.1561957e-05,0.00013013298,0.0,0.015184785,0.0006216912,-0.01376594,0.74873924,0.0,0.110858575,0.0077060475,0.12002962,0.2457471,0.100731894,0.10684323,inf,inf,inf,inf,0,1,0,1,1,0,1,1,0,0,0
96592701,0,0.0,0.0,0.0,0.0,-0.028444668,4.6288296e-08,5.209874e-07,0.0,0.0013872725,-0.0018019881,-0.0070099495,0.014719561,1.1561957e-05,0.00013013298,0.0,-0.011813598,-0.01563162,0.011083322,0.7484577,0.0,0.10664872,0.0070099495,0.11898465,0.24455021,0.10019044,0.106536284,inf,inf,inf,inf,0,1,0,1,1,0,1,1,0,0,0
96697472,0,0.0,0.0,0.0,0.0,-0.028651059,4.6288296e-08,5.209874e-07,0.0,0.0019202164,-0.0015150919,-0.0072119073,0.012386523,1.1561957e-05,0.00013013298,0.0,0.0048160083,-0.010759745,0.014672106,0.74823034,0.0,0.1,0.0072119073,0.12031992,0.24589561,0.100903176,0.1069214,inf,inf,inf,inf,0,1,0,1,1,0,1,1,0,0,0
96799868,0,0.0,0.0,0.0,0.0,-0.030400245,4.6288296e-08,5.209874e-07,0.0,0.0022917213,-0.001447146,-0.008234746,0.0079986965,1.1561957e-05,0.00013013298,0.0,-0.003211592,-0.0025499747,-0.029126316,0.74794495,0.0,0.1,0.008234746,0.11992403,0.24539585,0.10070135,0.106804855,inf,inf,inf,inf,0,1,0,1,1,0,1,1,0,0,0
96903898,0,0.0,0.0,0.0,0.0,-0.036180843,4.6288296e-08,5.209874e-07,0.0,0.0016940411,-0.000881919,-0.011946266,-0.00223759,1.1561957e-05,0.00013013298,0.0,-0.0019929511,0.0007384039,0.013612457,0.7476483,0.0,0.1,0.011946266,0.1194492,0.24482563,0.100448154,0.106681846,inf,inf,inf,inf,0,1,0,1,1,0,1,1,0,0,0
97007886,0,0.0,0.0,0.0,0.0,-0.043589417,4.6288296e-08,5.209874e-07,0.0,0.0022200998,-0.00041527866,-0.014191076,-0.011453409,1.1561957e-05,0.00013013298,0.0,0.02174553,0.0007137349,-0.0005824247,0.74739563,0.0,0.1,0.014191076,0.119071424,0.24435017,0.10026066,0.10657242,inf,inf,inf,inf,0,1,0,1,1,0,1,1,0,0,0
97103887,0,0.0,0.0,0.0,0.0,-0.047973942,4.6288296e-08,5.209874e-07,0.0,0.0021678102,-0.0001466368,-0.015860157,-0.016233142,1.1561957e-05,0.00013013298,0.0,0.010042085,0.008596753,-0.033578135,0.74717396,0.0,0.1,0.015860157,0.119789205,0.24505503,0.100645244,0.10678131,inf,inf,inf,inf,0,1,0,1,1,0,1,1,0,0,0
97207868,0,0.0,0.0,0.0,0.0,-0.051460292,4.6288296e-08,5.209874e-07,0.0,0.0027497627,0.00018885043,-0.017718455,-0.0195538,1.1561957e-05,0.00013013298,0.0,0.0017608929,0.001535041,-0.010117766,0.7468887,0.0,0.102064095,0.017718455,0.121066585,0.24639373,0.10128713,0.107154205,inf,inf,inf,inf,0,1,0,1,1,0,1,1,0,0,0
97311871,0,0.0,0.0,0.0,0.0,-0.049386635,4.6288296e-08,5.209874e-07,0.0,0.0033145119,0.0005222559,-0.016854696,-0.014476847,1.1561957e-05,0.00013013298,0.0,0.007979935,0.0004954735,0.0032336835,0.74663186,0.0,0.114502996,0.016854696,0.122231446,0.24767514,0.10183304,0.107497595,inf,inf,inf,inf,0,1,0,1,1,0,1,1,0,0,0
97407909,0,0.0,0.0,0.0,0.0,-0.04748398,4.6288296e-08,5.209874e-07,0.0,0.0034975305,0.0006108468,-0.016678227,-0.011031283,1.1561957e-05,0.00013013298,0.0,-0.00040007086,0.013374372,0.021897187,0.7464293,0.0,0.11166349,0.016678227,0.12267255,0.24823463,0.10198925,0.107638024,inf,inf,inf,inf,0,1,0,1,1,0,1,1,0,0,0
97511076,0,0.0,0.0,0.0,0.0,-0.04332827,4.6288296e-08,5.209874e-07,0.0,0.004360624,0.00018265127,-0.015551919,-0.004786118,1.1561957e-05,0.00013013298,0.0,0.012331372,-0.010498096,-0.021461815,0.74618036,0.0,0.11782883,0.015551919,0.12192695,0.24756414,0.1015247,0.1074432,inf,inf,inf,inf,0,1,0,1,1,0,1,1,0,0,0
97615074,0,0.0,0.0,0.0,0.0,-0.038824767,4.6288296e-08,5.209874e-07,0.0,0.004827343,0.0010174745,-0.013674788,0.0016812512,1.1561957e-05,0.00013013298,0.0,0.019176977,-0.0026484036,0.0016366,0.745976,0.0,0.11257536,0.013674788,0.12292811,0.24871862,0.10197577,0.10775372,inf,inf,inf,inf,0,1,0,1,1,0,1,1,0,0,0
97719068,0,0.0,0.0,0.0,0.0,-0.035036635,4.6288296e-08,5.209874e-07,0.0,0.005105377,0.0014749696,-0.01263371,0.005898596,1.1561957e-05,0.00013013298,0.0,0.007833683,0.010140126,0.0025643015,0.74570817,0.0,0.10750343,0.01263371,0.12207501,0.24797957,0.10145403,0.1075328,inf,inf,inf,inf,0,1,0,1,1,0,1,1,0,0,0
97823069,0,0.0,0.0,0.0,0.0,-0.031213345,4.6288296e-08,5.209874e-07,0.0,0.0053696944,0.0018647879,-0.010145925,0.011124613,1.1561957e-05,0.00013013298,0.0,-0.0051838076,-0.00061707164,0.002984534,0.7454421,0.0,0.11235151,0.010145925,0.12126392,0.24725284,0.100975014,0.10731625,inf,inf,inf,inf,0,1,0,1,1,0,1,1,0,0,0
97919075,0,0.0,0.0,0.0,0.0,-0.029813008,4.6288296e-08,5.209874e-07,0.0,0.0053856233,0.0022794658,-0.01016058,0.011018767,1.1561957e-05,0.00013013298,0.0,0.006314935,-0.01483488,0.01555669,0.7453123,0.0,0.1,0.01016058,0.12168094,0.24777731,0.101165555,0.10744557,inf,inf,inf,inf,0,1,0,1,1,0,1,1,0,0,0
98023075,0,0.0,0.0,0.0,0.0,-0.032312524,4.6288296e-08,5.209874e-07,0.0,0.0061762417,0.0026627197,-0.011436337,0.005811693,1.1561957e-05,0.00013013298,0.0,0.009615539,0.022263514,-0.0002222597,0.7450705,0.0,0.1,0.011436337,0.12095354,0.24708417,0.10076766,0.10724504,inf,inf,inf,inf,0,1,0,1,1,0,1,1,0,0,0
98127118,0,0.0,0.0,0.0,0.0,-0.038955476,4.6288296e-08,5.209874e-07,0.0,0.006280276,0.0036002744,-0.013618839,-0.0036129872,1.1561957e-05,0.00013013298,0.0,-0.009144111,0.01893088,0.020795248,0.7448405,0.0,0.1,0.013618839,0.12031169,0.2464341,0.10044504,0.10706268,inf,inf,inf,inf,0,1,0,1,1,0,1,1,0,0,0
98223069,0,0.0,0.0,0.0,0.0,-0.045214903,4.6288296e-08,5.209874e-07,0.0,0.006813106,0.004108855,-0.015331364,-0.011061335,1.1561957e-05,0.00013013298,0.0,0.0060106623,0.017127339,-0.01230329,0.74462956,0.0,0.1,0.015331364,0.12082651,0.2470021,0.10073008,0.10721334,inf,inf,inf,inf,0,1,0,1,1,0,1,1,0,0,0
98326269,0,0.0,0.0,0.0,0.0,-0.04898019,4.6288296e-08,5.209874e-07,0.0,0.007207638,0.0049311635,-0.0161169,-0.014237262,1.1561957e-05,0.00013013298,0.0,0.019092284,0.01190171,-0.017149052,0.74441487,0.0,0.1,0.0161169,0.12194304,0.24822764,0.10131296,0.10753748,inf,inf,inf,inf,0,1,0,1,1,0,1,1,0,0,0
98430269,0,0.0,0.0,0.0,0.0,-0.051083803,4.6288296e-08,5.209874e-07,0.0,0.0069709998,0.005444286,-0.015952606,-0.014594722,1.1561957e-05,0.00013013298,0.0,0.009649272,-0.005580365,0.015741149,0.7442683,0.0,0.1,0.015952606,0.12117527,0.2474966,0.10089497,0.107324496,inf,inf,inf,inf,0,1,0,1,1,0,1,1,0,0,0
98534269,0,0.0,0.0,0.0,0.0,-0.05279919,4.6288296e-08,5.209874e-07,0.0,0.0072107795,0.00589005,-0.016591853,-0.015251411,1.1561957e-05,0.00013013298,0.0,0.017211819,-0.0054086335,-0.024347644,0.7441717,0.0,0.10466836,0.016591853,0.12217593,0.24861807,0.10139943,0.10762685,inf,inf,inf,inf,0,1,0,1,1,0,1,1,0,0,0
98630269,0,0.0,0.0,0.0,0.0,-0.05509415,4.6288296e-08,5.209874e-07,0.0,0.006886674,0.006421492,-0.017040169,-0.01644808,1.1561957e-05,0.00013013298,0.0,0.003713732,-0.007944836,0.0034691133,0.7440733,0.0,0.1,0.017040169,0.12258919,0.24911731,0.10160365,0.107748196,inf,inf,inf,inf,0,1,0,1,1,0,1,1,0,0,0
98734269,0,0.0,0.0,0.0,0.0,-0.058910202,4.6288296e-08,5.209874e-07,0.0,0.006746911,0.0070313225,-0.01852185,-0.019788416,1.1561957e-05,0.00013013298,0.0,-0.005337892,0.0023877493,-0.0087563,0.74390423,0.0,0.1,0.01852185,0.12172126,0.24831526,0.10111984,0.107506484,inf,inf,inf,inf,0,1,0,1,1,0,1,1,0,0,0
98838268,0,0.0,0.0,0.0,0.0,-0.06100025,4.6288296e-08,5.209874e-07,0.0,0.0062333033,0.006810144,-0.018661823,-0.019803196,1.1561957e-05,0.00013013298,0.0,-0.0033709337,0.006098945,0.0027311777,0.743765,0.0,0.10449265,0.018661823,0.122709274,0.24944705,0.10161591,0.10779376,inf,inf,inf,inf,0,1,0,1,1,0,1,1,0,0,0
98934315,0,0.0,0.0,0.0,0.0,-0.061047085,4.6288296e-08,5.209874e-07,0.0,0.0059654,0.007110061,-0.018150397,-0.017410327,1.1561957e-05,0.00013013298,0.0,-0.0007493559,0.0018366217,-0.031429917,0.7436512,0.0,0.10554359,0.018150397,0.12305344,0.24989143,0.10177836,0.10789503,inf,inf,inf,inf,0,1,0,1,1,0,1,1,0,0,0
99037469,0,0.0,0.0,0.0,0.0,-0.0647025,4.6288296e-08,5.209874e-07,0.0,0.0055899364,0.0072663976,-0.019546071,-0.020562977,1.1561957e-05,0.00013013298,0.0,0.005121208,0.009937008,0.0001116955,0.743514,0.0,0.1,0.019546071,0.12212116,0.24902934,0.10126106,0.10763429,inf,inf,inf,inf,0,1,0,1,1,0,1,1,0,0,0
99141486,0,0.0,0.0,0.0,0.0,-0.069566116,4.6288296e-08,5.209874e-07,0.0,0.005482303,0.0076263216,-0.021196228,-0.024707718,1.1561957e-05,0.00013013298,0.0,0.009830647,-0.009090898,0.0036013166,0.74331343,0.0,0.103634745,0.021196228,0.12295473,0.25002575,0.101659566,0.10788901,inf,inf,inf,inf,0,1,0,1,1,0,1,1,0,0,0
99245496,0,0.0,0.0,0.0,0.0,-0.06988393,4.6288296e-08,5.209874e-07,0.0,0.0050799022,0.0075288257,-0.020564577,-0.021786071,1.1561957e-05,0.00013013298,0.0,-0.00047556922,-0.007122652,0.0141815245,0.74306923,0.0,0.107916996,0.020564577,0.12379297,0.2510521,0.1020553,0.10813488,inf,inf,inf,inf,0,1,0,1,1,0,1,1,0,0,0
99341468,0,0.0,0.0,0.0,0.0,-0.071763314,4.6288296e-08,5.209874e-07,0.0,0.0051451703,0.007538985,-0.02050214,-0.021466035,1.1561957e-05,0.00013013298,0.0,-0.018154481,0.0034947554,0.028544579,0.74280643,0.0,0.10226809,0.02050214,0.122128904,0.24942295,0.10116568,0.1076647,inf,inf,inf,inf,0,1,0,1,1,0,1,1,0,0,0
99445518,0,0.0,0.0,0.0,0.0,-0.071922205,4.6288296e-08,5.209874e-07,0.0,0.004752165,0.007101194,-0.02104029,-0.019813133,1.1561957e-05,0.00013013298,0.0,-0.009613692,-0.010920041,-0.0021876504,0.7425253,0.0,0.10955416,0.02104029,0.1230504,0.2504782,0.101645105,0.1079278,inf,inf,inf,inf,0,1,0,1,1,0,1,1,0,0,0
99549469,0,0.0,0.0,0.0,0.0,-0.06991014,4.6288296e-08,5.209874e-07,0.0,0.0048149824,0.006835288,-0.01931803,-0.014127861,1.1561957e-05,0.00013013298,0.0,0.0041677146,0.009612043,-0.0056988257,0.7423042,0.0,0.11131101,0.01931803,0.12218524,0.24960132,0.101223275,0.10767519,inf,inf,inf,inf,0,1,0,1,1,0,1,1,0,0,0
99645486,0,0.0,0.0,0.0,0.0,-0.069580056,4.6288296e-08,5.209874e-07,0.0,0.0050421697,0.00613769,-0.019607686,-0.012781122,1.1561957e-05,0.00013013298,0.0,0.006106251,0.012406226,-0.031090863,0.7421124,0.0,0.11485343,0.019607686,0.12078432,0.24809723,0.100542195,0.10726013,inf,inf,inf,inf,0,1,0,1,1,0,1,1,0,0,0
99749504,0,0.0,0.0,0.0,0.0,-0.06676683,4.6288296e-08,5.209874e-07,0.0,0.004372028,0.006364431,-0.017880606,-0.0072008255,1.1561957e-05,0.00013013298,0.0,0.010511053,0.018393144,-0.01836664,0.7418247,0.0,0.112996906,0.017880606,0.12010031,0.2473175,0.10024707,0.10704724,inf,inf,inf,inf,0,1,0,1,1,0,1,1,0,0,0
99852669,0,0.0,0.0,0.0,0.0,-0.0621039,4.6288296e-08,5.209874e-07,0.0,0.00416805,0.0062185237,-0.016317667,-0.00061950175,1.1561957e-05,0.00013013298,0.0,0.0059674312,0.0011186718,-0.0146918595,0.7415475,0.0,0.11497638,0.016317667,0.12122408,0.24846806,0.1008922,0.10736183,inf,inf,inf,inf,0,1,0,1,1,0,1,1,0,0,0
99948669,0,0.0,0.0,0.0,0.0,-0.058617402,4.6288296e-08,5.209874e-07,0.0,0.004353693,0.006034693,-0.015190103,0.0036778,1.1561957e-05,0.00013013298,0.0,0.0054725436,0.00533047,-0.0047819503,0.7413417,0.0,0.11544119,0.015190103,0.11996203,0.2470425,0.10029417,0.10698079,inf,inf,inf,inf,0,1,0,1,1,0,1,1,0,0,0
100052671,0,0.0,0.0,0.0,0.0,-0.05508017,4.6288296e-08,5.209874e-07,0.0,0.003747331,0.0061636707,-0.013699181,0.007783576,1.1561957e-05,0.00013013298,0.0,0.005830795,0.01271015,-0.012402503,0.74120355,0.0,0.109995335,0.013699181,0.12096723,0.2480958,0.100840285,0.107276194,inf,inf,inf,inf,0,1,0,1,1,0,1,1,0,0,0
100156669,0,0.0,0.0,0.0,0.0,-0.05395662,4.6288296e-08,5.209874e-07,0.0,0.0031295435,0.0066929385,-0.013514292,0.00783019,1.1561957e-05,0.00013013298,0.0,0.002576633,0.013657376,-0.020936754,0.74097633,0.0,0.10361616,0.013514292,0.121981636,0.24918556,0.10137101,0.10756305,inf,inf,inf,inf,0,1,0,1,1,0,1,1,0,0,0
100252669,0,0.0,0.0,0.0,0.0,-0.054100826,4.6288296e-08,5.209874e-07,0.0,0.002960894,0.0062421635,-0.013938685,0.006192215,1.1561957e-05,0.00013013298,0.0,0.005508562,-0.00062962633,0.021843174,0.74085015,0.0,0.1,0.013938685,0.12235477,0.24959297,0.101562604,0.10766495,inf,inf,inf,inf,0,1,0,1,1,0,1,1,0,0,0
100356675,0,0.0,0.0,0.0,0.0,-0.058474243,4.6288296e-08,5.209874e-07,0.0,0.002884252,0.006159427,-0.016330965,-0.001317068,1.1561957e-05,0.00013013298,0.0,-0.0004930141,-0.012469573,-0.0040668347,0.7406593,0.0,0.1,0.016330965,0.121476956,0.24870038,0.10108918,0.10741005,inf,inf,inf,inf,0,1,0,1,1,0,1,1,0,0,0
100460669,0,0.0,0.0,0.0,0.0,-0.06265653,4.6288296e-08,5.209874e-07,0.0,0.00301103,0.0071997372,-0.016830815,-0.005937264,1.1561957e-05,0.00013013298,0.0,-0.00019622546,0.024581658,0.0034644566,0.74042004,0.0,0.1,0.016830815,0.12247024,0.24977121,0.1016049,0.10769151,inf,inf,inf,inf,0,1,0,1,1,0,1,1,0,0,0
100559915,0,0.0,0.0,0.0,0.0,-0.06677574,4.6288296e-08,5.209874e-07,0.0,0.00296959,0.007824403,-0.01735518,-0.009926903,1.1561957e-05,0.00013013298,0.0,-0.004664776,-0.0016870202,-0.020939494,0.74018544,0.0,0.1,0.01735518,0.12106392,0.24825555,0.1008895,0.10727952,inf,inf,inf,inf,0,1,0,1,1,0,1,1,0,0,0
100663907,0,0.0,0.0,0.0,0.0,-0.072498925,4.6288296e-08,5.209874e-07,0.0,0.0028284604,0.007839662,-0.01851132,-0.0155837,1.1561957e-05,0.00013013298,0.0,0.008548547,0.011680636,-0.012664265,0.73987263,0.0,0.1,0.01851132,0.12039236,0.24747497,0.10057554,0.107074074,inf,inf,inf,inf,0,1,0,1,1,0,1,1,0,0,0
100767882,0,0.0,0.0,0.0,0.0,-0.07543165,4.6288296e-08,5.209874e-07,0.0,0.0026507478,0.007774521,-0.018728249,-0.016985249,1.1561957e-05,0.00013013298,0.0,0.0035208755,-0.008232688,-0.023468062,0.7395857,0.0,0.1,0.018728249,0.120020725,0.24699257,0.10047541,0.10692026,inf,inf,inf,inf,0,1,0,1,1,0,1,1,0,0,0
100871923,0,0.0,0.0,0.0,0.0,-0.079477444,4.6288296e-08,5.209874e-07,0.0,0.0019580713,0.0075392537,-0.019134166,-0.019502241,1.1561957e-05,0.00013013298,0.0,-0.0269092,0.0064490424,0.005868416,0.7393193,0.0,0.1,0.019134166,0.121144295,0.2481364,0.10108153,0.10723787,inf,inf,inf,inf,0,1,0,1,1,0,1,1,0,0,0
100967869,0,0.0,0.0,0.0,0.0,-0.08335994,4.6288296e-08,5.209874e-07,0.0,0.0017517904,0.007735674,-0.019678283,-0.021901922,1.1561957e-05,0.00013013298,0.0,0.015400554,0.0122221485,0.0031695403,0.7391222,0.0,0.1,0.019678283,0.12156325,0.24856399,0.101295516,0.10735528,inf,inf,inf,inf,0,1,0,1,1,0,1,1,0,0,0
101071869,0,0.0,0.0,0.0,0.0,-0.08750064,4.6288296e-08,5.209874e-07,0.0,0.0019778013,0.0077258814,-0.020026498,-0.023879867,1.1561957e-05,0.00013013298,0.0,-0.007969069,0.009886789,0.017219158,0.7389402,0.0,0.1,0.020026498,0.12079813,0.24773747,0.10088338,0.10713179,inf,inf,inf,inf,0,1,0,1,1,0,1,1,0,0,0
101175869,0,0.0,0.0,0.0,0.0,-0.08989369,4.6288296e-08,5.209874e-07,0.0,0.0011880812,0.008081605,-0.0202424,-0.02377319,1.1561957e-05,0.00013013298,0.0,0.0019150963,0.014137019,-0.020033743,0.7388935,0.0,0.10514368,0.0202424,0.12178753,0.24880762,0.10137246,0.10741727,inf,inf,inf,inf,0,1,0,1,1,0,1,1,0,0,0
101271887,0,0.0,0.0,0.0,0.0,-0.08870587,4.6288296e-08,5.209874e-07,0.0,0.0007817766,0.0075326255,-0.01927372,-0.019250289,1.1561957e-05,0.00013013298,0.0,0.0038501266,6.4494845e-05,0.04433521,0.738886,0.0,0.11619306,0.01927372,0.12212071,0.24919018,0.10151607,0.10751429,inf,inf,inf,inf,0,1,0,1,1,0,1,1,0,0,0
101375070,0,0.0,0.0,0.0,0.0,-0.0852512,4.6288296e-08,5.209874e-07,0.0,-0.00042553744,0.0071433024,-0.016668962,-0.0114140315,1.1561957e-05,0.00013013298,0.0,0.0075797117,0.010668419,0.033773523,0.7389307,0.0,0.111276105,0.016668962,0.12132116,0.24834225,0.101087116,0.107284494,inf,inf,inf,inf,0,1,0,1,1,0,1,1,0,0,0
101479070,0,0.0,0.0,0.0,0.0,-0.08503289,4.6288296e-08,5.209874e-07,0.0,-0.00025888655,0.006972354,-0.016384695,-0.009892249,1.1561957e-05,0.00013013298,0.0,-0.005385464,0.0011311026,-0.020758841,0.73895484,0.0,0.10280914,0.016384695,0.1205591,0.24748409,0.1006962,0.10707175,inf,inf,inf,inf,0,1,0,1,1,0,1,1,0,0,0
101583069,0,0.0,0.0,0.0,0.0,-0.087740205,4.6288296e-08,5.209874e-07,0.0,-0.00018016848,0.006375578,-0.016800279,-0.012041706,1.1561957e-05,0.00013013298,0.0,0.0072018304,-0.007923913,0.015900796,0.7388491,0.0,0.1,0.016800279,0.12169748,0.24863963,0.1013119,0.10739549,inf,inf,inf,inf,0,1,0,1,1,0,1,1,0,0,0
101679087,0,0.0,0.0,0.0,0.0,-0.090044476,4.6288296e-08,5.209874e-07,0.0,-0.00022225875,0.0064384253,-0.017259786,-0.013659957,1.1561957e-05,0.00013013298,0.0,0.0037451633,0.007119624,-0.010844748,0.7386533,0.0,0.10244403,0.017259786,0.12212975,0.24908173,0.10153314,0.107518926,inf,inf,inf,inf,0,1,0,1,1,0,1,1,0,0,0
101783075,0,0.0,0.0,0.0,0.0,-0.09166237,4.6288296e-08,5.209874e-07,0.0,-0.00035998962,0.0059691975,-0.018176507,-0.014723482,1.1561957e-05,0.00013013298,0.0,-0.001911431,-0.012232275,-0.007707289,0.7384262,0.0,0.1048271,0.018176507,0.12133391,0.24824582,0.10109804,0.107292935,inf,inf,inf,inf,0,1,0,1,1,0,1,1,0,0,0
101887069,0,0.0,0.0,0.0,0.0,-0.09508345,4.6288296e-08,5.209874e-07,0.0,-0.0008888211,0.006302245,-0.019053897,-0.017419102,1.1561957e-05,0.00013013298,0.0,-0.009401902,-0.010974661,-0.007647134,0.73816645,0.0,0.1,0.019053897,0.12239213,0.24936004,0.10164697,0.107597366,inf,inf,inf,inf,0,1,0,1,1,0,1,1,0,0,0
101983079,0,0.0,0.0,0.0,0.0,-0.10102292,4.6288296e-08,5.209874e-07,0.0,-0.0011233648,0.0061539495,-0.020190092,-0.022654949,1.1561957e-05,0.00013013298,0.0,0.006769666,0.0027725103,0.009268107,0.73789716,0.0,0.1,0.020190092,0.12104401,0.24789526,0.10095665,0.10720964,inf,inf,inf,inf,0,1,0,1,1,0,1,1,0,0,0
102086269,0,0.0,0.0,0.0,0.0,-0.106849305,4.6288296e-08,5.209874e-07,0.0,-0.0018318282,0.00597784,-0.022180876,-0.027777422,1.1561957e-05,0.00013013298,0.0,-0.0074541317,0.018910548,0.0004746043,0.7376183,0.0,0.10003026,0.022180876,0.12040461,0.24715178,0.10064706,0.107021846,inf,inf,inf,inf,0,1,0,1,1,0,1,1,0,0,0
102190275,0,0.0,0.0,0.0,0.0,-0.1090994,4.6288296e-08,5.209874e-07,0.0,-0.0018821113,0.005469672,-0.02089239,-0.025701035,1.1561957e-05,0.00013013298,0.0,-0.0037111011,-0.009627872,0.027052661,0.7372851,0.0,0.10631094,0.02089239,0.11982676,0.2464497,0.10037917,0.10684915,inf,inf,inf,inf,0,1,0,1,1,0,1,1,0,0,0
102286299,0,0.0,0.0,0.0,0.0,-0.11158958,4.6288296e-08,5.209874e-07,0.0,-0.0017662292,0.005207582,-0.02137703,-0.026069975,1.1561957e-05,0.00013013298,0.0,0.008611292,0.0028815381,-0.011123287,0.7368939,0.0,0.1,0.02137703,0.12025882,0.24684064,0.100623325,0.10699554,inf,inf,inf,inf,0,1,0,1,1,0,1,1,0,0,0
102390271,0,0.0,0.0,0.0,0.0,-0.11529912,4.6288296e-08,5.209874e-07,0.0,-0.001587683,0.0052251616,-0.022329092,-0.027808065,1.1561957e-05,0.00013013298,0.0,0.00070645846,-0.0068524224,0.00062720914,0.73648113,0.0,0.1,0.022329092,0.119779214,0.24623616,0.1004115,0.10684245,inf,inf,inf,inf,0,1,0,1,1,0,1,1,0,0,0
102494297,0,0.0,0.0,0.0,0.0,-0.11755786,4.6288296e-08,5.209874e-07,0.0,-0.0018957964,0.005010446,-0.022223726,-0.026918732,1.1561957e-05,0.00013013298,0.0,-0.0045026923,0.0127333235,-0.018843845,0.73614335,0.0,0.10409293,0.022223726,0.121001996,0.24746414,0.10107682,0.10719325,inf,inf,inf,inf,0,1,0,1,1,0,1,1,0,0,0
102598269,0,0.0,0.0,0.0,0.0,-0.12096312,4.6288296e-08,5.209874e-07,0.0,-0.0019772428,0.0050237775,-0.022697702,-0.027845325,1.1561957e-05,0.00013013298,0.0,0.023871262,0.014859554,-0.005430605,0.7358791,0.0,0.1,0.022697702,0.12050867,0.2468321,0.10085448,0.10704673,inf,inf,inf,inf,0,1,0,1,1,0,1,1,0,0,0
102694275,0,0.0,0.0,0.0,0.0,-0.12377744,4.6288296e-08,5.209874e-07,0.0,-0.0021369897,0.0046688975,-0.022428686,-0.027619375,1.1561957e-05,0.00013013298,0.0,-0.0093087815,-0.007794874,-0.014569606,0.7356571,0.0,0.103340805,0.022428686,0.11940913,0.2455522,0.10031317,0.10672346,inf,inf,inf,inf,0,1,0,1,1,0,1,1,0,0,0
102798271,0,0.0,0.0,0.0,0.0,-0.12548442,4.6288296e-08,5.209874e-07,0.0,-0.0023762288,0.004512313,-0.022544403,-0.026432248,1.1561957e-05,0.00013013298,0.0,0.00048499423,0.0005190157,0.032149058,0.73535943,0.0,0.10863381,0.022544403,0.12069856,0.246833,0.1010121,0.107093975,inf,inf,inf,inf,0,1,0,1,1,0,1,1,0,0,0
102897494,0,0.0,0.0,0.0,0.0,-0.122991785,4.6288296e-08,5.209874e-07,0.0,-0.0027918299,0.004242675,-0.021058304,-0.019887285,1.1561957e-05,0.00013013298,0.0,0.0011701644,0.00031551425,-0.018075584,0.7350987,0.0,0.11924864,0.021058304,0.11961336,0.2455777,0.10046573,0.10677733,inf,inf,inf,inf,0,1,0,1,1,0,1,1,0,0,0
103001475,0,0.0,0.0,0.0,0.0,-0.11819056,4.6288296e-08,5.209874e-07,0.0,-0.0031590257,0.0037690713,-0.018677859,-0.010925267,1.1561957e-05,0.00013013298,0.0,-0.0114036575,0.015274416,-0.018000107,0.7348839,0.0,0.11943187,0.018677859,0.11920124,0.24502909,0.100278,0.10665476,inf,inf,inf,inf,0,1,0,1,1,0,1,1,0,0,0
103105469,0,0.0,0.0,0.0,0.0,-0.11455801,4.6288296e-08,5.209874e-07,0.0,-0.0039489307,0.0029222972,-0.016953284,-0.0048060073,1.1561957e-05,0.00013013298,0.0,0.003587303,-0.01909349,-0.00303965,0.73471045,0.0,0.119036235,0.016953284,0.119024485,0.24474122,0.10024017,0.106562614,inf,inf,inf,inf,0,1,0,1,1,0,1,1,0,0,0
103209475,0,0.0,0.0,0.0,0.0,-0.10863667,4.6288296e-08,5.209874e-07,0.0,-0.004661145,0.0028524639,-0.014555992,0.0034688974,1.1561957e-05,0.00013013298,0.0,-0.0048809084,0.010564752,-0.009053722,0.73451436,0.0,0.11820324,0.014555992,0.12033479,0.24605615,0.10093433,0.10694203,inf,inf,inf,inf,0,1,0,1,1,0,1,1,0,0,0
103305469,0,0.0,0.0,0.0,0.0,-0.105165415,4.6288296e-08,5.209874e-07,0.0,-0.0052117794,0.002151597,-0.013274428,0.007382588,1.1561957e-05,0.00013013298,0.0,-0.004370768,-0.004754404,-0.016509965,0.7344015,0.0,0.11038735,0.013274428,0.11929832,0.24485967,0.10040166,0.10664159,inf,inf,inf,inf,0,1,0,1,1,0,1,1,0,0,0
103409469,0,0.0,0.0,0.0,0.0,-0.10263105,4.6288296e-08,5.209874e-07,0.0,-0.0050895563,0.0018395282,-0.012339729,0.009544041,1.1561957e-05,0.00013013298,0.0,0.013159426,-0.006924383,0.0114673115,0.7342087,0.0,0.10908336,0.012339729,0.118906684,0.24435239,0.10020089,0.10652771,inf,inf,inf,inf,0,1,0,1,1,0,1,1,0,0,0
103513469,0,0.0,0.0,0.0,0.0,-0.10100428,4.6288296e-08,5.209874e-07,0.0,-0.0055758483,0.0013970111,-0.011381115,0.010589238,1.1561957e-05,0.00013013298,0.0,-0.008813343,-0.0011112477,0.0061170673,0.7340456,0.0,0.10258726,0.011381115,0.120252796,0.24570534,0.10091309,0.10691861,inf,inf,inf,inf,0,1,0,1,1,0,1,1,0,0,0
103616675,0,0.0,0.0,0.0,0.0,-0.100576855,4.6288296e-08,5.209874e-07,0.0,-0.0053291176,0.00094203214,-0.01026024,0.0105455415,1.1561957e-05,0.00013013298,0.0,0.0032138273,0.016491521,-0.010099135,0.7338402,0.0,0.1,0.01026024,0.11992566,0.24525167,0.100757286,0.106822625,inf,inf,inf,inf,0,1,0,1,1,0,1,1,0,0,0
103711917,0,0.0,0.0,0.0,0.0,-0.09963403,4.6288296e-08,5.209874e-07,0.0,-0.0049869753,0.00076875737,-0.009695225,0.010701858,1.1561957e-05,0.00013013298,0.0,0.0017449042,-0.0043231985,-0.018236252,0.7336098,0.0,0.10144732,0.009695225,0.118955046,0.24412632,0.100254625,0.10654244,inf,inf,inf,inf,0,1,0,1,1,0,1,1,0,0,0
103816669,0,0.0,0.0,0.0,0.0,-0.099459685,4.6288296e-08,5.209874e-07,0.0,-0.0053386055,0.0005728544,-0.0083364565,0.010764716,1.1561957e-05,0.00013013298,0.0,0.008272607,0.025750536,0.0066083237,0.73331463,0.0,0.1,0.0083364565,0.1185801,0.24363254,0.100058466,0.106446706,inf,inf,inf,inf,0,1,0,1,1,0,1,1,0,0,0
103920699,0,0.0,0.0,0.0,0.0,-0.09851815,4.6288296e-08,5.209874e-07,0.0,-0.005243183,0.00095720275,-0.007910553,0.010794543,1.1561957e-05,0.00013013298,0.0,0.00094621326,0.013048643,0.011197951,0.7330975,0.0,0.10417756,0.007910553,0.12162848,0.24684267,0.10162948,0.107331954,inf,inf,inf,inf,0,1,0,1,1,0,1,1,0,0,0
104016705,0,0.0,0.0,0.0,0.0,-0.09736393,4.6288296e-08,5.209874e-07,0.0,-0.0055677593,0.00091287855,-0.006069448,0.012472788,1.1561957e-05,0.00013013298,0.0,-0.0071236417,0.011219661,0.01930947,0.7329506,0.0,0.10406567,0.006069448,0.12045569,0.24563009,0.10096212,0.107007295,inf,inf,inf,inf,0,1,0,1,1,0,1,1,0,0,0
104120675,0,0.0,0.0,0.0,0.0,-0.09374712,4.6288296e-08,5.209874e-07,0.0,-0.005553597,0.001254069,-0.004497451,0.016082736,1.1561957e-05,0.00013013298,0.0,-0.009793326,-0.002160704,-0.004234387,0.73276865,0.0,0.11179492,0.004497451,0.11993901,0.24510235,0.10064557,0.10686929,inf,inf,inf,inf,0,1,0,1,1,0,1,1,0,0,0
104224715,0,0.0,0.0,0.0,0.0,-0.09052957,4.6288296e-08,5.209874e-07,0.0,-0.0054996843,0.0005386482,-0.0027753965,0.01886202,1.1561957e-05,0.00013013298,0.0,0.0012575526,0.022142421,-0.013437221,0.73262006,0.0,0.1,0.0027753965,0.12120209,0.24644962,0.10127048,0.107240506,inf,inf,inf,inf,0,1,0,1,1,0,1,1,0,0,0
104319120,0,0.0,0.0,0.0,0.0,-0.08872933,4.6288296e-08,5.209874e-07,0.0,-0.005462721,0.00019332864,-0.0018935112,0.01946329,1.1561957e-05,0.00013013298,0.0,-0.004087269,0.0027234086,0.0037491566,0.73251647,0.0,0.1,0.0018935112,0.12013932,0.24533346,0.10069674,0.10693329,inf,inf,inf,inf,0,1,0,1,1,0,1,1,0,0,0
104423869,0,0.0,0.0,0.0,0.0,-0.085574426,4.6288296e-08,5.209874e-07,0.0,-0.004916224,0.00049022865,-0.0007170936,0.021476438,1.1561957e-05,0.00013013298,0.0,-0.013937644,0.00297394,-0.02079206,0.7323295,0.0,0.106384166,0.0007170936,0.11960492,0.24477118,0.10039017,0.10679759,inf,inf,inf,inf,0,1,0,1,1,0,1,1,0,0,0
104527869,0,0.0,0.0,0.0,0.0,-0.08253795,4.6288296e-08,5.209874e-07,0.0,-0.004836547,0.0005029322,0.00041783793,0.023083607,1.1561957e-05,0.00013013298,0.0,-0.019211,0.004991015,-0.02548291,0.73216724,0.0,0.10970393,-0.00041783793,0.11922855,0.24436375,0.10019228,0.106684804,inf,inf,inf,inf,0,1,0,1,1,0,1,1,0,0,0
104631893,0,0.0,0.0,0.0,0.0,-0.07771689,4.6288296e-08,5.209874e-07,0.0,-0.005070223,-0.00013401908,0.0014399771,0.026095498,1.1561957e-05,0.00013013298,0.0,-0.003972356,0.0012204868,-0.008022699,0.73206466,0.0,0.100714,-0.0014399771,0.120373555,0.245591,0.10076446,0.10704531,inf,inf,inf,inf,0,1,0,1,1,0,1,1,0,0,0
104727880,0,0.0,0.0,0.0,0.0,-0.07555307,4.6288296e-08,5.209874e-07,0.0,-0.005246317,-0.0003394143,0.0019779762,0.026014308,1.1561957e-05,0.00013013298,0.0,0.002271702,0.007024719,0.0014967275,0.7320006,0.0,0.10464992,-0.0019779762,0.11929598,0.24444509,0.100192234,0.10673764,inf,inf,inf,inf,0,1,0,1,1,0,1,1,0,0,0
104831869,0,0.0,0.0,0.0,0.0,-0.07285045,4.6288296e-08,5.209874e-07,0.0,-0.0047955816,-0.00077875855,0.003410318,0.027056454,1.1561957e-05,0.00013013298,0.0,-0.0077908877,0.0038144924,0.002147444,0.7317936,0.0,0.1,-0.003410318,0.12059273,0.24582207,0.10087013,0.10711701,inf,inf,inf,inf,0,1,0,1,1,0,1,1,0,0,0
104935869,0,0.0,0.0,0.0,0.0,-0.07590538,4.6288296e-08,5.209874e-07,0.0,-0.0047277887,-0.0018135855,0.0022514716,0.019916702,1.1561957e-05,0.00013013298,0.0,-0.013830554,0.0044010333,0.04180235,0.7316323,0.0,0.1,-0.0022514716,0.12009551,0.24532254,0.1005864,0.10697959,inf,inf,inf,inf,0,1,0,1,1,0,1,1,0,0,0
105039869,0,0.0,0.0,0.0,0.0,-0.07843843,4.6288296e-08,5.209874e-07,0.0,-0.0043486212,-0.0016023912,0.0013018297,0.014311259,1.1561957e-05,0.00013013298,0.0,-0.0016164723,-0.018227283,-0.010153341,0.73146653,0.0,0.1,-0.0013018297,0.121364154,0.24668722,0.10123504,0.107348986,inf,inf,inf,inf,0,1,0,1,1,0,1,1,0,0,0
105135887,0,0.0,0.0,0.0,0.0,-0.08160605,4.6288296e-08,5.209874e-07,0.0,-0.004037246,-0.0019331144,0.0006217623,0.00921326,1.1561957e-05,0.00013013298,0.0,0.01568319,-0.011256801,-0.0027334462,0.73133147,0.0,0.1,-0.0006217623,0.121909656,0.24732864,0.10147922,0.10751261,inf,inf,inf,inf,0,1,0,1,1,0,1,1,0,0,0
105239069,0,0.0,0.0,0.0,0.0,-0.083872996,4.6288296e-08,5.209874e-07,0.0,-0.003629055,-0.0020029598,-0.00068141,0.0049208947,1.1561957e-05,0.00013013298,0.0,-0.0031572522,0.003543863,-0.02596922,0.7312152,0.0,0.1,0.00068141,0.121254124,0.24673778,0.10108963,0.107335344,inf,inf,inf,inf,0,1,0,1,1,0,1,1,0,0,0
105343069,0,0.0,0.0,0.0,0.0,-0.08556211,4.6288296e-08,5.209874e-07,0.0,-0.0041602324,-0.0021520779,-0.0012265523,0.0024046355,1.1561957e-05,0.00013013298,0.0,-0.010087587,-0.0022944475,0.004221622,0.7311548,0.0,0.1,0.0012265523,0.122286715,0.24793302,0.10156651,0.107652545,inf,inf,inf,inf,0,1,0,1,1,0,1,1,0,0,0
105447068,0,0.0,0.0,0.0,0.0,-0.08735192,4.6288296e-08,5.209874e-07,0.0,-0.0031407098,-0.0026884535,-0.0015019563,0.00032197539,1.1561957e-05,0.00013013298,0.0,-0.0039843847,-0.0060559944,-0.0061579677,0.73105454,0.0,0.1,0.0015019563,0.12147442,0.24724384,0.1010721,0.10743429,inf,inf,inf,inf,0,1,0,1,1,0,1,1,0,0,0
105551076,0,0.0,0.0,0.0,0.0,-0.0850834,4.6288296e-08,5.209874e-07,0.0,-0.002617292,-0.0032099974,-0.0016275536,0.0025958242,1.1561957e-05,0.00013013298,0.0,0.008547403,0.018654475,-0.0069286986,0.7308971,0.0,0.10552184,0.0016275536,0.1225306,0.24847443,0.10158043,0.10774544,inf,inf,inf,inf,0,1,0,1,1,0,1,1,0,0,0
105647075,0,0.0,0.0,0.0,0.0,-0.08125826,4.6288296e-08,5.209874e-07,0.0,-0.0028626,-0.003466507,0.00039678445,0.008136654,1.1561957e-05,0.00013013298,0.0,0.0020443178,0.009873808,-0.0152761,0.7308079,0.0,0.106004864,-0.00039678445,0.121171646,0.24713689,0.10085051,0.10736159,inf,inf,inf,inf,0,1,0,1,1,0,1,1,0,0,0
105751107,0,0.0,0.0,0.0,0.0,-0.07797375,4.6288296e-08,5.209874e-07,0.0,-0.002168592,-0.0042400504,0.0023004357,0.012293218,1.1561957e-05,0.00013013298,0.0,0.0050322944,-0.005371933,0.017589973,0.73073596,0.0,0.10312387,-0.0023004357,0.12050319,0.24650103,0.10049889,0.10717003,inf,inf,inf,inf,0,1,0,1,1,0,1,1,0,0,0
105855076,0,0.0,0.0,0.0,0.0,-0.074732445,4.6288296e-08,5.209874e-07,0.0,-0.0014839217,-0.004958295,0.0033876968,0.015198344,1.1561957e-05,0.00013013298,0.0,0.010523498,-0.018644704,0.017721623,0.73062325,0.0,0.10654356,-0.0033876968,0.12163362,0.24775735,0.1010879,0.1074964,inf,inf,inf,inf,0,1,0,1,1,0,1,1,0,0,0
105958288,0,0.0,0.0,0.0,0.0,-0.07231505,4.6288296e-08,5.209874e-07,0.0,-0.0013941644,-0.005078963,0.004436684,0.01689855,1.1561957e-05,0.00013013298,0.0,0.009114552,-0.019990165,-0.0003114802,0.7305315,0.0,0.10071847,-0.004436684,0.12100071,0.24712981,0.100769125,0.10731129,inf,inf,inf,inf,0,1,0,1,1,0,1,1,0,0,0
106054321,0,0.0,0.0,0.0,0.0,-0.06757641,4.6288296e-08,5.209874e-07,0.0,-0.0006673282,-0.005206093,0.0067542526,0.022094768,1.1561957e-05,0.00013013298,0.0,0.006884677,-0.007788749,-0.0042849258,0.7305079,0.0,0.11112437,-0.0067542526,0.11978994,0.24585058,0.100161925,0.10695409,inf,inf,inf,inf,0,1,0,1,1,0,1,1,0,0,0
106158269,0,0.0,0.0,0.0,0.0,-0.06092402,4.6288296e-08,5.209874e-07,0.0,-0.0005677142,-0.005134867,0.009270385,0.028584667,1.1561957e-05,0.00013013298,0.0,-0.007128227,0.0091302,0.033357117,0.73041457,0.0,0.10941067,-0.009270385,0.12091961,0.24706563,0.100767866,0.10728709,inf,inf,inf,inf,0,1,0,1,1,0,1,1,0,0,0
106262287,0,0.0,0.0,0.0,0.0,-0.057264257,4.6288296e-08,5.209874e-07,0.0,-0.00047598683,-0.0049405284,0.009823983,0.029502166,1.1561957e-05,0.00013013298,0.0,0.013306225,0.00044440528,0.0016445924,0.7302589,0.0,0.1,-0.009823983,0.12039537,0.2464925,0.100530505,0.10712545,inf,inf,inf,inf,0,1,0,1,1,0,1,1,0,0,0
106358294,0,0.0,0.0,0.0,0.0,-0.05570426,4.6288296e-08,5.209874e-07,0.0,-0.00013086897,-0.004503034,0.010404623,0.028589629,1.1561957e-05,0.00013013298,0.0,-0.007392628,0.0014819977,0.01930592,0.7301054,0.0,0.1,-0.010404623,0.11929471,0.24527034,0.100000694,0.10679304,inf,inf,inf,inf,0,1,0,1,1,0,1,1,0,0,0
106769469,0,0.0,0.0,0.0,0.0,-0.07054925,4.6288296e-08,5.209874e-07,0.0,0.00028014136,-0.004700278,0.0044807713,0.0010550657,1.1561957e-05,0.00013013298,0.0,-0.01125762,-0.0063057146,0.0011417381,0.7292771,0.0,0.1,-0.0044807713,0.121716656,0.24785501,0.101321705,0.10747085,inf,inf,inf,inf,0,1,0,1,1,0,1,1,0,0,0
107576668,0,0.0,0.0,0.0,0.0,-0.08194419,4.6288296e-08,5.209874e-07,0.0,0.0022586724,-0.0023832128,0.0008432553,-0.005468645,1.1561957e-05,0.00013013298,0.0,0.0042651403,0.00057407096,-0.015980627,0.72804147,0.0,0.1,-0.0008432553,0.11923673,0.24498983,0.10015323,0.10667383,inf,inf,inf,inf,0,1,0,1,1,0,1,1,0,0,0
107680668,0,0.0,0.0,0.0,0.0,-0.08614033,4.6288296e-08,5.209874e-07,0.0,0.0023405915,-0.0017703924,-0.0008399084,-0.010487846,1.1561957e-05,0.00013013298,0.0,0.00010710595,0.0110809365,-0.0055755023,0.7278374,0.0,0.1,0.0008399084,0.12067604,0.246465,0.100947216,0.10706192,inf,inf,inf,inf,0,1,0,1,1,0,1,1,0,0,0
107784668,0,0.0,0.0,0.0,0.0,-0.08933368,4.6288296e-08,5.209874e-07,0.0,0.0027086223,-0.0014743173,-0.0017235699,-0.013195951,1.1561957e-05,0.00013013298,0.0,-0.00063003815,-0.010464831,-0.012812757,0.72761416,0.0,0.1,0.0017235699,0.12023105,0.24593782,0.10072898,0.10692373,inf,inf,inf,inf,0,1,0,1,1,0,1,1,0,0,0
107880687,0,0.0,0.0,0.0,0.0,-0.09357072,4.6288296e-08,5.209874e-07,0.0,0.0030687572,-0.0014789337,-0.0025597415,-0.016662069,1.1561957e-05,0.00013013298,0.0,-0.009398501,0.0004980907,0.033210408,0.7273965,0.0,0.1,0.0025597415,0.11918827,0.24476215,0.100198194,0.106610686,inf,inf,inf,inf,0,1,0,1,1,0,1,1,0,0,0
107984669,0,0.0,0.0,0.0,0.0,-0.09792848,4.6288296e-08,5.209874e-07,0.0,0.0032049655,-0.0002563748,-0.004022192,-0.020285139,1.1561957e-05,0.00013013298,0.0,0.009529884,-0.009749769,-0.017500546,0.72715735,0.0,0.1,0.004022192,0.11880086,0.24427596,0.10001319,0.10648786,inf,inf,inf,inf,0,1,0,1,1,0,1,1,0,0,0
108088669,0,0.0,0.0,0.0,0.0,-0.10074017,4.6288296e-08,5.209874e-07,0.0,0.0033630668,6.823613e-05,-0.0046305154,-0.0211666,1.1561957e-05,0.00013013298,0.0,0.011350117,0.0018530617,0.014885394,0.7268601,0.0,0.1,0.0046305154,0.12014857,0.24564731,0.10073589,0.10687172,inf,inf,inf,inf,0,1,0,1,1,0,1,1,0,0,0
108184675,0,0.0,0.0,0.0,0.0,-0.10293197,4.6288296e-08,5.209874e-07,0.0,0.0032618195,0.00036481244,-0.005687685,-0.021960955,1.1561957e-05,0.00013013298,0.0,0.004221218,0.0011550525,0.03426762,0.726707,0.0,0.10088269,0.005687685,0.11915607,0.24451366,0.10023487,0.106575,inf,inf,inf,inf,0,1,0,1,1,0,1,1,0,0,0
108287876,0,0.0,0.0,0.0,0.0,-0.104750365,4.6288296e-08,5.209874e-07,0.0,0.0024631745,0.00075519696,-0.0061775697,-0.021700067,1.1561957e-05,0.00013013298,0.0,-0.003041979,0.0014162874,0.00033918247,0.7264842,0.0,0.1,0.0061775697,0.11875733,0.24400689,0.100036465,0.1064611,inf,inf,inf,inf,0,1,0,1,1,0,1,1,0,0,0
108391875,0,0.0,0.0,0.0,0.0,-0.107988276,4.6288296e-08,5.209874e-07,0.0,0.0023263404,0.0009722191,-0.007416727,-0.023584008,1.1561957e-05,0.00013013298,0.0,-0.0065080053,-0.017740527,0.012018759,0.7264363,0.0,0.1,0.007416727,0.1201141,0.24539581,0.10075558,0.10685112,inf,inf,inf,inf,0,1,0,1,1,0,1,1,0,0,0
108495894,0,0.0,0.0,0.0,0.0,-0.10820465,4.6288296e-08,5.209874e-07,0.0,0.0021565694,0.0016017752,-0.0067435307,-0.020400178,1.1561957e-05,0.00013013298,0.0,0.12064821,0.09660573,-0.061206028,0.7265134,0.0,0.10800173,0.0067435307,0.119785264,0.24497077,0.10059909,0.10674882,inf,inf,inf,inf,0,1,0,1,1,0,1,1,0,0,0
108599892,0,0.0,0.0,0.0,0.0,-0.10700602,4.6288296e-08,5.209874e-07,0.0,0.0013441475,0.0012261474,-0.0054449216,-0.01572771,1.1561957e-05,0.00013013298,0.0,-0.06943334,-0.054374583,0.017891385,0.7264594,0.0,0.10478299,0.0054449216,0.12108642,0.2463389,0.10125633,0.107122704,inf,inf,inf,inf,0,1,0,1,1,0,1,1,0,0,0
108695868,0,0.0,0.0,0.0,0.0,-0.1088303,4.6288296e-08,5.209874e-07,0.0,0.00087582634,0.001182568,-0.0057435837,-0.01620344,1.1561957e-05,0.00013013298,0.0,0.008513504,-0.0090649165,0.008962923,0.72630835,0.0,0.1,0.0057435837,0.11992828,0.2451355,0.10060675,0.10679325,inf,inf,inf,inf,0,1,0,1,1,0,1,1,0,0,0
108799911,0,0.0,0.0,0.0,0.0,-0.11356145,4.6288296e-08,5.209874e-07,0.0,0.000866611,0.0015567705,-0.008329926,-0.02151808,1.1561957e-05,0.00013013298,0.0,0.078275606,-0.12946802,-0.2542021,0.7267888,0.0,0.1,0.008329926,0.12472456,0.24644358,0.103049554,0.10714107,inf,inf,inf,inf,0,1,0,1,1,0,1,1,0,0,0
108902286,0,0.0,0.0,0.0,0.0,-0.11855999,4.6288296e-08,5.209874e-07,0.0,-7.883236e-05,0.0012450517,-0.0105401445,-0.026274147,1.1561957e-05,0.00013013298,0.0,0.09540441,-0.07977579,-0.3823811,0.726382,0.0,0.10462224,0.0105401445,0.13354787,0.24770784,0.10740048,0.10746856,inf,inf,inf,inf,0,1,0,1,1,0,1,1,0,0,0
108999069,0,0.0,0.0,0.0,0.0,-0.1241176,4.6288296e-08,5.209874e-07,0.0,0.0012248586,-0.0027730132,-0.008338799,-0.026835665,1.1561957e-05,0.00013013298,0.0,-0.17752838,-0.1233502,-0.16706699,0.72623485,0.0,0.11017985,0.008338799,0.14218153,0.24828091,0.11146161,0.107606396,inf,inf,inf,inf,0,1,0,1,1,0,1,1,0,0,0
109103068,0,0.0,0.0,0.0,0.0,-0.13060363,4.6288296e-08,5.209874e-07,0.0,0.00071823667,-0.0035662893,-0.011619357,-0.033229973,1.1561957e-05,0.00013013298,0.0,-0.33506143,-0.3661441,-0.2751891,0.726355,0.0,0.11666588,0.011619357,0.15189362,0.24744253,0.1158267,0.10737522,inf,inf,inf,inf,0,1,0,1,1,0,1,1,0,0,0
109207069,0,0.0,0.0,0.0,0.0,-0.13990633,4.6288296e-08,5.209874e-07,0.0,0.013919784,-0.020706909,-0.027593492,-0.05391463,1.1561957e-05,0.00013013298,0.0,1.2735844,0.5322533,0.6037434,0.72632915,0.0,0.12596858,0.027593492,0.16237488,0.24870726,0.120353624,0.10768587,inf,inf,inf,inf,0,1,0,1,1,0,1,1,0,0,0
109311106,0,0.0,0.0,0.0,0.0,-0.14921057,4.6288296e-08,5.209874e-07,0.0,-0.0062992233,-0.016253484,-0.030190624,-0.059226695,1.1561957e-05,0.00013013298,0.0,-0.0051272474,-2.1599553,-0.74918497,0.7267386,0.0,0.13527283,0.030190624,0.17330094,0.24800234,0.12490364,0.107471384,inf,inf,inf,inf,0,1,0,1,1,0,1,1,0,0,0
109407069,0,0.0,0.0,0.0,0.0,-0.15778293,4.6288296e-08,5.209874e-07,0.0,-0.010730906,-0.0009585816,-0.03834288,-0.06976063,1.1561957e-05,0.00013013298,0.0,-1.3131891,-1.1992613,-0.75086224,0.72628045,0.0,0.14384517,0.03834288,0.18385984,0.24853659,0.12922287,0.107599474,inf,inf,inf,inf,0,1,0,1,1,0,1,1,0,0,0
109511075,0,0.0,0.0,0.0,0.0,-0.16909008,4.6288296e-08,5.209874e-07,0.0,0.001942683,-6.1406026e-05,-0.032349396,-0.06797705,1.1561957e-05,0.00013013298,0.0,-1.8758763,0.2593199,-5.3652897,0.7268021,0.0,0.15515232,0.032349396,0.19579026,0.2478397,0.13381658,0.10739187,inf,inf,inf,inf,0,1,0,1,1,0,1,1,0,0,0
109615069,0,0.0,0.0,0.0,0.0,-0.18293804,4.6288296e-08,5.209874e-07,0.0,-0.010699225,-0.0065471954,-0.03282088,-0.07494235,1.1561957e-05,0.00013013298,0.0,-0.94687825,-1.1612275,2.6479301,0.7274711,0.0,0.1690003,0.03282088,0.20823185,0.2471634,0.13850836,0.10719412,inf,inf,inf,inf,0,1,0,1,1,0,1,1,0,0,0
109710275,0,0.0,0.0,0.0,0.0,-0.1981053,4.6288296e-08,5.209874e-07,0.0,0.0065960763,0.0031211756,-0.021856297,-0.07213062,1.1561957e-05,0.00013013298,0.0,-1.1431301,-2.2878363,-4.4031987,0.7276418,0.0,0.18416756,0.021856297,0.22018111,0.2477309,0.14286722,0.1073407,inf,inf,inf,inf,0,1,0,1,1,0,1,1,0,0,0
109814268,0,0.0,0.0,0.0,0.0,-0.21167944,4.6288296e-08,5.209874e-07,0.0,-0.0079658,-0.015551279,-0.032813117,-0.08795626,1.1561957e-05,0.00013013298,0.0,-1.6517713,-4.496385,-2.2865198,0.728153,0.0,0.19774169,0.032813117,0.23359786,0.24709162,0.14752805,0.10716038,inf,inf,inf,inf,0,1,0,1,1,0,1,1,0,0,0
109918276,0,0.0,0.0,0.0,0.0,-0.22393703,4.6288296e-08,5.209874e-07,0.0,-0.010729164,-0.009934977,-0.03263063,-0.08989718,1.1561957e-05,0.00013013298,0.0,-1.5775721,-1.4724116,3.6920958,0.72781813,0.0,0.2099993,0.03263063,0.24728842,0.24632443,0.15218994,0.10697024,inf,inf,inf,inf,0,1,0,1,1,0,1,1,0,0,0
110014313,0,0.0,0.0,0.0,0.0,-0.23430511,4.6288296e-08,5.209874e-07,0.0,-0.006154254,-0.00029006088,-0.055236846,-0.11193984,1.1561957e-05,0.00013013298,0.0,-0.71592146,-1.667721,2.7667658,0.72810775,0.0,0.22036737,0.055236846,0.26069942,0.24697407,0.1568329,0.10713303,inf,inf,inf,inf,0,1,0,1,1,0,1,1,0,0,0
110118303,0,0.0,0.0,0.0,0.0,-0.24708965,4.6288296e-08,5.209874e-07,0.0,0.0067367107,-0.0060277577,-0.0681939,-0.12469858,1.1561957e-05,0.00013013298,0.0,1.1946229,0.26915425,-3.226386,0.7305915,0.0,0.23315191,0.0681939,0.27555048,0.24637783,0.16167773,0.106974885,inf,inf,inf,inf,0,1,0,1,1,0,1,1,0,0,0
110222269,0,0.0,0.0,0.0,0.0,-0.26314804,4.6288296e-08,5.209874e-07,0.0,0.007541816,-0.009900418,-0.05233416,-0.112276204,1.1561957e-05,0.00013013298,0.0,0.6569577,-4.4928827,2.1646914,0.73258144,0.0,0.2492103,0.05233416,0.29089397,0.24578907,0.16666783,0.10681587,inf,inf,inf,inf,0,1,0,1,1,0,1,1,0,0,0
110326269,0,0.0,0.0,0.0,0.0,-0.2849201,4.6288296e-08,5.209874e-07,0.0,0.009614385,-0.010604595,-0.0362779,-0.10538729,1.1561957e-05,0.00013013298,0.0,-2.2893224,-2.5260823,1.304698,0.7346108,0.0,0.27098235,0.0362779,0.3067195,0.24522573,0.17166871,0.10667148,inf,inf,inf,inf,0,1,0,1,1,0,1,1,0,0,0
110429468,0,0.0,0.0,0.0,0.0,-0.30652973,4.6288296e-08,5.209874e-07,0.0,0.0100254705,-0.008727245,-0.06208406,-0.1401468,1.1561957e-05,0.00013013298,0.0,-3.9365754,-2.1723583,-3.010947,0.7376504,0.0,0.292592,0.06208406,0.32309717,0.2465283,0.1766705,0.107029766,inf,inf,inf,inf,0,1,0,1,1,0,1,1,0,0,0
110525469,0,0.0,0.0,0.0,0.0,-0.32483196,4.6288296e-08,5.209874e-07,0.0,0.030357672,-0.005700708,-0.060275912,-0.14140154,1.1561957e-05,0.00013013298,0.0,2.7832649,3.5855932,1.5522324,0.7407211,0.0,0.31089422,0.060275912,0.3386163,0.24715498,0.18122862,0.10720724,inf,inf,inf,inf,0,1,0,1,1,0,1,1,0,0,0
110629512,0,0.0,0.0,0.0,0.0,-0.34129345,4.6288296e-08,5.209874e-07,0.0,0.023571048,-0.015027465,-0.03769335,-0.12068654,1.1561957e-05,0.00013013298,0.0,-1.2879902,1.414676,-3.673991,0.74241894,0.0,0.3273557,0.03769335,0.3557735,0.24834742,0.18634427,0.10753609,inf,inf,inf,inf,0,1,0,1,1,0,1,1,0,0,0
110733486,0,0.0,0.0,0.0,0.0,-0.3548938,4.6288296e-08,5.209874e-07,0.0,0.009143915,-0.023902701,-0.038365483,-0.123274095,1.1561957e-05,0.00013013298,0.0,-3.4655962,-3.531408,-4.0755763,0.74390024,0.0,0.34095606,0.038365483,0.3734133,0.24766949,0.19131522,0.10734244,inf,inf,inf,inf,0,1,0,1,1,0,1,1,0,0,0
110837477,0,0.0,0.0,0.0,0.0,-0.37736446,4.6288296e-08,5.209874e-07,0.0,0.0016987518,-0.005151177,-0.078141235,-0.16632307,1.1561957e-05,0.00013013298,0.0,-3.0223668,-3.200836,0.7429998,0.7451616,0.0,0.36342672,0.078141235,0.39147168,0.24700198,0.19629857,0.10715581,inf,inf,inf,inf,0,1,0,1,1,0,1,1,0,0,0
110941473,0,0.0,0.0,0.0,0.0,-0.39463165,4.6288296e-08,5.209874e-07,0.0,0.007644298,0.0056659007,-0.09304361,-0.18150261,1.1561957e-05,0.00013013298,0.0,1.7381567,1.0518432,1.3523648,0.7455195,0.0,0.3806939,0.09304361,0.41011363,0.24817392,0.2017779,0.10746518,inf,inf,inf,inf,0,1,0,1,1,0,1,1,0,0,0
111037475,0,0.0,0.0,0.0,0.0,-0.41499302,4.6288296e-08,5.209874e-07,0.0,0.003161733,0.004498404,-0.18392356,-0.2700518,1.1561957e-05,0.00013013298,0.0,-1.5789745,0.3724299,-4.0602155,0.74626005,0.0,0.40105528,0.18392356,0.42768535,0.24867949,0.20624393,0.10759664,inf,inf,inf,inf,0,1,0,1,1,0,1,1,0,0,0
111141515,0,0.0,0.0,0.0,0.0,-0.44162375,4.6288296e-08,5.209874e-07,0.0,0.012723937,0.0011672579,-0.217499,-0.2985176,1.1561957e-05,0.00013013298,0.0,1.4472684,1.9546821,-2.7026691,0.74499357,0.0,0.427686,0.217499,0.44697502,0.24796051,0.21167922,0.10739026,inf,inf,inf,inf,0,1,0,1,1,0,1,1,0,0,0
111245517,0,0.0,0.0,0.0,0.0,-0.46138296,4.6288296e-08,5.209874e-07,0.0,0.015124429,0.0038095252,-0.22711739,-0.2970551,1.1561957e-05,0.00013013298,0.0,2.4887023,2.8326488,-2.498234,0.74078923,0.0,0.4474452,0.22711739,0.4666858,0.24728666,0.21723717,0.10720974,inf,inf,inf,inf,0,1,0,1,1,0,1,1,0,0,0
111340669,0,0.0,0.0,0.0,0.0,-0.4837299,4.6288296e-08,5.209874e-07,0.0,0.015884446,-0.0010805187,-0.34054866,-0.3982102,1.1561957e-05,0.00013013298,0.0,-1.5071905,2.7665029,3.3876739,0.7374591,0.0,0.46979216,0.34054866,0.48539278,0.2478398,0.221919,0.10735559,inf,inf,inf,inf,0,1,0,1,1,0,1,1,0,0,0
111444699,0,0.0,0.0,0.0,0.0,-0.51281464,4.6288296e-08,5.209874e-07,0.0,0.029466527,-0.0060673296,-0.31435984,-0.35908332,1.1561957e-05,0.00013013298,0.0,-0.9683507,1.426877,-2.1830156,0.736074,0.0,0.4988769,0.31435984,0.50582033,0.24718237,0.22745636,0.10718316,inf,inf,inf,inf,0,1,0,1,1,0,1,1,0,0,0
111548668,0,0.0,0.0,0.0,0.0,-0.54709834,4.6288296e-08,5.209874e-07,0.0,0.02169227,-0.01736614,-0.18197723,-0.2309636,1.1561957e-05,0.00013013298,0.0,-2.1948807,-3.1977186,-0.9184624,0.73538,0.0,0.53316057,0.18197723,0.5264353,0.24649046,0.23295902,0.107014716,inf,inf,inf,inf,0,1,0,1,1,0,1,1,0,0,0
111652724,0,0.0,0.0,0.0,0.0,-0.5709559,4.6288296e-08,5.209874e-07,0.0,0.030298794,-0.013578721,-0.086130016,-0.13994196,1.1561957e-05,0.00013013298,0.0,-1.0751067,2.2295535,-4.0181966,0.7353528,0.0,0.5570181,0.086130016,0.5475298,0.24589145,0.23751557,0.106867194,inf,inf,inf,inf,0,1,0,1,1,0,1,1,0,0,0
111756668,0,0.0,0.0,0.0,0.0,-0.5840154,4.6288296e-08,5.209874e-07,0.0,0.030938966,-0.024223227,-0.008112842,-0.065042555,1.1561957e-05,0.00013013298,0.0,1.2268946,-0.8208598,2.7500196,0.73505443,0.0,0.57007766,0.008112842,0.56928116,0.24718055,0.24208187,0.107228115,inf,inf,inf,inf,0,1,0,1,1,0,1,1,0,0,0
111852674,0,0.0,0.0,0.0,0.0,-0.5915858,4.6288296e-08,5.209874e-07,0.0,0.034029204,-0.029758144,0.009010851,-0.049249433,1.1561957e-05,0.00013013298,0.0,2.5915244,1.3695724,3.1661475,0.73276716,0.0,0.57764804,-0.009010851,0.589448,0.2477422,0.246151,0.1073756,inf,inf,inf,inf,0,1,0,1,1,0,1,1,0,0,0
111955892,0,0.0,0.0,0.0,0.0,-0.595514,4.6288296e-08,5.209874e-07,0.0,0.037453502,-0.029845756,0.012144904,-0.04437272,1.1561957e-05,0.00013013298,0.0,-1.5738155,-0.70142454,-3.7257526,0.72912884,0.0,0.5815762,-0.012144904,0.6111478,0.24708685,0.25092623,0.107206754,inf,inf,inf,inf,0,1,0,1,1,0,1,1,0,0,0
112059868,0,0.0,0.0,0.0,0.0,-0.5991429,4.6288296e-08,5.209874e-07,0.0,0.03874483,-0.031332497,0.0036008935,-0.050388537,1.1561957e-05,0.00013013298,0.0,0.75758696,-3.4093156,2.916531,0.7266433,0.0,0.58520514,-0.0036008935,0.6330271,0.24647292,0.25561136,0.107043564,inf,inf,inf,inf,0,1,0,1,1,0,1,1,0,0,0
112163913,0,0.0,0.0,0.0,0.0,-0.5942358,4.6288296e-08,5.209874e-07,0.0,0.04929834,-0.014308866,-0.00201256,-0.046186123,1.1561957e-05,0.00013013298,0.0,-0.8806095,3.4439056,0.71937025,0.7260503,0.0,0.580298,0.00201256,0.6550473,0.24587752,0.26050916,0.10689631,inf,inf,inf,inf,0,1,0,1,1,0,1,1,0,0,0
112267868,0,0.0,0.0,0.0,0.0,-0.598602,4.6288296e-08,5.209874e-07,0.0,0.07841745,-0.001921766,-0.2070385,-0.24133088,1.1561957e-05,0.00013013298,0.0,5.7596307,-0.09440714,-3.5507767,0.7281841,0.0,0.5846642,0.2070385,0.6777197,0.24702623,0.26540762,0.10721666,inf,inf,inf,inf,0,1,0,1,1,0,1,1,0,0,0
112363868,0,0.0,0.0,0.0,0.0,-0.62074333,4.6288296e-08,5.209874e-07,0.0,0.07805581,-0.008101789,-0.37063769,-0.39546308,1.1561957e-05,0.00013013298,0.0,6.404231,2.2849753,-2.2281992,0.7304493,0.0,0.60680556,0.37063769,0.69876456,0.24756852,0.27018785,0.10737003,inf,inf,inf,inf,0,1,0,1,1,0,1,1,0,0,0
112467879,0,0.0,0.0,0.0,0.0,-0.6525706,4.6288296e-08,5.209874e-07,0.0,0.0895722,-0.012266423,-0.40212858,-0.41462404,1.1561957e-05,0.00013013298,0.0,5.1155424,2.5240686,-2.136185,0.7331517,0.0,0.63863283,0.40212858,0.7211823,0.24693204,0.27609965,0.10719181,inf,inf,inf,inf,0,1,0,1,1,0,1,1,0,0,0
112571868,0,0.0,0.0,0.0,0.0,-0.6773578,4.6288296e-08,5.209874e-07,0.0,0.09735532,-0.024366802,-0.36433476,-0.3621791,1.1561957e-05,0.00013013298,0.0,2.198402,0.2729403,4.4495544,0.7350438,0.0,0.66342,0.36433476,0.7436824,0.24631736,0.28144726,0.10703082,inf,inf,inf,inf,0,1,0,1,1,0,1,1,0,0,0
112667882,0,0.0,0.0,0.0,0.0,-0.70143914,4.6288296e-08,5.209874e-07,0.0,0.095774956,-0.023063041,-0.3765552,-0.3638878,1.1561957e-05,0.00013013298,0.0,3.743431,1.6316357,-1.7531552,0.73694175,0.0,0.6875014,0.3765552,0.7651505,0.24692284,0.285465,0.10721113,inf,inf,inf,inf,0,1,0,1,1,0,1,1,0,0,0
112771069,0,0.0,0.0,0.0,0.0,-0.725227,4.6288296e-08,5.209874e-07,0.0,0.10136669,-0.03191241,-0.36500886,-0.33951348,1.1561957e-05,0.00013013298,0.0,4.5619073,4.1913986,-0.13706313,0.73837435,0.0,0.7112892,0.36500886,0.78880084,0.248161,0.29025555,0.1075355,inf,inf,inf,inf,0,1,0,1,1,0,1,1,0,0,0
112875068,0,0.0,0.0,0.0,0.0,-0.7396943,4.6288296e-08,5.209874e-07,0.0,0.0979945,-0.0419778,-0.31170544,-0.27058178,1.1561957e-05,0.00013013298,0.0,-0.16714412,-2.505726,-4.9149137,0.7390167,0.0,0.7257565,0.31170544,0.81226516,0.2492633,0.2948832,0.107821435,inf,inf,inf,inf,0,1,0,1,1,0,1,1,0,0,0
112979076,0,0.0,0.0,0.0,0.0,-0.7522068,4.6288296e-08,5.209874e-07,0.0,0.1064357,-0.044486724,-0.40022865,-0.34258342,1.1561957e-05,0.00013013298,0.0,3.1763902,-1.1399444,-4.0792594,0.73840517,0.0,0.73826903,0.40022865,0.83451307,0.2484793,0.29864505,0.10759808,inf,inf,inf,inf,0,1,0,1,1,0,1,1,0,0,0
113075069,0,0.0,0.0,0.0,0.0,-0.77744025,4.6288296e-08,5.209874e-07,0.0,0.11079607,-0.036872335,-0.54313177,-0.47285473,1.1561957e-05,0.00013013298,0.0,4.3638887,0.20637612,-3.2288985,0.7366043,0.0,0.7635025,0.54313177,0.8558061,0.24896564,0.3024688,0.107708275,inf,inf,inf,inf,0,1,0,1,1,0,1,1,0,0,0
113179075,0,0.0,0.0,0.0,0.0,-0.8197502,4.6288296e-08,5.209874e-07,0.0,0.089505605,-0.043653075,-0.6293451,-0.5490446,1.1561957e-05,0.00013013298,0.0,-4.568358,-1.6672324,-1.3684063,0.73458827,0.0,0.8058124,0.6293451,0.87770057,0.24823363,0.30716366,0.10749608,inf,inf,inf,inf,0,1,0,1,1,0,1,1,0,0,0
113283077,0,0.0,0.0,0.0,0.0,-0.86196786,4.6288296e-08,5.209874e-07,0.0,0.0918924,-0.027609935,-0.6334475,-0.5403818,1.1561957e-05,0.00013013298,0.0,-4.157323,3.3213372,-0.10881093,0.73208445,0.0,0.8480301,0.6334475,0.8993965,0.24753684,0.31178612,0.10730769,inf,inf,inf,inf,0,1,0,1,1,0,1,1,0,0,0
113379070,0,0.0,0.0,0.0,0.0,-0.89556766,4.6288296e-08,5.209874e-07,0.0,0.095912285,-0.034396783,-0.5700543,-0.46375966,1.1561957e-05,0.00013013298,0.0,3.0773838,1.6228265,0.7105426,0.73059857,0.0,0.8816299,0.5700543,0.9203794,0.24808478,0.3158069,0.1074575,inf,inf,inf,inf,0,1,0,1,1,0,1,1,0,0,0
113483107,0,0.0,0.0,0.0,0.0,-0.9294095,4.6288296e-08,5.209874e-07,0.0,0.08239597,-0.04219662,-0.5233769,-0.4083513,1.1561957e-05,0.00013013298,0.0,-3.7294834,-2.178947,-1.1716475,0.7291847,0.0,0.91547173,0.5233769,0.9415515,0.24742186,0.31915838,0.10728276,inf,inf,inf,inf,0,1,0,1,1,0,1,1,0,0,0
113582269,0,0.0,0.0,0.0,0.0,-0.95959264,4.6288296e-08,5.209874e-07,0.0,0.08804671,-0.03910564,-0.42958322,-0.31099936,1.1561957e-05,0.00013013298,0.0,0.094184525,-1.7523541,3.0842156,0.7292276,0.0,0.94565487,0.42958322,0.9620549,0.2479844,0.32203758,0.10743886,inf,inf,inf,inf,0,1,0,1,1,0,1,1,0,0,0
113686298,0,0.0,0.0,0.0,0.0,-0.9836291,4.6288296e-08,5.209874e-07,0.0,0.07996241,-0.034669425,-0.3541425,-0.23275651,1.1561957e-05,0.00013013298,0.0,-3.087629,0.57436174,2.6730626,0.7285238,0.0,0.96969134,0.3541425,0.98334855,0.24756718,0.32499442,0.107282884,inf,inf,inf,inf,0,1,0,1,1,0,1,1,0,0,0
113790269,0,0.0,0.0,0.0,0.0,-0.99855816,4.6288296e-08,5.209874e-07,0.0,0.072654545,-0.032926008,-0.2642431,-0.14091109,1.1561957e-05,0.00013013298,0.0,-4.1473885,-3.1355958,1.4631926,0.72767335,0.0,0.9846204,0.2642431,1.0031204,0.24687763,0.32731333,0.10709256,inf,inf,inf,inf,0,1,0,1,1,0,1,1,0,0,0
113886269,0,0.0,0.0,0.0,0.0,-1.00727,4.6288296e-08,5.209874e-07,0.0,0.08393525,-0.042758543,-0.18760793,-0.06578638,1.1561957e-05,0.00013013298,0.0,-1.6085889,-5.155035,3.3959339,0.728145,0.0,0.9933322,0.18760793,1.0225229,0.24742128,0.32974187,0.10723969,inf,inf,inf,inf,0,1,0,1,1,0,1,1,0,0,0
113990275,0,0.0,0.0,0.0,0.0,-1.0128142,4.6288296e-08,5.209874e-07,0.0,0.09163878,-0.03628079,-0.20850933,-0.087852195,1.1561957e-05,0.00013013298,0.0,3.0314429,-2.9203348,-5.1365056,0.7280322,0.0,0.9988764,0.20850933,1.0412656,0.24675508,0.33171424,0.10707123,inf,inf,inf,inf,0,1,0,1,1,0,1,1,0,0,0
114094269,0,0.0,0.0,0.0,0.0,-1.0317461,4.6288296e-08,5.209874e-07,0.0,0.090912946,-0.032311533,-0.43424192,-0.31499398,1.1561957e-05,0.00013013298,0.0,2.694208,-0.095085636,-3.0630047,0.72841495,0.0,1.0178084,0.43424192,1.0593846,0.24611458,0.33379534,0.10689747,inf,inf,inf,inf,0,1,0,1,1,0,1,1,0,0,0
