timestamp,x,y,z,yaw,yawspeed,vx,vy,vz,acc_x,acc_y,acc_z,jerk_x,jerk_y,jerk_z,thrust[0],thrust[1],thrust[2]
94637910,nan,nan,nan,0.75377727,0.0,nan,nan,nan,0.0,0.0,0.0,0.0,0.0,0.0,0.0,0.0,0.0
94657988,nan,nan,nan,0.7537057,0.0,nan,nan,nan,0.0,0.0,0.0,0.0,0.0,0.0,0.0,0.0,0.0
94758041,nan,nan,nan,0.75336564,0.0,nan,nan,nan,0.0,0.0,0.0,0.0,0.0,0.0,0.0,0.0,0.0
94858199,nan,nan,nan,0.7531035,0.0,nan,nan,nan,0.0,0.0,0.0,0.0,0.0,0.0,0.0,0.0,0.0
94958586,nan,nan,nan,0.7528352,0.0,nan,nan,nan,0.0,0.0,0.0,0.0,0.0,0.0,0.0,0.0,0.0
95058594,nan,nan,nan,0.7525302,0.0,nan,nan,nan,0.0,0.0,0.0,0.0,0.0,0.0,0.0,0.0,0.0
95158637,nan,nan,nan,0.75232124,0.0,nan,nan,nan,0.0,0.0,0.0,0.0,0.0,0.0,0.0,0.0,0.0
95259632,nan,nan,nan,0.75206083,0.0,nan,nan,nan,0.0,0.0,0.0,0.0,0.0,0.0,0.0,0.0,0.0
95358663,nan,nan,nan,0.75178957,0.0,nan,nan,nan,0.0,0.0,0.0,0.0,0.0,0.0,0.0,0.0,0.0
95458738,nan,nan,nan,0.7515657,0.0,nan,nan,nan,0.0,0.0,0.0,0.0,0.0,0.0,0.0,0.0,0.0
95558873,nan,nan,nan,0.7513544,0.0,nan,nan,nan,0.0,0.0,0.0,0.0,0.0,0.0,0.0,0.0,0.0
95659163,nan,nan,nan,0.75110984,0.0,nan,nan,nan,0.0,0.0,0.0,0.0,0.0,0.0,0.0,0.0,0.0
95759265,nan,nan,nan,0.75082934,0.0,nan,nan,nan,0.0,0.0,0.0,0.0,0.0,0.0,0.0,0.0,0.0
95859540,nan,nan,nan,0.750496,0.0,nan,nan,nan,0.0,0.0,0.0,0.0,0.0,0.0,0.0,0.0,0.0
95979408,nan,nan,nan,0.7502156,0.0,nan,nan,nan,0.0,0.0,0.0,0.0,0.0,0.0,0.0,0.0,0.0
96079474,nan,nan,nan,0.7499925,0.0,nan,nan,nan,0.0,0.0,0.0,0.0,0.0,0.0,0.0,0.0,0.0
96179567,nan,nan,nan,0.7497358,0.0,nan,nan,nan,0.0,0.0,0.0,0.0,0.0,0.0,0.0,0.0,0.0
96279564,nan,nan,nan,0.7494215,0.0,nan,nan,nan,0.0,0.0,0.0,0.0,0.0,0.0,0.0,0.0,0.0
96379704,nan,nan,nan,0.749085,0.0,nan,nan,nan,0.0,0.0,0.0,0.0,0.0,0.0,0.0,0.0,0.0
96479929,nan,nan,nan,0.74879116,0.0,nan,nan,nan,0.0,0.0,0.0,0.0,0.0,0.0,0.0,0.0,0.0
96579951,nan,nan,nan,0.74848783,0.0,nan,nan,nan,0.0,0.0,0.0,0.0,0.0,0.0,0.0,0.0,0.0
96680127,nan,nan,nan,0.74828076,0.0,nan,nan,nan,0.0,0.0,0.0,0.0,0.0,0.0,0.0,0.0,0.0
96780274,nan,nan,nan,0.7480149,0.0,nan,nan,nan,0.0,0.0,0.0,0.0,0.0,0.0,0.0,0.0,0.0
96880268,nan,nan,nan,0.7477333,0.0,nan,nan,nan,0.0,0.0,0.0,0.0,0.0,0.0,0.0,0.0,0.0
96980341,nan,nan,nan,0.74746335,0.0,nan,nan,nan,0.0,0.0,0.0,0.0,0.0,0.0,0.0,0.0,0.0
97100429,nan,nan,nan,0.7471848,0.0,nan,nan,nan,0.0,0.0,0.0,0.0,0.0,0.0,0.0,0.0,0.0
97201649,nan,nan,nan,0.7469098,0.0,nan,nan,nan,0.0,0.0,0.0,0.0,0.0,0.0,0.0,0.0,0.0
97300749,nan,nan,nan,0.74665976,0.0,nan,nan,nan,0.0,0.0,0.0,0.0,0.0,0.0,0.0,0.0,0.0
97401068,nan,nan,nan,0.74644464,0.0,nan,nan,nan,0.0,0.0,0.0,0.0,0.0,0.0,0.0,0.0,0.0
97500901,nan,nan,nan,0.74620354,0.0,nan,nan,nan,0.0,0.0,0.0,0.0,0.0,0.0,0.0,0.0,0.0
97600916,nan,nan,nan,0.7460248,0.0,nan,nan,nan,0.0,0.0,0.0,0.0,0.0,0.0,0.0,0.0,0.0
97701023,nan,nan,nan,0.745759,0.0,nan,nan,nan,0.0,0.0,0.0,0.0,0.0,0.0,0.0,0.0,0.0
97801096,nan,nan,nan,0.74549246,0.0,nan,nan,nan,0.0,0.0,0.0,0.0,0.0,0.0,0.0,0.0,0.0
97901199,nan,nan,nan,0.74534094,0.0,nan,nan,nan,0.0,0.0,0.0,0.0,0.0,0.0,0.0,0.0,0.0
98001539,nan,nan,nan,0.7451234,0.0,nan,nan,nan,0.0,0.0,0.0,0.0,0.0,0.0,0.0,0.0,0.0
98101535,nan,nan,nan,0.7448932,0.0,nan,nan,nan,0.0,0.0,0.0,0.0,0.0,0.0,0.0,0.0,0.0
98201595,nan,nan,nan,0.7446828,0.0,nan,nan,nan,0.0,0.0,0.0,0.0,0.0,0.0,0.0,0.0,0.0
98301696,nan,nan,nan,0.7444708,0.0,nan,nan,nan,0.0,0.0,0.0,0.0,0.0,0.0,0.0,0.0,0.0
98401736,nan,nan,nan,0.7443118,0.0,nan,nan,nan,0.0,0.0,0.0,0.0,0.0,0.0,0.0,0.0,0.0
98501791,nan,nan,nan,0.7442183,0.0,nan,nan,nan,0.0,0.0,0.0,0.0,0.0,0.0,0.0,0.0,0.0
98621938,nan,nan,nan,0.7440874,0.0,nan,nan,nan,0.0,0.0,0.0,0.0,0.0,0.0,0.0,0.0,0.0
98722013,nan,nan,nan,0.7439406,0.0,nan,nan,nan,0.0,0.0,0.0,0.0,0.0,0.0,0.0,0.0,0.0
98822183,nan,nan,nan,0.74379086,0.0,nan,nan,nan,0.0,0.0,0.0,0.0,0.0,0.0,0.0,0.0,0.0
98922501,nan,nan,nan,0.7436646,0.0,nan,nan,nan,0.0,0.0,0.0,0.0,0.0,0.0,0.0,0.0,0.0
99022772,nan,nan,nan,0.7435349,0.0,nan,nan,nan,0.0,0.0,0.0,0.0,0.0,0.0,0.0,0.0,0.0
99122590,nan,nan,nan,0.74335885,0.0,nan,nan,nan,0.0,0.0,0.0,0.0,0.0,0.0,0.0,0.0,0.0
99222655,nan,nan,nan,0.74315333,0.0,nan,nan,nan,0.0,0.0,0.0,0.0,0.0,0.0,0.0,0.0,0.0
99322611,nan,nan,nan,0.7428559,0.0,nan,nan,nan,0.0,0.0,0.0,0.0,0.0,0.0,0.0,0.0,0.0
99423106,nan,nan,nan,0.74261487,0.0,nan,nan,nan,0.0,0.0,0.0,0.0,0.0,0.0,0.0,0.0,0.0
99522824,nan,nan,nan,0.7423573,0.0,nan,nan,nan,0.0,0.0,0.0,0.0,0.0,0.0,0.0,0.0,0.0
99623512,nan,nan,nan,0.7421868,0.0,nan,nan,nan,0.0,0.0,0.0,0.0,0.0,0.0,0.0,0.0,0.0
99743238,nan,nan,nan,0.7418389,0.0,nan,nan,nan,0.0,0.0,0.0,0.0,0.0,0.0,0.0,0.0,0.0
99843308,nan,nan,nan,0.74159145,0.0,nan,nan,nan,0.0,0.0,0.0,0.0,0.0,0.0,0.0,0.0,0.0
99943322,nan,nan,nan,0.74135715,0.0,nan,nan,nan,0.0,0.0,0.0,0.0,0.0,0.0,0.0,0.0,0.0
100043361,nan,nan,nan,0.7412214,0.0,nan,nan,nan,0.0,0.0,0.0,0.0,0.0,0.0,0.0,0.0,0.0
100143446,nan,nan,nan,0.74100906,0.0,nan,nan,nan,0.0,0.0,0.0,0.0,0.0,0.0,0.0,0.0,0.0
100243524,nan,nan,nan,0.7408649,0.0,nan,nan,nan,0.0,0.0,0.0,0.0,0.0,0.0,0.0,0.0,0.0
100343628,nan,nan,nan,0.74069726,0.0,nan,nan,nan,0.0,0.0,0.0,0.0,0.0,0.0,0.0,0.0,0.0
100443814,nan,nan,nan,0.7404767,0.0,nan,nan,nan,0.0,0.0,0.0,0.0,0.0,0.0,0.0,0.0,0.0
100544180,nan,nan,nan,0.7402437,0.0,nan,nan,nan,0.0,0.0,0.0,0.0,0.0,0.0,0.0,0.0,0.0
100644296,nan,nan,nan,0.7399341,0.0,nan,nan,nan,0.0,0.0,0.0,0.0,0.0,0.0,0.0,0.0,0.0
100744260,nan,nan,nan,0.7396708,0.0,nan,nan,nan,0.0,0.0,0.0,0.0,0.0,0.0,0.0,0.0,0.0
100844237,nan,nan,nan,0.73938704,0.0,nan,nan,nan,0.0,0.0,0.0,0.0,0.0,0.0,0.0,0.0,0.0
100944369,nan,nan,nan,0.73917896,0.0,nan,nan,nan,0.0,0.0,0.0,0.0,0.0,0.0,0.0,0.0,0.0
101044378,nan,nan,nan,0.7389977,0.0,nan,nan,nan,0.0,0.0,0.0,0.0,0.0,0.0,0.0,0.0,0.0
101144423,nan,nan,nan,0.73890823,0.0,nan,nan,nan,0.0,0.0,0.0,0.0,0.0,0.0,0.0,0.0,0.0
101265682,nan,nan,nan,0.7388907,0.0,nan,nan,nan,0.0,0.0,0.0,0.0,0.0,0.0,0.0,0.0,0.0
101364814,nan,nan,nan,0.7389212,0.0,nan,nan,nan,0.0,0.0,0.0,0.0,0.0,0.0,0.0,0.0,0.0
101464895,nan,nan,nan,0.7389468,0.0,nan,nan,nan,0.0,0.0,0.0,0.0,0.0,0.0,0.0,0.0,0.0
101564951,nan,nan,nan,0.73889047,0.0,nan,nan,nan,0.0,0.0,0.0,0.0,0.0,0.0,0.0,0.0,0.0
101664987,nan,nan,nan,0.73867023,0.0,nan,nan,nan,0.0,0.0,0.0,0.0,0.0,0.0,0.0,0.0,0.0
101765043,nan,nan,nan,0.7384714,0.0,nan,nan,nan,0.0,0.0,0.0,0.0,0.0,0.0,0.0,0.0,0.0
101865191,nan,nan,nan,0.73823506,0.0,nan,nan,nan,0.0,0.0,0.0,0.0,0.0,0.0,0.0,0.0,0.0
101965244,nan,nan,nan,0.73795295,0.0,nan,nan,nan,0.0,0.0,0.0,0.0,0.0,0.0,0.0,0.0,0.0
102065409,nan,nan,nan,0.73767126,0.0,nan,nan,nan,0.0,0.0,0.0,0.0,0.0,0.0,0.0,0.0,0.0
102165823,nan,nan,nan,0.7373581,0.0,nan,nan,nan,0.0,0.0,0.0,0.0,0.0,0.0,0.0,0.0,0.0
102265656,nan,nan,nan,0.73697865,0.0,nan,nan,nan,0.0,0.0,0.0,0.0,0.0,0.0,0.0,0.0,0.0
102365683,nan,nan,nan,0.7365874,0.0,nan,nan,nan,0.0,0.0,0.0,0.0,0.0,0.0,0.0,0.0,0.0
102485791,nan,nan,nan,0.7361737,0.0,nan,nan,nan,0.0,0.0,0.0,0.0,0.0,0.0,0.0,0.0,0.0
102585866,nan,nan,nan,0.7359104,0.0,nan,nan,nan,0.0,0.0,0.0,0.0,0.0,0.0,0.0,0.0,0.0
102685980,nan,nan,nan,0.73567575,0.0,nan,nan,nan,0.0,0.0,0.0,0.0,0.0,0.0,0.0,0.0,0.0
102786365,nan,nan,nan,0.7353964,0.0,nan,nan,nan,0.0,0.0,0.0,0.0,0.0,0.0,0.0,0.0,0.0
102886307,nan,nan,nan,0.73513776,0.0,nan,nan,nan,0.0,0.0,0.0,0.0,0.0,0.0,0.0,0.0,0.0
102987099,nan,nan,nan,0.7349139,0.0,nan,nan,nan,0.0,0.0,0.0,0.0,0.0,0.0,0.0,0.0,0.0
103086487,nan,nan,nan,0.7347315,0.0,nan,nan,nan,0.0,0.0,0.0,0.0,0.0,0.0,0.0,0.0,0.0
103186809,nan,nan,nan,0.7345679,0.0,nan,nan,nan,0.0,0.0,0.0,0.0,0.0,0.0,0.0,0.0,0.0
103286554,nan,nan,nan,0.73441744,0.0,nan,nan,nan,0.0,0.0,0.0,0.0,0.0,0.0,0.0,0.0,0.0
103386807,nan,nan,nan,0.73425967,0.0,nan,nan,nan,0.0,0.0,0.0,0.0,0.0,0.0,0.0,0.0,0.0
103486768,nan,nan,nan,0.7340956,0.0,nan,nan,nan,0.0,0.0,0.0,0.0,0.0,0.0,0.0,0.0,0.0
103586927,nan,nan,nan,0.733908,0.0,nan,nan,nan,0.0,0.0,0.0,0.0,0.0,0.0,0.0,0.0,0.0
103707101,nan,nan,nan,0.7336331,0.0,nan,nan,nan,0.0,0.0,0.0,0.0,0.0,0.0,0.0,0.0,0.0
103807194,nan,nan,nan,0.7333543,0.0,nan,nan,nan,0.0,0.0,0.0,0.0,0.0,0.0,0.0,0.0,0.0
103907310,nan,nan,nan,0.73313284,0.0,nan,nan,nan,0.0,0.0,0.0,0.0,0.0,0.0,0.0,0.0,0.0
104007371,nan,nan,nan,0.73296803,0.0,nan,nan,nan,0.0,0.0,0.0,0.0,0.0,0.0,0.0,0.0,0.0
104107394,nan,nan,nan,0.7328019,0.0,nan,nan,nan,0.0,0.0,0.0,0.0,0.0,0.0,0.0,0.0,0.0
104207481,nan,nan,nan,0.7326768,0.0,nan,nan,nan,0.0,0.0,0.0,0.0,0.0,0.0,0.0,0.0,0.0
104307581,nan,nan,nan,0.7325497,0.0,nan,nan,nan,0.0,0.0,0.0,0.0,0.0,0.0,0.0,0.0,0.0
104407725,nan,nan,nan,0.73236185,0.0,nan,nan,nan,0.0,0.0,0.0,0.0,0.0,0.0,0.0,0.0,0.0
104508141,nan,nan,nan,0.7322055,0.0,nan,nan,nan,0.0,0.0,0.0,0.0,0.0,0.0,0.0,0.0,0.0
104608197,nan,nan,nan,0.7321058,0.0,nan,nan,nan,0.0,0.0,0.0,0.0,0.0,0.0,0.0,0.0,0.0
104708215,nan,nan,nan,0.73204565,0.0,nan,nan,nan,0.0,0.0,0.0,0.0,0.0,0.0,0.0,0.0,0.0
104808348,nan,nan,nan,0.7318476,0.0,nan,nan,nan,0.0,0.0,0.0,0.0,0.0,0.0,0.0,0.0,0.0
104908364,nan,nan,nan,0.7316959,0.0,nan,nan,nan,0.0,0.0,0.0,0.0,0.0,0.0,0.0,0.0,0.0
105008340,nan,nan,nan,0.73154235,0.0,nan,nan,nan,0.0,0.0,0.0,0.0,0.0,0.0,0.0,0.0,0.0
105128421,nan,nan,nan,0.7313596,0.0,nan,nan,nan,0.0,0.0,0.0,0.0,0.0,0.0,0.0,0.0,0.0
105228721,nan,nan,nan,0.7312194,0.0,nan,nan,nan,0.0,0.0,0.0,0.0,0.0,0.0,0.0,0.0,0.0
105329197,nan,nan,nan,0.7311694,0.0,nan,nan,nan,0.0,0.0,0.0,0.0,0.0,0.0,0.0,0.0,0.0
105428859,nan,nan,nan,0.7310667,0.0,nan,nan,nan,0.0,0.0,0.0,0.0,0.0,0.0,0.0,0.0,0.0
105528901,nan,nan,nan,0.73093367,0.0,nan,nan,nan,0.0,0.0,0.0,0.0,0.0,0.0,0.0,0.0,0.0
105628961,nan,nan,nan,0.7308142,0.0,nan,nan,nan,0.0,0.0,0.0,0.0,0.0,0.0,0.0,0.0,0.0
105728995,nan,nan,nan,0.7307457,0.0,nan,nan,nan,0.0,0.0,0.0,0.0,0.0,0.0,0.0,0.0,0.0
105829102,nan,nan,nan,0.73064154,0.0,nan,nan,nan,0.0,0.0,0.0,0.0,0.0,0.0,0.0,0.0,0.0
105929348,nan,nan,nan,0.73054326,0.0,nan,nan,nan,0.0,0.0,0.0,0.0,0.0,0.0,0.0,0.0,0.0
106029501,nan,nan,nan,0.730528,0.0,nan,nan,nan,0.0,0.0,0.0,0.0,0.0,0.0,0.0,0.0,0.0
106129571,nan,nan,nan,0.73045504,0.0,nan,nan,nan,0.0,0.0,0.0,0.0,0.0,0.0,0.0,0.0,0.0
106229642,nan,nan,nan,0.73031324,0.0,nan,nan,nan,0.0,0.0,0.0,0.0,0.0,0.0,0.0,0.0,0.0
106349722,nan,nan,nan,0.7301249,0.0,nan,nan,nan,0.0,0.0,0.0,0.0,0.0,0.0,0.0,0.0,0.0
106750041,nan,nan,nan,0.72930783,0.0,nan,nan,nan,0.0,0.0,0.0,0.0,0.0,0.0,0.0,0.0,0.0
107671170,nan,nan,nan,0.7278679,0.0,nan,nan,nan,0.0,0.0,0.0,0.0,0.0,0.0,0.0,0.0,0.0
107771199,nan,nan,nan,0.72765756,0.0,nan,nan,nan,0.0,0.0,0.0,0.0,0.0,0.0,0.0,0.0,0.0
107871277,nan,nan,nan,0.72742766,0.0,nan,nan,nan,0.0,0.0,0.0,0.0,0.0,0.0,0.0,0.0,0.0
107971328,nan,nan,nan,0.7272041,0.0,nan,nan,nan,0.0,0.0,0.0,0.0,0.0,0.0,0.0,0.0,0.0
108071351,nan,nan,nan,0.72691214,0.0,nan,nan,nan,0.0,0.0,0.0,0.0,0.0,0.0,0.0,0.0,0.0
108171477,nan,nan,nan,0.72671324,0.0,nan,nan,nan,0.0,0.0,0.0,0.0,0.0,0.0,0.0,0.0,0.0
108271550,nan,nan,nan,0.72650915,-0.0,nan,nan,2.4633205,0.0,0.0,0.0,0.0,0.0,0.0,0.0,0.0,-0.12
108371644,nan,nan,nan,0.72650915,-0.0,nan,nan,2.2798095,0.0,0.0,0.0,0.0,0.0,0.0,0.0,0.0,-0.12
108472137,nan,nan,-0.10780329,0.72650915,-0.0,nan,nan,2.0963128,0.0,0.0,0.0,0.0,0.0,0.0,0.0,0.0,-0.12
108572193,nan,nan,nan,0.72650915,0.0,nan,nan,1.9126513,0.0,0.0,0.0,0.0,0.0,0.0,0.0,0.0,-0.12
108672353,nan,nan,nan,0.72650915,0.0,nan,nan,1.7286855,0.0,0.0,0.0,0.0,0.0,0.0,0.0,0.0,-0.14878291
108772353,nan,nan,-0.11030348,0.72650915,0.0,nan,nan,1.545288,0.0,0.0,0.0,0.0,0.0,0.0,0.0,0.0,-0.18316254
108872278,nan,nan,-0.11030348,0.72650915,-0.0,nan,nan,1.3619839,0.0,0.0,0.0,0.0,0.0,0.0,0.0,0.0,-0.21641713
108992292,nan,nan,-0.11030348,0.72650915,-0.0,nan,nan,1.1419601,0.0,0.0,0.0,0.0,0.0,0.0,0.0,0.0,-0.25675786
109092448,nan,nan,-0.11030348,0.72650915,0.0,nan,nan,0.95833904,0.0,0.0,0.0,0.0,0.0,0.0,0.0,0.0,-0.2916599
109192894,nan,nan,-0.11030348,0.72650915,0.0,nan,nan,0.77418983,0.0,0.0,0.0,0.0,0.0,0.0,0.0,0.0,-0.32382667
109292725,nan,nan,-0.11030348,0.72650915,0.0,nan,nan,0.5913129,0.0,0.0,0.0,0.0,0.0,0.0,0.0,0.0,-0.35694394
109393137,nan,nan,-0.11030348,0.72650915,0.0,nan,nan,0.40708852,0.0,0.0,0.0,0.0,0.0,0.0,0.0,0.0,-0.392482
109492928,nan,nan,nan,0.72650915,0.0,nan,nan,0.22412735,0.0,0.0,0.0,0.0,0.0,0.0,0.0,0.0,-0.4293337
109592992,nan,nan,nan,0.72650915,0.0,nan,nan,0.2601316,0.0,0.0,0.0,0.0,0.0,0.0,0.0,0.0,-0.42054564
109693019,nan,nan,nan,0.72650915,0.0,nan,nan,0.4862701,0.0,0.0,0.0,0.0,0.0,0.0,0.0,0.0,-0.3711241
109793087,nan,nan,nan,0.72650915,0.0,nan,nan,0.38990954,0.0,0.0,0.0,0.0,0.0,0.0,0.0,0.0,-0.3884431
109893175,nan,nan,nan,0.72650915,0.0,nan,nan,0.15683834,0.0,0.0,0.0,0.0,0.0,0.0,0.0,0.0,-0.43750706
109993382,nan,nan,-0.22899856,0.72650915,0.0,nan,nan,0.0025159866,0.0,0.0,0.0,0.0,0.0,0.0,0.0,0.0,-0.467326
110093476,nan,nan,-0.22899856,0.72650915,0.0,nan,nan,0.013951808,0.0,0.0,0.0,0.0,0.0,0.0,0.0,0.0,-0.45898074
110213580,nan,nan,-0.22899856,0.72650915,0.0,nan,nan,0.031119004,0.0,0.0,0.0,0.0,0.0,0.0,0.0,0.0,-0.4590483
110313732,nan,nan,-0.22899856,0.72650915,0.0,nan,nan,0.052852884,0.0,0.0,0.0,0.0,0.0,0.0,0.0,0.0,-0.45677185
110413867,nan,nan,-0.22899856,0.72650915,0.0,nan,nan,0.07215728,0.0,0.0,0.0,0.0,0.0,0.0,0.0,0.0,-0.45117122
110513849,nan,nan,-0.22899856,0.72650915,0.0,nan,nan,0.093043044,0.0,0.0,0.0,0.0,0.0,0.0,0.0,0.0,-0.44383922
110613973,nan,nan,-0.22899856,0.72650915,0.0,nan,nan,0.10855879,0.0,0.0,0.0,0.0,0.0,0.0,0.0,0.0,-0.44534212
110714001,nan,nan,-0.22899856,0.72650915,0.0,nan,nan,0.122589365,0.0,0.0,0.0,0.0,0.0,0.0,0.0,0.0,-0.44816118
110815533,nan,nan,-0.22899856,0.72650915,0.0,nan,nan,0.14312266,0.0,0.0,0.0,0.0,0.0,0.0,0.0,0.0,-0.4269688
110914416,nan,nan,nan,0.72650915,0.0,nan,nan,-0.13955083,0.0,0.0,0.0,0.0,0.0,0.0,0.0,0.0,-0.4863195
111014597,nan,nan,nan,0.72650915,0.0,nan,nan,-0.17728336,0.0,0.0,0.0,0.0,0.0,0.0,0.0,0.0,-0.47466585
111114495,nan,nan,nan,0.72650915,0.0,nan,nan,-0.29326487,0.0,0.0,0.0,0.0,0.0,0.0,0.0,0.0,-0.4816732
111214544,nan,nan,nan,0.72650915,0.0,nan,nan,-0.32847056,0.0,0.0,0.0,0.0,0.0,0.0,0.0,0.0,-0.49505332
111314581,nan,nan,nan,0.72650915,0.0,nan,nan,-0.2940151,0.0,0.0,0.0,0.0,0.0,0.0,0.0,0.0,-0.46776018
111414690,nan,nan,nan,0.72650915,0.0,nan,nan,-0.16235876,0.0,0.0,0.0,0.0,0.0,0.0,0.0,0.0,-0.4364951
111514785,nan,nan,nan,0.72650915,0.0,nan,nan,-0.09258874,0.0,0.0,0.0,0.0,0.0,0.0,0.0,0.0,-0.44796723
111634988,nan,nan,-0.55862385,0.72650915,0.0,nan,nan,0.008550465,0.0,0.0,0.0,0.0,0.0,0.0,0.0,0.0,-0.44943324
111735196,nan,nan,-0.55862385,0.72650915,0.0,nan,nan,0.022566795,0.0,0.0,0.0,0.0,0.0,0.0,0.0,0.0,-0.46639967
111835260,nan,nan,-0.55862385,0.72650915,0.0,nan,nan,0.03144461,0.0,0.0,0.0,0.0,0.0,0.0,0.0,0.0,-0.46830723
111935301,nan,nan,-0.55862385,0.72650915,0.0,nan,nan,0.036230028,0.0,0.0,0.0,0.0,0.0,0.0,0.0,0.0,-0.4676906
112035325,nan,nan,-0.55862385,0.72650915,0.0,nan,nan,0.039668083,0.0,0.0,0.0,0.0,0.0,0.0,0.0,0.0,-0.4653125
112135428,nan,nan,nan,0.72650915,0.0,nan,nan,-0.26356903,0.0,0.0,0.0,0.0,0.0,0.0,0.0,0.0,-0.5306535
112235496,nan,nan,nan,0.72650915,0.0,nan,nan,-0.3807919,0.0,0.0,0.0,0.0,0.0,0.0,0.0,0.0,-0.52289325
112335619,nan,nan,nan,0.72650915,0.0,nan,nan,-0.35959888,0.0,0.0,0.0,0.0,0.0,0.0,0.0,0.0,-0.47750875
112435765,nan,nan,nan,0.72650915,0.0,nan,nan,-0.40791082,0.0,0.0,0.0,0.0,0.0,0.0,0.0,0.0,-0.47215655
112536120,nan,nan,nan,0.72650915,0.0,nan,nan,-0.47160077,0.0,0.0,0.0,0.0,0.0,0.0,0.0,0.0,-0.49334008
112636303,nan,nan,nan,0.72650915,0.0,nan,nan,-0.43575817,0.0,0.0,0.0,0.0,0.0,0.0,0.0,0.0,-0.48742798
112736136,nan,nan,nan,0.72650915,0.0,nan,nan,-0.40651926,0.0,0.0,0.0,0.0,0.0,0.0,0.0,0.0,-0.4829212
112836882,nan,nan,nan,0.72650915,0.0,nan,nan,-0.4565085,0.0,0.0,0.0,0.0,0.0,0.0,0.0,0.0,-0.5087234
112936239,nan,nan,nan,0.72650915,0.0,nan,nan,-0.5417917,0.0,0.0,0.0,0.0,0.0,0.0,0.0,0.0,-0.525205
113056378,nan,nan,nan,0.72650915,0.0,nan,nan,-0.5741061,0.0,0.0,0.0,0.0,0.0,0.0,0.0,0.0,-0.50225836
113156823,nan,nan,nan,0.72650915,0.0,nan,nan,-0.6234174,0.0,0.0,0.0,0.0,0.0,0.0,0.0,0.0,-0.4906535
113256582,nan,nan,nan,0.72650915,0.0,nan,nan,-0.5747232,0.0,0.0,0.0,0.0,0.0,0.0,0.0,0.0,-0.47937596
113356793,nan,nan,nan,0.72650915,0.0,nan,nan,-0.52635,0.0,0.0,0.0,0.0,0.0,0.0,0.0,0.0,-0.48046923
113456834,nan,nan,nan,0.72650915,0.0,nan,nan,-0.4596318,0.0,0.0,0.0,0.0,0.0,0.0,0.0,0.0,-0.47892538
113556939,nan,nan,nan,0.72650915,0.0,nan,nan,-0.38098425,0.0,0.0,0.0,0.0,0.0,0.0,0.0,0.0,-0.47463766
113656964,nan,nan,nan,0.72650915,0.0,nan,nan,-0.33844322,0.0,0.0,0.0,0.0,0.0,0.0,0.0,0.0,-0.48051438
113757021,nan,nan,nan,0.72650915,0.0,nan,nan,-0.27949578,0.0,0.0,0.0,0.0,0.0,0.0,0.0,0.0,-0.4821294
113857128,nan,nan,nan,0.72650915,0.0,nan,nan,-0.3352476,0.0,0.0,0.0,0.0,0.0,0.0,0.0,0.0,-0.5154757
113957335,nan,nan,nan,0.72650915,0.0,nan,nan,-0.45764574,0.0,0.0,0.0,0.0,0.0,0.0,0.0,0.0,-0.5481161
114057403,nan,nan,nan,0.72650915,0.0,nan,nan,-0.5153371,0.0,0.0,0.0,0.0,0.0,0.0,0.0,0.0,-0.53194773
114157578,nan,nan,nan,0.72650915,0.0,nan,nan,-0.5127864,0.0,0.0,0.0,0.0,0.0,0.0,0.0,0.0,-0.49068022
114257695,nan,nan,nan,0.72650915,0.0,nan,nan,-0.59241545,0.0,0.0,0.0,0.0,0.0,0.0,0.0,0.0,-0.4976811
114357881,nan,nan,nan,0.72650915,0.0,nan,nan,-0.31924137,0.0,0.0,0.0,0.0,0.0,0.0,0.0,0.0,-0.4280458
114477946,nan,nan,-1.1721432,0.72650915,0.0,nan,nan,0.0323081,0.0,0.0,0.0,0.0,0.0,0.0,0.0,0.0,-0.40187463
114577933,nan,nan,-1.1721432,0.72650915,0.0,nan,nan,0.04222381,0.0,0.0,0.0,0.0,0.0,0.0,0.0,0.0,-0.47756106
114677968,nan,nan,-1.1721432,0.72650915,0.0,nan,nan,0.02365923,0.0,0.0,0.0,0.0,0.0,0.0,0.0,0.0,-0.5129995
114778320,nan,nan,-1.1721432,0.72650915,0.0,nan,nan,-0.0041298866,0.0,0.0,0.0,0.0,0.0,0.0,0.0,0.0,-0.51886934
114879001,nan,nan,-1.1721432,0.72650915,0.0,nan,nan,-0.021148324,0.0,0.0,0.0,0.0,0.0,0.0,0.0,0.0,-0.507877
114978389,nan,nan,-1.1721432,0.72650915,0.0,nan,nan,-0.026322365,0.0,0.0,0.0,0.0,0.0,0.0,0.0,0.0,-0.49507028
115078474,nan,nan,-1.1721432,0.72650915,0.0,nan,nan,-0.030409694,0.0,0.0,0.0,0.0,0.0,0.0,0.0,0.0,-0.4964583
115178694,nan,nan,-1.1721432,0.72650915,0.0,nan,nan,-0.037798405,0.0,0.0,0.0,0.0,0.0,0.0,0.0,0.0,-0.508161
115278558,nan,nan,-1.1721432,0.72650915,0.0,nan,nan,-0.047109604,0.0,0.0,0.0,0.0,0.0,0.0,0.0,0.0,-0.5031981
115378679,nan,nan,-1.1721432,0.72650915,0.0,nan,nan,-0.051700354,0.0,0.0,0.0,0.0,0.0,0.0,0.0,0.0,-0.49768147
115478776,nan,nan,-1.1721432,0.72650915,0.0,nan,nan,-0.05481255,0.0,0.0,0.0,0.0,0.0,0.0,0.0,0.0,-0.4921305
115578852,nan,nan,-1.1721432,0.72650915,0.0,nan,nan,-0.060317516,0.0,0.0,0.0,0.0,0.0,0.0,0.0,0.0,-0.5044794
115699260,nan,nan,-1.1721432,0.72650915,0.0,nan,nan,-0.071602345,0.0,0.0,0.0,0.0,0.0,0.0,0.0,0.0,-0.50719064
115799255,nan,nan,-1.1721432,0.72650915,0.0,nan,nan,-0.082989335,0.0,0.0,0.0,0.0,0.0,0.0,0.0,0.0,-0.5114521
115899342,nan,nan,-1.1721432,0.72650915,0.0,nan,nan,-0.09572518,0.0,0.0,0.0,0.0,0.0,0.0,0.0,0.0,-0.5143066
115999470,nan,nan,-1.1721432,0.72650915,0.0,nan,nan,-0.10494304,0.0,0.0,0.0,0.0,0.0,0.0,0.0,0.0,-0.50402737
116099475,nan,nan,-1.1721432,0.72650915,0.0,nan,nan,-0.103226185,0.0,0.0,0.0,0.0,0.0,0.0,0.0,0.0,-0.48826203
116199505,nan,nan,-1.1721432,0.72650915,0.0,nan,nan,-0.10320401,0.0,0.0,0.0,0.0,0.0,0.0,0.0,0.0,-0.49139935
116299595,nan,nan,-1.1721432,0.72650915,0.0,nan,nan,-0.10636032,0.0,0.0,0.0,0.0,0.0,0.0,0.0,0.0,-0.49348038
116399742,nan,nan,-1.1721432,0.72650915,0.0,nan,nan,-0.10794461,0.0,0.0,0.0,0.0,0.0,0.0,0.0,0.0,-0.49824905
116499898,nan,nan,-1.1721432,0.72650915,0.0,nan,nan,-0.11000335,0.0,0.0,0.0,0.0,0.0,0.0,0.0,0.0,-0.50218344
116600292,nan,nan,-1.1721432,0.72650915,0.0,nan,nan,-0.11296439,0.0,0.0,0.0,0.0,0.0,0.0,0.0,0.0,-0.50647706
116700126,nan,nan,-1.1721432,0.72650915,0.0,nan,nan,-0.113780975,0.0,0.0,0.0,0.0,0.0,0.0,0.0,0.0,-0.5061592
116800354,nan,nan,-1.1721432,0.72650915,0.0,nan,nan,-0.113595605,0.0,0.0,0.0,0.0,0.0,0.0,0.0,0.0,-0.5069716
116900219,nan,nan,-1.1721432,0.72650915,0.0,nan,nan,-0.10989535,0.0,0.0,0.0,0.0,0.0,0.0,0.0,0.0,-0.5000475
117000540,nan,nan,-1.1721432,0.72650915,0.0,nan,nan,-0.100509405,0.0,0.0,0.0,0.0,0.0,0.0,0.0,0.0,-0.49567363
117120946,nan,nan,-1.1721432,0.72650915,0.0,nan,nan,-0.09177315,0.0,0.0,0.0,0.0,0.0,0.0,0.0,0.0,-0.5021877
117220591,nan,nan,-1.1721432,0.72650915,0.0,nan,nan,-0.08587277,0.0,0.0,0.0,0.0,0.0,0.0,0.0,0.0,-0.5048034
117320782,nan,nan,-1.1721432,0.72650915,0.0,nan,nan,-0.07361472,0.0,0.0,0.0,0.0,0.0,0.0,0.0,0.0,-0.50084174
117420812,nan,nan,-1.1721432,0.72650915,0.0,nan,nan,-0.060533524,0.0,0.0,0.0,0.0,0.0,0.0,0.0,0.0,-0.4949707
117520913,nan,nan,-1.1721432,0.72650915,0.0,nan,nan,-0.050676465,0.0,0.0,0.0,0.0,0.0,0.0,0.0,0.0,-0.5022097
117620953,nan,nan,-1.1721432,0.72650915,0.0,nan,nan,-0.052662015,0.0,0.0,0.0,0.0,0.0,0.0,0.0,0.0,-0.515095
117720989,nan,nan,-1.1721432,0.72650915,0.0,nan,nan,-0.06212914,0.0,0.0,0.0,0.0,0.0,0.0,0.0,0.0,-0.51634574
117821126,nan,nan,-1.1721432,0.72650915,0.0,nan,nan,-0.06625557,0.0,0.0,0.0,0.0,0.0,0.0,0.0,0.0,-0.5112521
117921193,nan,nan,-1.1721432,0.72650915,0.0,nan,nan,-0.05919814,0.0,0.0,0.0,0.0,0.0,0.0,0.0,0.0,-0.49401715
118021357,nan,nan,-1.1721432,0.72650915,0.0,nan,nan,-0.04854083,0.0,0.0,0.0,0.0,0.0,0.0,0.0,0.0,-0.48700806
118121751,nan,nan,-1.1721432,0.72650915,0.0,nan,nan,-0.044510603,0.0,0.0,0.0,0.0,0.0,0.0,0.0,0.0,-0.50231683
118221798,nan,nan,-1.1721432,0.72650915,0.0,nan,nan,-0.050885916,0.0,0.0,0.0,0.0,0.0,0.0,0.0,0.0,-0.51350665
118341908,nan,nan,-1.1721432,0.72650915,0.0,nan,nan,-0.057583928,0.0,0.0,0.0,0.0,0.0,0.0,0.0,0.0,-0.5094755
118441890,nan,nan,-1.1721432,0.72650915,0.0,nan,nan,-0.059807777,0.0,0.0,0.0,0.0,0.0,0.0,0.0,0.0,-0.50450766
118541898,nan,nan,-1.1721432,0.72650915,0.0,nan,nan,-0.05159855,0.0,0.0,0.0,0.0,0.0,0.0,0.0,0.0,-0.4942875
118641948,nan,nan,-1.1721432,0.72650915,0.0,nan,nan,-0.037094116,0.0,0.0,0.0,0.0,0.0,0.0,0.0,0.0,-0.49486363
118742015,nan,nan,-1.1721432,0.72650915,0.0,nan,nan,-0.031623006,0.0,0.0,0.0,0.0,0.0,0.0,0.0,0.0,-0.5110919
118842191,nan,nan,-1.1721432,0.72650915,0.0,nan,nan,-0.03292775,0.0,0.0,0.0,0.0,0.0,0.0,0.0,0.0,-0.5172642
118942404,nan,nan,-1.1721432,0.72650915,0.0,nan,nan,-0.032438636,0.0,0.0,0.0,0.0,0.0,0.0,0.0,0.0,-0.5024836
119042667,nan,nan,-1.1721432,0.72650915,0.0,nan,nan,-0.023071289,0.0,0.0,0.0,0.0,0.0,0.0,0.0,0.0,-0.4931272
119142517,nan,nan,-1.1721432,0.72650915,0.0,nan,nan,-0.016563535,0.0,0.0,0.0,0.0,0.0,0.0,0.0,0.0,-0.49916598
119242568,nan,nan,-1.1721432,0.72650915,0.0,nan,nan,-0.013836026,0.0,0.0,0.0,0.0,0.0,0.0,0.0,0.0,-0.49825272
119342639,nan,nan,-1.1721432,0.72650915,0.0,nan,nan,-0.013407588,0.0,0.0,0.0,0.0,0.0,0.0,0.0,0.0,-0.49517298
119442696,nan,nan,-1.1721432,0.72650915,0.0,nan,nan,-0.014451385,0.0,0.0,0.0,0.0,0.0,0.0,0.0,0.0,-0.4965735
119563104,nan,nan,-1.1721432,0.72650915,0.0,nan,nan,-0.014270902,0.0,0.0,0.0,0.0,0.0,0.0,0.0,0.0,-0.5043683
119663090,nan,nan,-1.1721432,0.72650915,0.0,nan,nan,-0.013059735,0.0,0.0,0.0,0.0,0.0,0.0,0.0,0.0,-0.50647306
119763157,nan,nan,-1.1721432,0.72650915,0.0,nan,nan,-0.014603138,0.0,0.0,0.0,0.0,0.0,0.0,0.0,0.0,-0.5086268
119863224,nan,nan,-1.1721432,0.72650915,0.0,nan,nan,-0.014113188,0.0,0.0,0.0,0.0,0.0,0.0,0.0,0.0,-0.50685114
119963316,nan,nan,-1.1721432,0.72650915,0.0,nan,nan,-0.015382409,0.0,0.0,0.0,0.0,0.0,0.0,0.0,0.0,-0.5023939
120063395,nan,nan,-1.1721432,0.72650915,0.0,nan,nan,-0.014901876,0.0,0.0,0.0,0.0,0.0,0.0,0.0,0.0,-0.50229675
120163427,nan,nan,-1.1721432,0.72650915,0.0,nan,nan,-0.018320322,0.0,0.0,0.0,0.0,0.0,0.0,0.0,0.0,-0.50552654
120263547,nan,nan,-1.1721432,0.72650915,0.0,nan,nan,-0.022632837,0.0,0.0,0.0,0.0,0.0,0.0,0.0,0.0,-0.50310135
120363628,nan,nan,-1.1721432,0.72650915,0.0,nan,nan,-0.024648666,0.0,0.0,0.0,0.0,0.0,0.0,0.0,0.0,-0.50433224
120464800,nan,nan,-1.1721432,0.72650915,0.0,nan,nan,-0.023453116,0.0,0.0,0.0,0.0,0.0,0.0,0.0,0.0,-0.5052192
120564029,nan,nan,-1.1721432,0.72650915,0.0,nan,nan,-0.025064945,0.0,0.0,0.0,0.0,0.0,0.0,0.0,0.0,-0.5038981
120664731,nan,nan,-1.1721432,0.72650915,0.0,nan,nan,-0.022441268,0.0,0.0,0.0,0.0,0.0,0.0,0.0,0.0,-0.5005438
120784565,nan,nan,-1.1721432,0.72650915,0.0,nan,nan,-0.020025969,0.0,0.0,0.0,0.0,0.0,0.0,0.0,0.0,-0.49892122
120884183,nan,nan,-1.1721432,0.72650915,0.0,nan,nan,-0.0150488615,0.0,0.0,0.0,0.0,0.0,0.0,0.0,0.0,-0.49309486
120984258,nan,nan,-1.1721432,0.72650915,0.0,nan,nan,-0.012150407,0.0,0.0,0.0,0.0,0.0,0.0,0.0,0.0,-0.49477434
121084384,nan,nan,-1.1721432,0.72650915,0.0,nan,nan,-0.010648131,0.0,0.0,0.0,0.0,0.0,0.0,0.0,0.0,-0.50692713
121184441,nan,nan,-1.1721432,0.72650915,0.0,nan,nan,-0.01052022,0.0,0.0,0.0,0.0,0.0,0.0,0.0,0.0,-0.5071685
121284735,nan,nan,-1.1721432,0.72650915,0.0,nan,nan,-0.0073953867,0.0,0.0,0.0,0.0,0.0,0.0,0.0,0.0,-0.50131994
121384795,nan,nan,-1.1721432,0.72650915,0.0,nan,nan,-0.0054358244,0.0,0.0,0.0,0.0,0.0,0.0,0.0,0.0,-0.5019986
121484874,nan,nan,-1.1721432,0.72650915,0.0,nan,nan,-0.0043228865,0.0,0.0,0.0,0.0,0.0,0.0,0.0,0.0,-0.49665618
121584906,nan,nan,-1.1721432,0.72650915,0.0,nan,nan,-0.00085413456,0.0,0.0,0.0,0.0,0.0,0.0,0.0,0.0,-0.49664277
121684980,nan,nan,-1.1721432,0.72650915,0.0,nan,nan,0.004158139,0.0,0.0,0.0,0.0,0.0,0.0,0.0,0.0,-0.49892998
121785041,nan,nan,-1.1721432,0.72650915,0.0,nan,nan,0.0065785646,0.0,0.0,0.0,0.0,0.0,0.0,0.0,0.0,-0.50151575
121885145,nan,nan,-1.1721432,0.72650915,0.0,nan,nan,-0.001960516,0.0,0.0,0.0,0.0,0.0,0.0,0.0,0.0,-0.51267105
122005349,nan,nan,-1.1721432,0.72650915,0.0,nan,nan,-0.01587987,0.0,0.0,0.0,0.0,0.0,0.0,0.0,0.0,-0.504474
122105406,nan,nan,-1.1721432,0.72650915,0.0,nan,nan,-0.018489122,0.0,0.0,0.0,0.0,0.0,0.0,0.0,0.0,-0.49744108
122205890,nan,nan,-1.1721432,0.72650915,0.0,nan,nan,-0.014280438,0.0,0.0,0.0,0.0,0.0,0.0,0.0,0.0,-0.48769155
122305892,nan,nan,-1.1721432,0.72650915,0.0,nan,nan,-0.012113214,0.0,0.0,0.0,0.0,0.0,0.0,0.0,0.0,-0.4916183
122405838,nan,nan,-1.1721432,0.72650915,0.0,nan,nan,-0.01180613,0.0,0.0,0.0,0.0,0.0,0.0,0.0,0.0,-0.49484777
122505790,nan,nan,-1.1721432,0.72650915,0.0,nan,nan,-0.010976315,0.0,0.0,0.0,0.0,0.0,0.0,0.0,0.0,-0.49538422
122605959,nan,nan,-1.1721432,0.72650915,0.0,nan,nan,-0.009198546,0.0,0.0,0.0,0.0,0.0,0.0,0.0,0.0,-0.4985761
122705971,nan,nan,-1.1721432,0.72650915,0.0,nan,nan,-0.011769772,0.0,0.0,0.0,0.0,0.0,0.0,0.0,0.0,-0.506298
122806474,nan,nan,-1.1721432,0.72650915,0.0,nan,nan,-0.016192079,0.0,0.0,0.0,0.0,0.0,0.0,0.0,0.0,-0.50335115
122906423,nan,nan,-1.1721432,0.72650915,0.0,nan,nan,-0.020396113,0.0,0.0,0.0,0.0,0.0,0.0,0.0,0.0,-0.5084251
123006457,nan,nan,-1.1721432,0.72650915,0.0,nan,nan,-0.02778399,0.0,0.0,0.0,0.0,0.0,0.0,0.0,0.0,-0.5027739
123106510,nan,nan,-1.1721432,0.72650915,0.0,nan,nan,-0.03147137,0.0,0.0,0.0,0.0,0.0,0.0,0.0,0.0,-0.5074819
123206643,nan,nan,-1.1721432,0.72650915,0.0,nan,nan,-0.029852271,0.0,0.0,0.0,0.0,0.0,0.0,0.0,0.0,-0.50112885
123306600,nan,nan,-1.1721432,0.72650915,0.0,nan,nan,-0.026582956,0.0,0.0,0.0,0.0,0.0,0.0,0.0,0.0,-0.50005233
123426687,nan,nan,-1.1721432,0.72650915,0.0,nan,nan,-0.025421381,0.0,0.0,0.0,0.0,0.0,0.0,0.0059862332,0.005319669,-0.5010597
123526775,nan,nan,-1.1721432,0.72650915,0.0,nan,nan,-0.022474766,0.0,0.0,0.0,0.0,0.0,0.0,0.015292127,0.013589356,-0.49410063
123626959,nan,nan,-1.1721432,0.72650915,0.0,nan,nan,-0.020537853,0.0,0.0,0.0,0.0,0.0,0.0,0.028503317,0.025329486,-0.4995405
123727138,nan,nan,-1.1721432,0.72650915,0.0,nan,nan,-0.020459414,0.0,0.0,0.0,0.0,0.0,0.0,0.034529343,0.030684516,-0.5016008
123827211,nan,nan,-1.1721432,0.72650915,0.0,nan,nan,-0.027089,0.0,0.0,0.0,0.0,0.0,0.0,0.036021337,0.03201038,-0.5060608
123927291,nan,nan,-1.1721432,0.72650915,0.0,nan,nan,-0.03229499,0.0,0.0,0.0,0.0,0.0,0.0,0.035451252,0.03150377,-0.5086659
124027438,nan,nan,-1.1721432,0.72650915,0.0,nan,nan,-0.03678,0.0,0.0,0.0,0.0,0.0,0.0,0.026252551,0.02332934,-0.4962238
124127428,nan,nan,-1.1721432,0.72650915,0.0,nan,nan,-0.036664963,0.0,0.0,0.0,0.0,0.0,0.0,0.010330155,0.009179897,-0.49489555
124227526,nan,nan,-1.1721432,0.72650915,0.0,nan,nan,-0.03480649,0.0,0.0,0.0,0.0,0.0,0.0,-0.00013583284,-0.00012070791,-0.5040585
124327581,nan,nan,-1.1721432,0.72650915,0.0,nan,nan,-0.038927913,0.0,0.0,0.0,0.0,0.0,0.0,-3.0436972e-06,-2.7047831e-06,-0.5078609
124428032,nan,nan,-1.1721432,0.72650915,0.0,nan,nan,-0.047960997,0.0,0.0,0.0,0.0,0.0,0.0,2.6048872e-09,2.3148343e-09,-0.50810254
124528273,nan,nan,-1.1721432,0.72650915,0.0,nan,nan,-0.05275321,0.0,0.0,0.0,0.0,0.0,0.0,1.1355485e-09,1.0091057e-09,-0.5077348
124627998,nan,nan,-1.1721432,0.72650915,0.0,nan,nan,-0.0563941,0.0,0.0,0.0,0.0,0.0,0.0,5.619586e-11,4.9938477e-11,-0.5127756
124728259,nan,nan,-1.1721432,0.72650915,0.0,nan,nan,-0.058759212,0.0,0.0,0.0,0.0,0.0,0.0,-0.0031402996,-0.0027906285,-0.49934942
124848116,nan,nan,-1.1721432,0.72650915,0.0,nan,nan,-0.05190885,0.0,0.0,0.0,0.0,0.0,0.0,-0.020287786,-0.018028751,-0.50235134
124948219,nan,nan,-1.1721432,0.72650915,0.0,nan,nan,-0.04340172,0.0,0.0,0.0,0.0,0.0,0.0,-0.030230593,-0.02686443,-0.49972126
125048332,nan,nan,-1.1721432,0.72650915,0.0,nan,nan,-0.04346347,0.0,0.0,0.0,0.0,0.0,0.0,-0.037654094,-0.03346133,-0.50556046
125148405,nan,nan,-1.1721432,0.72650915,0.0,nan,nan,-0.048959374,0.0,0.0,0.0,0.0,0.0,0.0,-0.041670606,-0.0370306,-0.5140477
125248746,nan,nan,-1.1721432,0.72650915,0.0,nan,nan,-0.056189537,0.0,0.0,0.0,0.0,0.0,0.0,-0.03992927,-0.035483167,-0.5093476
125348788,nan,nan,-1.1721432,0.72650915,0.0,nan,nan,-0.059743285,0.0,0.0,0.0,0.0,0.0,0.0,-0.038235024,-0.033977572,-0.5006157
125448856,nan,nan,-1.1721432,0.72650915,0.0,nan,nan,-0.056319594,0.0,0.0,0.0,0.0,0.0,0.0,-0.03758966,-0.03340407,-0.4977376
125548993,nan,nan,-1.1721432,0.72650915,0.0,nan,nan,-0.054194093,0.0,0.0,0.0,0.0,0.0,0.0,-0.037160967,-0.033023108,-0.5020784
125648977,nan,nan,-1.1721432,0.72650915,0.0,nan,nan,-0.058804274,0.0,0.0,0.0,0.0,0.0,0.0,-0.037017863,-0.03289594,-0.5037847
125749011,nan,nan,-1.1721432,0.72650915,0.0,nan,nan,-0.06314266,0.0,0.0,0.0,0.0,0.0,0.0,-0.03608883,-0.032070357,-0.50143045
125849111,nan,nan,-1.1721432,0.72650915,0.0,nan,nan,-0.06664276,0.0,0.0,0.0,0.0,0.0,0.0,-0.034833483,-0.03095479,-0.5000269
125949293,nan,nan,-1.1721432,0.72650915,0.0,nan,nan,-0.065445304,0.0,0.0,0.0,0.0,0.0,0.0,-0.032796513,-0.029144637,-0.49386796
126049729,nan,nan,-1.1721432,0.72650915,0.0,nan,nan,-0.061140537,0.0,0.0,0.0,0.0,0.0,0.0,-0.03790582,-0.03368502,-0.48977682
126149850,nan,nan,-1.1721432,0.72650915,0.0,nan,nan,-0.056480765,0.0,0.0,0.0,0.0,0.0,0.0,-0.04197268,-0.03729904,-0.49550763
126249693,nan,nan,-1.1721432,0.72650915,0.0,nan,nan,-0.05184722,0.0,0.0,0.0,0.0,0.0,0.0,-0.0365417,-0.032472797,-0.49840766
126369739,nan,nan,-1.1721432,0.72650915,0.0,nan,nan,-0.055187464,0.0,0.0,0.0,0.0,0.0,0.0,-0.036049776,-0.03203565,-0.5090842
126470594,nan,nan,-1.1721432,0.72650915,0.0,nan,nan,-0.060877204,0.0,0.0,0.0,0.0,0.0,0.0,-0.04798615,-0.042642914,-0.50954515
126569845,nan,nan,-1.1721432,0.72650915,0.0,nan,nan,-0.062936306,0.0,0.0,0.0,0.0,0.0,0.0,-0.054403346,-0.048345562,-0.501167
126670823,nan,nan,-1.1721432,0.72650915,0.0,nan,nan,-0.061483026,0.0,0.0,0.0,0.0,0.0,0.0,-0.051635757,-0.045886144,-0.48986283
126770021,nan,nan,-1.1721432,0.72650915,0.0,nan,nan,-0.057016015,0.0,0.0,0.0,0.0,0.0,0.0,-0.04806723,-0.04271497,-0.4958911
126870212,nan,nan,-1.1721432,0.72650915,0.0,nan,nan,-0.05348897,0.0,0.0,0.0,0.0,0.0,0.0,-0.039776307,-0.035347234,-0.49712107
126970351,nan,nan,-1.1721432,0.72650915,0.0,nan,nan,-0.052334785,0.0,0.0,0.0,0.0,0.0,0.0,-0.01785726,-0.015868861,-0.4943167
127070496,nan,nan,-1.1721432,0.72650915,0.0,nan,nan,-0.051302552,0.0,0.0,0.0,0.0,0.0,0.0,-0.009997051,-0.008883884,-0.49551585
127170509,nan,nan,-1.1721432,0.72650915,0.0,nan,nan,-0.05109632,0.0,0.0,0.0,0.0,0.0,0.0,-0.0006959188,-0.0006184286,-0.5026181
127270577,nan,nan,-1.1721432,0.72650915,0.0,nan,nan,-0.050352335,0.0,0.0,0.0,0.0,0.0,0.0,-1.0364408e-05,-9.2103355e-06,-0.50035965
127370619,nan,nan,-1.1721432,0.72650915,0.0,nan,nan,-0.05205524,0.0,0.0,0.0,0.0,0.0,0.0,2.7921314e-07,2.481229e-07,-0.51023114
127470746,nan,nan,-1.1721432,0.72650915,0.0,nan,nan,-0.055634856,0.0,0.0,0.0,0.0,0.0,0.0,7.3981647e-09,6.5743824e-09,-0.51117563
127570841,nan,nan,-1.1721432,0.72650915,0.0,nan,nan,-0.055835962,0.0,0.0,0.0,0.0,0.0,0.0,5.5383583e-11,4.9216648e-11,-0.5100569
127671000,nan,nan,-1.1721432,0.72650915,0.0,nan,nan,-0.05036235,0.0,0.0,0.0,0.0,0.0,0.0,-1.9558636e-12,-1.7380791e-12,-0.50663316
127791179,nan,nan,-1.1721432,0.72650915,0.0,nan,nan,-0.038283348,0.0,0.0,0.0,0.0,0.0,0.0,-6.9546006e-14,-6.180209e-14,-0.49450535
127891442,nan,nan,-1.1721432,0.72650915,0.0,nan,nan,-0.027225375,0.0,0.0,0.0,0.0,0.0,0.0,-1.4017023e-15,-1.2456235e-15,-0.48786494
127991478,nan,nan,-1.1721432,0.72650915,0.0,nan,nan,-0.019448042,0.0,0.0,0.0,0.0,0.0,0.0,0.017201902,-0.019357331,-0.4967017
128091491,nan,nan,-1.1721432,0.72650915,0.0,nan,nan,-0.016531825,0.0,0.0,0.0,0.0,0.0,0.0,0.035492554,-0.039939836,-0.5054605
128191495,nan,nan,-1.1721432,0.72650915,0.0,nan,nan,-0.017691731,0.0,0.0,0.0,0.0,0.0,0.0,0.036292437,-0.040839944,-0.49992287
128291638,nan,nan,-1.1721432,0.72650915,0.0,nan,nan,-0.015818,0.0,0.0,0.0,0.0,0.0,0.0,0.036051888,-0.040569253,-0.49658674
128391651,nan,nan,-1.1721432,0.72650915,0.0,nan,nan,-0.012567043,0.0,0.0,0.0,0.0,0.0,0.0,0.034917876,-0.03929315,-0.48962793
128491914,nan,nan,-1.1721432,0.72650915,0.0,nan,nan,-0.009126186,0.0,0.0,0.0,0.0,0.0,0.0,0.03340781,-0.037593868,-0.4932264
128592199,nan,nan,-1.1721432,0.72650915,0.0,nan,nan,-0.0063176155,0.0,0.0,0.0,0.0,0.0,0.0,0.03540352,-0.039839648,-0.49829957
128692068,nan,nan,-1.1721432,0.72650915,0.0,nan,nan,-0.0069264174,0.0,0.0,0.0,0.0,0.0,0.0,0.044850692,-0.05047057,-0.49318525
128792121,nan,nan,-1.1721432,0.72650915,0.0,nan,nan,-0.008156896,0.0,0.0,0.0,0.0,0.0,0.0,0.040767085,-0.045875274,-0.49582312
128912217,nan,nan,-1.1721432,0.72650915,0.0,nan,nan,-0.012670636,0.0,0.0,0.0,0.0,0.0,0.0,0.041707914,-0.046933994,-0.5001
129012270,nan,nan,-1.1721432,0.72650915,0.0,nan,nan,-0.022551417,0.0,0.0,0.0,0.0,0.0,0.0,0.035998527,-0.040509205,-0.5085556
129112378,nan,nan,-1.1721432,0.72650915,0.0,nan,nan,-0.03132522,0.0,0.0,0.0,0.0,0.0,0.0,0.027509365,-0.03095634,-0.5064455
129212586,nan,nan,-1.1721432,0.72650915,0.0,nan,nan,-0.04079902,0.0,0.0,0.0,0.0,0.0,0.0,-0.0004455106,0.0005013339,-0.5074764
129312702,nan,nan,-1.1721432,0.72650915,0.0,nan,nan,-0.048415065,0.0,0.0,0.0,0.0,0.0,0.0,9.3025865e-06,-1.04682185e-05,-0.5090077
129412790,nan,nan,-1.1721432,0.72650915,0.0,nan,nan,-0.05528319,0.0,0.0,0.0,0.0,0.0,0.0,-0.023450054,0.026388392,-0.51065004
129512876,nan,nan,-1.1721432,0.72650915,0.0,nan,nan,-0.06258702,0.0,0.0,0.0,0.0,0.0,0.0,-0.035862505,0.040356144,-0.49949634
129612917,nan,nan,-1.1721432,0.72650915,0.0,nan,nan,-0.06595135,0.0,0.0,0.0,0.0,0.0,0.0,-0.04205583,0.047325503,-0.49414247
129712978,nan,nan,-1.1721432,0.72650915,0.0,nan,nan,-0.06746042,0.0,0.0,0.0,0.0,0.0,0.0,-0.045531705,0.051236913,-0.49185678
129813114,nan,nan,-1.1721432,0.72650915,0.0,nan,nan,-0.070673704,0.0,0.0,0.0,0.0,0.0,0.0,-0.040274218,0.045320652,-0.49458218
129913183,nan,nan,-1.1721432,0.72650915,0.0,nan,nan,-0.07413268,0.0,0.0,0.0,0.0,0.0,0.0,-0.039953746,0.044960026,-0.49961385
130014674,nan,nan,-1.1721432,0.72650915,0.0,nan,nan,-0.07602358,0.0,0.0,0.0,0.0,0.0,0.0,-0.039545547,0.044500675,-0.49702823
130113554,nan,nan,-1.1721432,0.72650915,0.0,nan,nan,-0.07649827,0.0,0.0,0.0,0.0,0.0,0.0,-0.02406663,0.042974792,-0.50263786
130213952,nan,nan,-1.1721432,0.72650915,0.0,nan,nan,-0.07667959,0.0,0.0,0.0,0.0,0.0,0.0,-0.020879779,0.04392433,-0.5025471
130313710,nan,nan,-1.1721432,0.72650915,0.0,nan,nan,-0.07280803,0.0,0.0,0.0,0.0,0.0,0.0,-0.019718312,0.05144485,-0.496125
130433737,nan,nan,-1.1721432,0.72650915,0.0,nan,nan,-0.06066382,0.0,0.0,0.0,0.0,0.0,0.0,-0.011246914,0.06780591,-0.48818702
130534511,nan,nan,-1.1721432,0.72650915,0.0,nan,nan,-0.04714513,0.0,0.0,0.0,0.0,0.0,0.0,-0.0027188088,0.074463464,-0.48768216
130633890,nan,nan,-1.1721432,0.72650915,0.0,nan,nan,-0.03591609,0.0,0.0,0.0,0.0,0.0,0.0,0.0013973775,0.07135125,-0.49097198
130734027,nan,nan,-1.1721432,0.72650915,0.0,nan,nan,-0.023525476,0.0,0.0,0.0,0.0,0.0,0.0,0.00849285,0.06057998,-0.4932639
130834156,nan,nan,-1.1721432,0.72650915,0.0,nan,nan,-0.019614935,0.0,0.0,0.0,0.0,0.0,0.0,0.018014636,0.040802345,-0.5004427
130934340,nan,nan,-1.1721432,0.72650915,0.0,nan,nan,-0.019385934,0.0,0.0,0.0,0.0,0.0,0.0,0.018833758,0.037290268,-0.50904566
131034411,nan,nan,-1.1721432,0.72650915,0.0,nan,nan,-0.019757152,0.0,0.0,0.0,0.0,0.0,0.0,0.019189103,0.03755419,-0.50718653
131134496,nan,nan,-1.1721432,0.72650915,0.0,nan,nan,-0.014837384,0.0,0.0,0.0,0.0,0.0,0.0,0.020760782,0.033486016,-0.49104577
131234510,nan,nan,-1.1721432,0.72650915,0.0,nan,nan,-0.0015701056,0.0,0.0,0.0,0.0,0.0,0.0,0.028026406,0.024855142,-0.4864683
131334572,nan,nan,-1.1721432,0.72650915,0.0,nan,nan,0.011774659,0.0,0.0,0.0,0.0,0.0,0.0,0.025202231,0.022384344,-0.4935141
131434680,nan,nan,-1.1721432,0.72650915,0.0,nan,nan,0.01857555,0.0,0.0,0.0,0.0,0.0,0.0,0.005899705,0.0052426434,-0.5039551
131534777,nan,nan,-1.1721432,0.72650915,0.0,nan,nan,0.021301746,0.0,0.0,0.0,0.0,0.0,0.0,-0.00027546825,-0.00024478792,-0.50622743
131634950,nan,nan,-1.1721432,0.72650915,0.0,nan,nan,0.02206397,0.0,0.0,0.0,0.0,0.0,0.0,-3.818646e-06,-3.393304e-06,-0.50315213
131735346,nan,nan,-1.1721432,0.72650915,0.0,nan,nan,0.024659514,0.0,0.0,0.0,0.0,0.0,0.0,1.2033577e-07,1.06935346e-07,-0.49406737
131835504,nan,nan,-1.1721432,0.72650915,0.0,nan,nan,0.030728817,0.0,0.0,0.0,0.0,0.0,0.0,2.839285e-09,2.5230704e-09,-0.4852566
131955429,nan,nan,-1.1721432,0.72650915,0.0,nan,nan,0.03634882,0.0,0.0,0.0,0.0,0.0,0.0,4.635231e-11,4.1189562e-11,-0.48458454
132055426,nan,nan,-1.1721432,0.72650915,0.0,nan,nan,0.037966847,0.0,0.0,0.0,0.0,0.0,0.0,5.0644515e-13,4.500293e-13,-0.49382222
132155546,nan,nan,-1.1721432,0.72650915,0.0,nan,nan,0.032649398,0.0,0.0,0.0,0.0,0.0,0.0,7.700951e-16,6.840973e-16,-0.5073288
132255588,nan,nan,-1.1721432,0.72650915,0.0,nan,nan,0.025117517,0.0,0.0,0.0,0.0,0.0,0.0,-5.7478e-16,-5.107631e-16,-0.5132916
132355605,nan,nan,-1.1721432,0.72650915,0.0,nan,nan,0.016615033,0.0,0.0,0.0,0.0,0.0,0.0,-0.0067140046,-0.005966403,-0.5203578
132455964,nan,nan,-1.1721432,0.72650915,0.0,nan,nan,0.00729084,0.0,0.0,0.0,0.0,0.0,0.0,0.0044554574,-0.05737315,-0.519188
132555945,nan,nan,-1.1721432,0.72650915,0.0,nan,nan,0.002482295,0.0,0.0,0.0,0.0,0.0,0.0,0.017747981,-0.03404571,-0.50520724
132656000,nan,nan,-1.1721432,0.72650915,0.0,nan,nan,0.0036010742,0.0,0.0,0.0,0.0,0.0,0.0,0.011526978,-0.013148778,-0.4936988
132756072,nan,nan,-1.1721432,0.72650915,0.0,nan,nan,0.0026386976,0.0,0.0,0.0,0.0,0.0,0.0,7.5205644e-05,-7.7706325e-05,-0.4954406
132856163,nan,nan,-1.1721432,0.72650915,0.0,nan,nan,-0.0052648783,0.0,0.0,0.0,0.0,0.0,0.0,2.1467e-06,-2.2599047e-06,-0.5055351
132956212,nan,nan,-1.1721432,0.72650915,0.0,nan,nan,-0.018743157,0.0,0.0,0.0,0.0,0.0,0.0,2.1383348e-08,-2.4266132e-08,-0.5079424
133056328,nan,nan,-1.1721432,0.72650915,0.0,nan,nan,-0.027679801,0.0,0.0,0.0,0.0,0.0,0.0,-5.0710136e-10,5.115808e-10,-0.50593734
133156438,nan,nan,-1.1721432,0.72650915,0.0,nan,nan,-0.024675012,0.0,0.0,0.0,0.0,0.0,0.0,-5.049343e-11,5.403778e-11,-0.50001085
133256579,nan,nan,-1.1721432,0.72650915,0.0,nan,nan,-0.018936753,0.0,0.0,0.0,0.0,0.0,0.0,-4.5044705e-13,4.9294135e-13,-0.48810226
133376785,nan,nan,-1.1721432,0.72650915,0.0,nan,nan,-0.01733911,0.0,0.0,0.0,0.0,0.0,0.0,1.4337869e-15,-1.225177e-15,-0.4898892
133476808,nan,nan,-1.1721432,0.72650915,0.0,nan,nan,-0.015478969,0.0,0.0,0.0,0.0,0.0,0.0,6.077359e-16,-6.4713746e-16,-0.49429858
133576889,nan,nan,nan,0.72650915,0.0,nan,nan,-0.059460875,0.0,0.0,0.0,0.0,0.0,0.0,7.383825e-18,-7.975359e-18,-0.50586605
133676942,nan,nan,nan,0.72650915,0.0,nan,nan,-0.24038999,0.0,0.0,0.0,0.0,0.0,0.0,-3.6615698e-19,3.8370993e-19,-0.5367541
133777145,nan,nan,nan,0.72650915,0.0,nan,nan,-0.5247451,0.0,0.0,0.0,0.0,0.0,0.0,-7.9501355e-21,8.42804e-21,-0.5688847
133877178,nan,nan,nan,0.72650915,0.0,nan,nan,-0.67302835,0.0,0.0,0.0,0.0,0.0,0.0,3.9889907e-23,-3.711375e-23,-0.5332282
133977223,nan,nan,nan,0.72650915,0.0,nan,nan,-0.9493412,0.0,0.0,0.0,0.0,0.0,0.0,3.2356885e-24,-3.3637297e-24,-0.53789204
134078425,nan,nan,nan,0.72650915,0.0,nan,nan,-0.99317,0.0,0.0,0.0,0.0,0.0,0.0,1.1471702e-25,-1.2415461e-25,-0.513334
134177577,nan,nan,nan,0.72650915,0.0,nan,nan,-0.5874778,0.0,0.0,0.0,0.0,0.0,0.0,2.7807725e-28,-3.3977713e-28,-0.4172286
134278446,nan,nan,nan,0.72650915,0.0,nan,nan,0.0,0.0,0.0,0.0,0.0,0.0,0.0,-7.764044e-29,8.238059e-29,-0.34254473
134377744,nan,nan,-1.5903293,0.72650915,0.0,nan,nan,0.02897942,0.0,0.0,0.0,0.0,0.0,0.0,-1.3261829e-30,1.423615e-30,-0.42400074
134478436,nan,nan,-1.5903293,0.72650915,0.0,nan,nan,0.041885257,0.0,0.0,0.0,0.0,0.0,0.0,5.1832724e-32,-5.398908e-32,-0.5023605
134577832,nan,nan,-1.5903293,0.72650915,0.0,nan,nan,0.024572253,0.0,0.0,0.0,0.0,0.0,0.0,1.2960575e-33,-1.3691008e-33,-0.5296424
134677916,nan,nan,nan,0.76306343,0.0,nan,nan,0.03519094,0.0,0.0,0.0,0.0,0.0,0.0,2.0964933e-35,-2.0799743e-35,-0.50954294
134798048,nan,nan,nan,0.76306343,0.0,nan,nan,0.052300718,0.0,0.0,0.0,0.0,0.0,0.0,2.1236813e-37,-2.143631e-37,-0.48877382
134898253,nan,nan,nan,0.76306343,0.0,nan,nan,0.05203872,0.0,0.0,0.0,0.0,0.0,0.0,-1.247838e-38,1.2191133e-38,-0.48709634
134998371,nan,nan,nan,0.76306343,0.0,nan,nan,0.052620396,0.0,0.0,0.0,0.0,0.0,0.0,-2.38627e-40,2.35652e-40,-0.4934048
135098437,nan,nan,nan,0.76306343,0.0,nan,nan,0.08876439,0.0,0.0,0.0,0.0,0.0,0.0,-3.181e-42,3.181e-42,-0.5027886
135198516,nan,nan,nan,0.76306343,0.0,nan,nan,0.12987874,0.0,0.0,0.0,0.0,0.0,0.0,1.2e-43,-1.16e-43,-0.5054715
135298559,nan,nan,nan,0.76306343,0.0,nan,nan,0.20670815,0.0,0.0,0.0,0.0,0.0,0.0,3e-45,-3e-45,-0.49238107
135398645,nan,nan,nan,0.76306343,0.0,nan,nan,0.16513531,0.0,0.0,0.0,0.0,0.0,0.0,0.0,0.0,-0.51426363
135498778,nan,nan,-1.5331095,0.76306343,0.0,nan,nan,-0.0049642324,0.0,0.0,0.0,0.0,0.0,0.0,0.0,0.0,-0.54667753
135598936,nan,nan,-1.5331095,0.76306343,0.0,nan,nan,-0.013955712,0.0,0.0,0.0,0.0,0.0,0.0,0.0,0.0,-0.51161605
135699404,nan,nan,nan,0.76306343,0.0,nan,nan,0.10525117,0.0,0.0,0.0,0.0,0.0,0.0,0.0,0.0,-0.46524745
135799484,nan,nan,nan,0.76306343,0.0,nan,nan,0.21274345,0.0,0.0,0.0,0.0,0.0,0.0,0.0,0.0,-0.4592776
135899481,nan,nan,nan,0.76306343,0.0,nan,nan,0.2017068,0.0,0.0,0.0,0.0,0.0,0.0,0.0,0.0,-0.49566776
136019422,nan,nan,nan,0.76306343,0.0,nan,nan,0.040442307,0.0,0.0,0.0,0.0,0.0,0.0,0.0,0.0,-0.5267535
136119576,nan,nan,nan,0.76306343,0.0,nan,nan,0.07891823,0.0,0.0,0.0,0.0,0.0,0.0,0.0,0.0,-0.4992413
136219518,nan,nan,nan,0.76306343,0.0,nan,nan,0.07896956,0.0,0.0,0.0,0.0,0.0,0.0,0.0,0.0,-0.49268585
136319959,nan,nan,nan,0.76306343,0.0,nan,nan,0.08121765,0.0,0.0,0.0,0.0,0.0,0.0,0.0,0.0,-0.49458566
136419700,nan,nan,-1.4918917,0.76306343,0.0,nan,nan,0.0,0.0,0.0,0.0,0.0,0.0,0.0,0.0,0.0,-0.51556516
136520165,nan,nan,-1.4918917,0.76306343,0.0,nan,nan,-0.004492283,0.0,0.0,0.0,0.0,0.0,0.0,0.0,0.0,-0.5081138
136620002,nan,nan,-1.4918917,0.76306343,0.0,nan,nan,-0.005441427,0.0,0.0,0.0,0.0,0.0,0.0,0.0,0.0,-0.5009371
136720203,nan,nan,-1.4918917,0.76306343,0.0,nan,nan,-0.0032030344,0.0,0.0,0.0,0.0,0.0,0.0,0.0,0.0,-0.48818856
136820159,nan,nan,-1.4918917,0.76601744,-0.046972226,nan,nan,-0.0038336515,0.0,0.0,0.0,0.0,0.0,0.0,0.0,0.0,-0.491504
136920177,nan,nan,-1.4918917,0.7593268,-0.33755845,nan,nan,-0.0065529346,0.0,0.0,0.0,0.0,0.0,0.0,0.0,0.0,-0.49740735
137020298,nan,nan,-1.4918917,0.73568106,-0.5310956,nan,nan,-0.0091302395,0.0,0.0,0.0,0.0,0.0,0.0,0.0,0.0,-0.50065786
137120358,nan,nan,-1.4918917,0.697099,-0.55294657,nan,nan,-0.009328961,0.0,0.0,0.0,0.0,0.0,0.0,0.0,0.0,-0.4947184
137240555,nan,nan,-1.4918917,0.6433334,-0.5909685,nan,nan,-0.0069761276,0.0,0.0,0.0,0.0,0.0,0.0,0.0,0.0,-0.49409813
137340711,nan,nan,-1.4918917,0.59257144,-0.5898779,nan,nan,-0.0052423477,0.0,0.0,0.0,0.0,0.0,0.0,0.0,0.0,-0.49494568
137440784,nan,nan,-1.4918917,0.5392179,-0.58183646,nan,nan,-0.009550214,0.0,0.0,0.0,0.0,0.0,0.0,0.0,0.0,-0.5026855
137541147,nan,nan,-1.4918917,0.48544937,-0.5866132,nan,nan,-0.023520827,0.0,0.0,0.0,0.0,0.0,0.0,0.0,0.0,-0.5106087
137641011,nan,nan,-1.4918917,0.42972466,-0.58210635,nan,nan,-0.04561627,0.0,0.0,0.0,0.0,0.0,0.0,0.0,0.0,-0.51794714
137741107,nan,nan,-1.4918917,0.37456506,-0.58182716,nan,nan,-0.061598063,0.0,0.0,0.0,0.0,0.0,0.0,0.0,0.0,-0.51383024
137841153,nan,nan,-1.4918917,0.3185532,-0.58662,nan,nan,-0.0686928,0.0,0.0,0.0,0.0,0.0,0.0,0.0,0.0,-0.50428337
137941224,nan,nan,-1.4918917,0.26188448,-0.59419334,nan,nan,-0.06727719,0.0,0.0,0.0,0.0,0.0,0.0,0.0,0.0,-0.49601543
138041575,nan,nan,-1.4918917,0.20154482,-0.6597959,nan,nan,-0.0633682,0.0,0.0,0.0,0.0,0.0,0.0,0.0,0.0,-0.50132596
138161515,nan,nan,-1.4918917,0.12743878,-0.7739399,nan,nan,-0.052811623,0.0,0.0,0.0,0.0,0.0,0.0,0.0,0.0,-0.5052098
138261634,nan,nan,-1.4918917,0.05541961,-0.8214769,nan,nan,-0.04147017,0.0,0.0,0.0,0.0,0.0,0.0,0.0,0.0,-0.49999002
138361713,nan,nan,-1.4918917,-0.019739686,-0.8738873,nan,nan,-0.02954185,0.0,0.0,0.0,0.0,0.0,0.0,0.0,0.0,-0.49916735
138461730,nan,nan,-1.4918917,-0.100226164,-0.89908284,nan,nan,-0.022027135,0.0,0.0,0.0,0.0,0.0,0.0,0.0,0.0,-0.5000387
138561803,nan,nan,-1.4918917,-0.1846438,-0.9578666,nan,nan,-0.01784432,0.0,0.0,0.0,0.0,0.0,0.0,0.0,0.0,-0.505206
138661906,nan,nan,-1.4918917,-0.27265278,-0.967459,nan,nan,-0.019413233,0.0,0.0,0.0,0.0,0.0,0.0,0.0,0.0,-0.5064056
138762400,nan,nan,-1.4918917,-0.36439568,-1.0138986,nan,nan,-0.025379539,0.0,0.0,0.0,0.0,0.0,0.0,0.0,0.0,-0.50710773
138862178,nan,nan,-1.4918917,-0.46072394,-1.0481977,nan,nan,-0.032866836,0.0,0.0,0.0,0.0,0.0,0.0,0.0,0.0,-0.509121
138962956,nan,nan,-1.4918917,-0.56022996,-1.0727773,nan,nan,-0.038709402,0.0,0.0,0.0,0.0,0.0,0.0,0.0,0.0,-0.5118648
139062389,nan,nan,-1.4918917,-0.6620806,-1.1008561,nan,nan,-0.045986414,0.0,0.0,0.0,0.0,0.0,0.0,0.0,0.0,-0.51035684
139162497,nan,nan,-1.4918917,-0.7675918,-1.0960083,nan,nan,-0.05185938,0.0,0.0,0.0,0.0,0.0,0.0,0.0,0.0,-0.5047226
139262525,nan,nan,-1.4918917,-0.8738567,-1.0962142,nan,nan,-0.05308366,0.0,0.0,0.0,0.0,0.0,0.0,0.0,0.0,-0.5014792
139382620,nan,nan,-1.4918917,-1.002477,-1.1029255,nan,nan,-0.05264926,0.0,0.0,0.0,0.0,0.0,0.0,0.0,0.0,-0.50184995
139482760,nan,nan,-1.4918917,-1.1114783,-1.0958464,nan,nan,-0.05311382,0.0,0.0,0.0,0.0,0.0,0.0,0.0,0.0,-0.5038831
139582869,nan,nan,-1.4918917,-1.2197874,-1.0962833,nan,nan,-0.052220464,0.0,0.0,0.0,0.0,0.0,0.0,0.0,0.0,-0.50127625
139683330,nan,nan,-1.4918917,-1.3283281,-1.0962731,nan,nan,-0.049656987,0.0,0.0,0.0,0.0,0.0,0.0,0.0,0.0,-0.5009105
139785662,nan,nan,-1.4918917,-1.439805,-1.0962725,nan,nan,-0.04543698,0.0,0.0,0.0,0.0,0.0,0.0,0.0,0.0,-0.5008236
139883317,nan,nan,-1.4918917,-1.5479523,-1.0861863,nan,nan,-0.041593194,0.0,0.0,0.0,0.0,0.0,0.0,0.0,0.0,-0.49917686
139985787,nan,nan,-1.4918917,-1.6565825,-1.0901228,nan,nan,-0.03728223,0.0,0.0,0.0,0.0,0.0,0.0,0.0,0.0,-0.4964252
140083404,nan,nan,-1.4918917,-1.7651182,-1.0864531,nan,nan,-0.03279102,0.0,0.0,0.0,0.0,0.0,0.0,0.0,0.0,-0.49434286
140184939,nan,nan,-1.4918917,-1.8730086,-1.0863779,nan,nan,-0.026475549,0.0,0.0,0.0,0.0,0.0,0.0,0.0,0.0,-0.49942276
140283532,nan,nan,-1.4918917,-1.9808358,-1.0762918,nan,nan,-0.02348888,0.0,0.0,0.0,0.0,0.0,0.0,0.0,0.0,-0.5038841
140383644,nan,nan,-1.4918917,-2.085381,-1.0764749,nan,nan,-0.019431114,0.0,0.0,0.0,0.0,0.0,0.0,0.0,0.0,-0.50101936
140504578,nan,nan,-1.4918917,-2.2157137,-1.0764841,nan,nan,-0.015975475,0.0,0.0,0.0,0.0,0.0,0.0,0.0,0.0,-0.5110751
140604019,nan,nan,-1.4918917,-2.3228793,-1.0764841,nan,nan,-0.015850544,0.0,0.0,0.0,0.0,0.0,0.0,0.0,0.0,-0.5086014
140704095,nan,nan,-1.4918917,-2.4292636,-1.0971243,nan,nan,-0.015267491,0.0,0.0,0.0,0.0,0.0,0.0,0.0,0.0,-0.5070751
140804116,nan,nan,-1.4918917,-2.5376027,-1.1010965,nan,nan,-0.015682578,0.0,0.0,0.0,0.0,0.0,0.0,0.0,0.0,-0.5099949
140904966,nan,nan,-1.4918917,-2.6456006,-1.0911602,nan,nan,-0.013772368,0.0,0.0,0.0,0.0,0.0,0.0,0.0,0.0,-0.51494455
141004248,nan,nan,-1.4918917,-2.7542293,-1.0856174,nan,nan,-0.011050582,0.0,0.0,0.0,0.0,0.0,0.0,0.0,0.0,-0.5076647
141104354,nan,nan,-1.4918917,-2.8616307,-1.0719762,nan,nan,-0.006598711,0.0,0.0,0.0,0.0,0.0,0.0,0.0,0.0,-0.5017855
141204575,nan,nan,-1.4918917,-2.9684458,-1.0764287,nan,nan,-0.004360795,0.0,0.0,0.0,0.0,0.0,0.0,0.0,0.0,-0.50218403
141304609,nan,nan,-1.4918917,-3.0757816,-1.0744414,nan,nan,-0.005728245,0.0,0.0,0.0,0.0,0.0,0.0,0.0,0.0,-0.50490415
141405092,nan,nan,-1.4918917,3.1004002,-1.056078,nan,nan,-0.013591409,0.0,0.0,0.0,0.0,0.0,0.0,0.0,0.0,-0.515489
141505077,nan,nan,-1.4918917,2.9958224,-1.0460597,nan,nan,-0.020804048,0.0,0.0,0.0,0.0,0.0,0.0,0.0,0.0,-0.5070931
141605027,nan,nan,-1.4918917,2.8920245,-1.0468123,nan,nan,-0.021856189,0.0,0.0,0.0,0.0,0.0,0.0,0.0,0.0,-0.5047996
141705098,nan,nan,-1.4918917,2.7883646,-1.0298289,nan,nan,-0.02188611,0.0,0.0,0.0,0.0,0.0,0.0,0.0,0.0,-0.5034995
141805140,nan,nan,-1.4918917,2.685707,-1.0335394,nan,nan,-0.020409703,0.0,0.0,0.0,0.0,0.0,0.0,0.0,0.0,-0.501111
141925576,nan,nan,-1.4918917,2.5610485,-1.0120025,nan,nan,-0.017026424,0.0,0.0,0.0,0.0,0.0,0.0,0.0,0.0,-0.502348
142025348,nan,nan,-1.4918917,2.4603631,-1.0040288,nan,nan,-0.021036386,0.0,0.0,0.0,0.0,0.0,0.0,0.0,0.0,-0.507848
142125556,nan,nan,-1.4918917,2.3604777,-0.97987366,nan,nan,-0.025618076,0.0,0.0,0.0,0.0,0.0,0.0,0.0,0.0,-0.5061984
142225599,nan,nan,-1.4918917,2.2621918,-1.0413765,nan,nan,-0.027008057,0.0,0.0,0.0,0.0,0.0,0.0,0.0,0.0,-0.49713644
142325697,nan,nan,-1.4918917,2.1607096,-1.026571,nan,nan,-0.026944518,0.0,0.0,0.0,0.0,0.0,0.0,0.0,0.0,-0.49142995
142425788,nan,nan,-1.4918917,2.0590234,-1.0305061,nan,nan,-0.026468396,0.0,0.0,0.0,0.0,0.0,0.0,0.0,0.0,-0.4950859
142525859,nan,nan,-1.4918917,1.9572839,-1.0298222,nan,nan,-0.030368924,0.0,0.0,0.0,0.0,0.0,0.0,0.0,0.0,-0.50650126
142625877,nan,nan,-1.4918917,1.8565975,-1.0240899,nan,nan,-0.03748095,0.0,0.0,0.0,0.0,0.0,0.0,0.0,0.0,-0.5141014
142726025,nan,nan,-1.4918917,1.7567357,-1.0162877,nan,nan,-0.04642558,0.0,0.0,0.0,0.0,0.0,0.0,0.0,0.0,-0.52489746
142826134,nan,nan,-1.4918917,1.6553303,-1.0265559,nan,nan,-0.053882003,0.0,0.0,0.0,0.0,0.0,0.0,0.0,0.0,-0.51349664
142946348,nan,nan,-1.4918917,1.5336701,-1.0293591,nan,nan,-0.05684185,0.0,0.0,0.0,0.0,0.0,0.0,0.0,0.0,-0.5039582
143046403,nan,nan,-1.4918917,1.4312162,-1.0486206,nan,nan,-0.05412054,0.0,0.0,0.0,0.0,0.0,0.0,0.0,0.0,-0.49882516
143146470,nan,nan,-1.4918917,1.3283268,-1.0075538,nan,nan,-0.05721891,0.0,0.0,0.0,0.0,0.0,0.0,0.0,0.0,-0.5084826
143246521,nan,nan,-1.4918917,1.2279186,-0.96618986,nan,nan,-0.06383121,0.0,0.0,0.0,0.0,0.0,0.0,0.0,0.0,-0.5106749
143346723,nan,nan,-1.4918917,1.1275779,-0.95509976,nan,nan,-0.069633365,0.0,0.0,0.0,0.0,0.0,0.0,0.0,0.0,-0.5118568
143446726,nan,nan,-1.4918917,1.0346073,-0.94328654,nan,nan,-0.07232928,0.0,0.0,0.0,0.0,0.0,0.0,0.0,0.0,-0.5047557
143546805,nan,nan,-1.4918917,0.9406522,-0.4594615,nan,nan,-0.06833148,0.0,0.0,0.0,0.0,0.0,0.0,0.0,0.0,-0.50078833
143646953,nan,nan,-1.4918917,0.9222475,-0.0,nan,nan,-0.06200993,0.0,0.0,0.0,0.0,0.0,0.0,0.0,0.0,-0.49034986
143747147,nan,nan,-1.4918917,0.9222475,0.0,nan,nan,-0.04767692,0.0,0.0,0.0,0.0,0.0,0.0,0.0,0.0,-0.47227296
143847485,nan,nan,-1.4918917,0.9222475,0.0,nan,nan,-0.037506342,0.0,0.0,0.0,0.0,0.0,0.0,0.0,0.0,-0.4825692
143947310,nan,nan,-1.4918917,0.9222475,-0.0,nan,nan,-0.03464997,0.0,0.0,0.0,0.0,0.0,0.0,0.0,0.0,-0.49319816
144047347,nan,nan,-1.4918917,0.9222475,-0.0,nan,nan,-0.038482904,0.0,0.0,0.0,0.0,0.0,0.0,0.0,0.0,-0.5107364
144147428,nan,nan,-1.4918917,0.9222475,-0.0,nan,nan,-0.04440415,0.0,0.0,0.0,0.0,0.0,0.0,0.0,0.0,-0.51060206
144247477,nan,nan,-1.4918917,0.9222475,0.0,nan,nan,-0.0474329,0.0,0.0,0.0,0.0,0.0,0.0,0.059672043,-0.04522646,-0.51372695
144347592,nan,nan,-1.4918917,0.9222475,0.0,nan,nan,-0.048997164,0.0,0.0,0.0,0.0,0.0,0.0,0.08011865,-0.060723286,-0.51164484
144467782,nan,nan,-1.4918917,0.9222475,0.0,nan,nan,-0.046809554,0.0,0.0,0.0,0.0,0.0,0.0,0.04834682,-0.036642883,-0.4969511
144567913,nan,nan,-1.4918917,0.9222475,0.0,nan,nan,-0.043773174,0.0,0.0,0.0,0.0,0.0,0.0,0.047397256,-0.03592319,-0.5035509
144668021,nan,nan,-1.4918917,0.9222475,-0.0,nan,nan,-0.044798493,0.0,0.0,0.0,0.0,0.0,0.0,-0.0025552677,0.001936681,-0.507499
144768116,nan,nan,-1.4918917,0.9222475,-0.0,nan,nan,-0.04993844,0.0,0.0,0.0,0.0,0.0,0.0,-4.3254195e-06,3.278309e-06,-0.5067961
144868161,nan,nan,-1.4918917,0.9222475,-0.0,nan,nan,-0.049587727,0.0,0.0,0.0,0.0,0.0,0.0,2.759531e-06,-2.0914956e-06,-0.5071076
144968202,nan,nan,-1.4918917,0.9222475,0.0,nan,nan,-0.044280887,0.0,0.0,0.0,0.0,0.0,0.0,3.6381092e-08,-2.757385e-08,-0.5025822
145068325,nan,nan,-1.4918917,0.9222475,0.0,nan,nan,-0.03802514,0.0,0.0,0.0,0.0,0.0,0.0,0.005456366,-0.004135473,-0.49700084
145168448,nan,nan,-1.4918917,0.9222475,0.0,nan,nan,-0.02972281,0.0,0.0,0.0,0.0,0.0,0.0,0.06266899,-0.047497895,-0.49490368
145268560,nan,nan,-1.4918917,0.9222475,-0.0,nan,nan,-0.020989299,0.0,0.0,0.0,0.0,0.0,0.0,0.029589446,-0.022426346,-0.49231094
145368946,nan,nan,-1.4918917,0.9222475,-0.0,nan,nan,-0.0150488615,0.0,0.0,0.0,0.0,0.0,0.0,-0.0015483925,0.001173553,-0.49899778
145469044,nan,nan,-1.4918917,0.9222475,-0.0,nan,nan,-0.016699195,0.0,0.0,0.0,0.0,0.0,0.0,-2.2358163e-05,1.6945633e-05,-0.5171423
145569661,nan,nan,-1.4918917,0.9222475,0.0,nan,nan,-0.02848792,0.0,0.0,0.0,0.0,0.0,0.0,-0.014035816,0.010637985,-0.53578705
145668983,nan,nan,-1.4918917,0.9222475,0.0,nan,nan,-0.039310217,0.0,0.0,0.0,0.0,0.0,0.0,-0.065594405,0.049715124,-0.51825833
145769108,nan,nan,-1.4918917,0.9222475,-0.0,nan,nan,-0.038028,0.0,0.0,0.0,0.0,0.0,0.0,-0.049886964,0.03781018,-0.48362243
145889127,nan,nan,-1.4918917,0.9222475,0.0,nan,nan,-0.026230335,0.0,0.0,0.0,0.0,0.0,0.0,-0.038563047,0.029227592,-0.48750967
145989598,nan,nan,-1.4918917,0.9222475,-0.0,nan,nan,-0.025469303,0.0,0.0,0.0,0.0,0.0,0.0,0.0021403919,-0.0016222396,-0.5012375
146090476,nan,nan,-1.4918917,0.9222475,-0.0,nan,nan,-0.032125115,0.0,0.0,0.0,0.0,0.0,0.0,-4.6949262e-06,3.558365e-06,-0.5038733
146189597,nan,nan,-1.4918917,0.9222475,-0.0,nan,nan,-0.034819603,0.0,0.0,0.0,0.0,0.0,0.0,-7.414837e-07,5.6198314e-07,-0.49651578
146289733,nan,nan,-1.4918917,0.9222475,0.0,nan,nan,-0.035386205,0.0,0.0,0.0,0.0,0.0,0.0,0.0038844177,-0.0029440664,-0.49814403
146389753,nan,nan,-1.4918917,0.9222475,0.0,nan,nan,-0.036507607,0.0,0.0,0.0,0.0,0.0,0.0,0.006974433,-0.00055742095,-0.50388306
146489781,nan,nan,-1.4918917,0.9222475,0.0,nan,nan,-0.03730786,0.0,0.0,0.0,0.0,0.0,0.0,0.02595033,0.027191931,-0.5087307
146589828,nan,nan,-1.4918917,0.9222475,0.0,nan,nan,-0.038139224,0.0,0.0,0.0,0.0,0.0,0.0,0.032373194,0.037074983,-0.5026091
146689942,nan,nan,-1.4918917,0.9222475,0.0,nan,nan,-0.032957077,0.0,0.0,0.0,0.0,0.0,0.0,0.03545315,0.044797048,-0.5000415
146790035,nan,nan,-1.4918917,0.9222475,0.0,nan,nan,-0.025752187,0.0,0.0,0.0,0.0,0.0,0.0,0.034970343,0.045099027,-0.49880964
146890289,nan,nan,-1.4918917,0.9222475,0.0,nan,nan,-0.020529866,0.0,0.0,0.0,0.0,0.0,0.0,0.035051845,0.0462372,-0.4981337
146990585,nan,nan,-1.4918917,0.9222475,0.0,nan,nan,-0.012987018,0.0,0.0,0.0,0.0,0.0,0.0,0.03414625,0.04505342,-0.4936223
147110627,nan,nan,-1.4918917,0.9222475,0.0,nan,nan,-0.0061217546,0.0,0.0,0.0,0.0,0.0,0.0,0.036718365,0.048446428,-0.50064415
147210667,nan,nan,-1.4918917,0.9222475,0.0,nan,nan,-0.0030822754,0.0,0.0,0.0,0.0,0.0,0.0,0.043199692,0.056997914,-0.5016373
147310679,nan,nan,-1.4918917,0.9222475,0.0,nan,nan,0.0014851093,0.0,0.0,0.0,0.0,0.0,0.0,0.04562842,0.06020239,-0.5082967
147410716,nan,nan,-1.4918917,0.9222475,0.0,nan,nan,-0.0014365911,0.0,0.0,0.0,0.0,0.0,0.0,0.046847362,0.06181067,-0.5121934
147510816,nan,nan,-1.4918917,0.9222475,0.0,nan,nan,-0.006504059,0.0,0.0,0.0,0.0,0.0,0.0,0.04816944,0.063555025,-0.5041566
147611131,nan,nan,-1.4918917,0.9222475,0.0,nan,nan,-0.006126523,0.0,0.0,0.0,0.0,0.0,0.0,0.05628013,0.07425631,-0.5028539
147711548,nan,nan,-1.4918917,0.9222475,0.0,nan,nan,-0.00044202805,0.0,0.0,0.0,0.0,0.0,0.0,0.057850413,0.07632816,-0.4953861
147811248,nan,nan,-1.4918917,0.9222475,0.0,nan,nan,0.008226275,0.0,0.0,0.0,0.0,0.0,0.0,0.057951204,0.076461144,-0.49524325
147911257,nan,nan,-1.4918917,0.9222475,0.0,nan,nan,0.014284611,0.0,0.0,0.0,0.0,0.0,0.0,0.056443144,0.0744714,-0.5054359
148011311,nan,nan,-1.4918917,0.9222475,0.0,nan,nan,0.015719175,0.0,0.0,0.0,0.0,0.0,0.0,0.05476456,0.07225667,-0.5000266
148111391,nan,nan,-1.4918917,0.9222475,0.0,nan,nan,0.022640109,0.0,0.0,0.0,0.0,0.0,0.0,0.051761966,0.068295024,-0.49087137
148211450,nan,nan,-1.4918917,0.9222475,0.0,nan,nan,0.032630563,0.0,0.0,0.0,0.0,0.0,0.0,0.04054745,0.053498533,-0.49640492
148311552,nan,nan,-1.4918917,0.9222475,0.0,nan,nan,0.042089343,0.0,0.0,0.0,0.0,0.0,0.0,0.01027986,0.013563305,-0.49736828
148411682,nan,nan,-1.4918917,0.9222475,0.0,nan,nan,0.052135587,0.0,0.0,0.0,0.0,0.0,0.0,-0.00067462015,-0.0008900976,-0.50107485
148531893,nan,nan,-1.4918917,0.9222475,0.0,nan,nan,0.06284344,0.0,0.0,0.0,0.0,0.0,0.0,-0.04055363,-0.053506684,-0.501299
148631968,nan,nan,-1.4918917,0.9222475,0.0,nan,nan,0.07177663,0.0,0.0,0.0,0.0,0.0,0.0,-0.06789203,-0.08957712,-0.49821544
148732087,nan,nan,-1.4918917,0.9222475,0.0,nan,nan,0.08377886,0.0,0.0,0.0,0.0,0.0,0.0,-0.08051023,-0.10622565,-0.48808825
148832140,nan,nan,-1.4918917,0.9222475,0.0,nan,nan,0.101008415,0.0,0.0,0.0,0.0,0.0,0.0,-0.08885383,-0.11723424,-0.48598078
148932170,nan,nan,-1.4918917,0.9222475,0.0,nan,nan,0.11142182,0.0,0.0,0.0,0.0,0.0,0.0,-0.07921414,-0.10337853,-0.4885015
149032299,nan,nan,-1.4918917,0.9222475,0.0,nan,nan,0.11755049,0.0,0.0,0.0,0.0,0.0,0.0,-0.08801913,-0.094553255,-0.49504063
149132367,nan,nan,-1.4918917,0.9222475,0.0,nan,nan,0.11741209,0.0,0.0,0.0,0.0,0.0,0.0,-0.094841935,-0.09531742,-0.5053745
149232847,nan,nan,-1.4918917,0.9222475,0.0,nan,nan,0.116895676,0.0,0.0,0.0,0.0,0.0,0.0,-0.110901475,-0.0912714,-0.5044528
149333027,nan,nan,-1.4918917,0.9222475,0.0,nan,nan,0.12023175,0.0,0.0,0.0,0.0,0.0,0.0,-0.12749818,-0.0836785,-0.48286164
149432825,nan,nan,-1.4918917,0.9222475,0.0,nan,nan,0.124271035,0.0,0.0,0.0,0.0,0.0,0.0,-0.11708251,-0.08159246,-0.4782094
149533141,nan,nan,-1.4918917,0.9222475,0.0,nan,nan,0.121013284,0.0,0.0,0.0,0.0,0.0,0.0,-0.10941766,-0.08526125,-0.48402584
149632970,nan,nan,-1.4918917,0.9222475,0.0,nan,nan,0.10230744,0.0,0.0,0.0,0.0,0.0,0.0,-0.098332524,-0.082549766,-0.498481
149733691,nan,nan,-1.4918917,0.9222475,0.0,nan,nan,0.08069432,0.0,0.0,0.0,0.0,0.0,0.0,-0.057553437,-0.07820975,-0.5020977
149853546,nan,nan,nan,0.9222475,0.0,nan,nan,-0.10745454,0.0,0.0,0.0,0.0,0.0,0.0,-0.05648528,-0.07453434,-0.5387478
149953226,nan,nan,nan,0.9222475,0.0,nan,nan,-0.2971185,0.0,0.0,0.0,0.0,0.0,0.0,-0.058823824,-0.07761197,-0.5579658
150053414,nan,nan,nan,0.9222475,0.0,nan,nan,-0.32553563,0.0,0.0,0.0,0.0,0.0,0.0,-0.055598687,-0.07335719,-0.51605105
150153631,nan,nan,nan,0.9222475,0.0,nan,nan,-0.32486567,0.0,0.0,0.0,0.0,0.0,0.0,-0.05180734,-0.06835489,-0.48414683
150253670,nan,nan,nan,0.9222475,0.0,nan,nan,-0.32489228,0.0,0.0,0.0,0.0,0.0,0.0,-0.051782243,-0.06832178,-0.48237827
150353701,nan,nan,nan,0.9222475,0.0,nan,nan,-0.33222684,0.0,0.0,0.0,0.0,0.0,0.0,-0.051840734,-0.06839895,-0.49766344
150453715,nan,nan,nan,0.9222475,0.0,nan,nan,-0.22055197,0.0,0.0,0.0,0.0,0.0,0.0,-0.040905755,-0.05397128,-0.48251015
150553813,nan,nan,-1.7106866,0.9222475,0.0,nan,nan,0.008863568,0.0,0.0,0.0,0.0,0.0,0.0,0.0009137418,0.001205596,-0.45618019
150653880,nan,nan,-1.7106866,0.9222475,0.0,nan,nan,0.015668035,0.0,0.0,0.0,0.0,0.0,0.0,0.0032042065,0.004227648,-0.49259385
150753989,nan,nan,-1.7106866,0.9222475,0.0,nan,nan,0.008298993,0.0,0.0,0.0,0.0,0.0,0.0,0.009527189,0.012570227,-0.5156769
150854193,nan,nan,-1.7106866,0.9222475,0.0,nan,nan,-0.0036507845,0.0,0.0,0.0,0.0,0.0,0.0,0.007513561,0.009913433,-0.52542925
150974552,nan,nan,-1.7106866,0.9222475,0.0,nan,nan,-0.012475967,0.0,0.0,0.0,0.0,0.0,0.0,-0.00034761138,-0.00045864037,-0.51506305
151074652,nan,nan,-1.7106866,0.9222475,0.0,nan,nan,-0.013248801,0.0,0.0,0.0,0.0,0.0,0.0,-4.4078415e-06,-5.815731e-06,-0.5015704
151174648,nan,nan,-1.7106866,0.9222475,0.0,nan,nan,-0.009012818,0.0,0.0,0.0,0.0,0.0,0.0,1.6592988e-07,2.1892879e-07,-0.49626088
151274638,nan,nan,-1.7106866,0.9222475,0.0,nan,nan,-0.0036045313,0.0,0.0,0.0,0.0,0.0,0.0,0.0005680254,0.0007494559,-0.5084102
151374693,nan,nan,-1.7106866,0.9222475,0.0,nan,nan,-0.006919503,0.0,0.0,0.0,0.0,0.0,0.0,0.015270506,0.02014799,-0.5246596
151474679,nan,nan,-1.7106866,0.9222475,0.0,nan,nan,-0.011993766,0.0,0.0,0.0,0.0,0.0,0.0,0.019455072,0.025669128,-0.5223845
151575539,nan,nan,nan,0.9222475,0.0,nan,nan,0.019736448,0.0,0.0,0.0,0.0,0.0,0.0,0.023075685,0.030446189,-0.49082243
151674930,nan,nan,nan,0.9222475,0.0,nan,nan,0.046873186,0.0,0.0,0.0,0.0,0.0,0.0,0.027915008,0.03683122,-0.483548
151775203,nan,nan,nan,0.9222475,0.0,nan,nan,0.013631144,0.0,0.0,0.0,0.0,0.0,0.0,0.028746126,0.0379278,-0.5118944
