timestamp,magnetometer_ga[0],magnetometer_ga[1],magnetometer_ga[2]
93447866,0.15081793,-0.12878434,0.30802298
93497467,0.13839094,-0.14135379,0.3242267
93507867,0.13839094,-0.14135379,0.3242267
93518267,0.13839094,-0.14135379,0.3242267
93527866,0.14721952,-0.13955379,0.32278657
93536672,0.14713657,-0.121385045,0.34036103
93547866,0.15081793,-0.12878434,0.30802298
93556667,0.14722006,-0.117861636,0.32267368
93567866,0.14016253,-0.1287077,0.3226968
93576671,0.14016244,-0.13232304,0.3227156
93587066,0.15080385,-0.13599972,0.31100535
93596667,0.15253374,-0.12330766,0.31830975
93607067,0.13491783,-0.14503045,0.3124498
93616667,0.13491783,-0.14503045,0.3124498
93627068,0.13491783,-0.14503045,0.3124498
93635866,0.15077613,-0.1323537,0.31687608
93647068,0.14197518,-0.14141509,0.3124643
93655891,0.15788874,-0.14326108,0.30518678
93667066,0.14899111,-0.12690769,0.32125667
93675866,0.15433247,-0.13599972,0.311022
93685513,0.14376058,-0.13239968,0.30800846
93695867,0.15966024,-0.13423035,0.30367568
93707067,0.1472336,-0.13233837,0.31980416
93715866,0.15076232,-0.12872304,0.31980202
93725470,0.15076232,-0.12872304,0.31980202
93735867,0.15076232,-0.12872304,0.31980202
93744667,0.13664772,-0.13233837,0.3197542
93755066,0.1596188,-0.12333831,0.3124535
93764667,0.14893594,-0.10876961,0.33294162
93775066,0.13663399,-0.12509234,0.32266134
93784667,0.1419203,-0.112430945,0.32409284
93795066,0.14900483,-0.13415372,0.31834954
93804667,0.16141719,-0.15049179,0.30524108
93815067,0.14197554,-0.12695366,0.31238905
93824666,0.15261678,-0.13786104,0.30071643
93835074,0.15261678,-0.13786104,0.30071643
93843866,0.15963243,-0.1341997,0.30956522
93853508,0.14904653,-0.1341997,0.30951524
93863867,0.15258916,-0.13059968,0.30656832
93875072,0.15960419,-0.15224582,0.3155488
93883867,0.12611708,-0.14686112,0.30800045
93895066,0.14551772,-0.14143041,0.30953622
93903867,0.14727505,-0.14323042,0.31102633
93915066,0.15249194,-0.12687704,0.32716286
93923876,0.14901873,-0.13416904,0.31540477
93935068,0.13133405,-0.12689236,0.32411814
93943868,0.13133405,-0.12689236,0.32411814
93952666,0.14723405,-0.114261605,0.3197101
93963066,0.14544858,-0.12689236,0.32418475
93972666,0.14726132,-0.1359844,0.31393346
93983066,0.14720564,-0.13953847,0.32573134
93992679,0.14014882,-0.121461675,0.32560396
94003070,0.14014837,-0.13953847,0.32569802
94012667,0.15257534,-0.12696898,0.30949426
94023066,0.15083157,-0.13964574,0.30513465
94032666,0.1401759,-0.15041517,0.31986493
94043077,0.16316095,-0.13781506,0.30960068
94052667,0.16316095,-0.13781506,0.30960068
94063076,0.16316095,-0.13781506,0.30960068
94071867,0.16667567,-0.13779974,0.3125621
94083066,0.14547612,-0.13776909,0.3183517
94091867,0.13840494,-0.13775377,0.32126313
94103067,0.1542905,-0.14679982,0.31991273
94111867,0.15077658,-0.11427692,0.316782
94123067,0.14193366,-0.1341384,0.32126096
94131880,0.14191985,-0.13050772,0.32418692
94143115,0.14544858,-0.12689236,0.32418475
94151884,0.12961844,-0.12513833,0.31379372
94171904,0.12961844,-0.12513833,0.31379372
94180666,0.13671732,-0.12879966,0.3050116
94191066,0.14196183,-0.11970764,0.3152962
94200671,0.14900537,-0.1124616,0.31823665
94211066,0.1508043,-0.11792293,0.31091127
94220667,0.16304956,-0.14492318,0.3331964
94231066,0.1524644,-0.116000324,0.33299592
94240666,0.15251984,-0.123292334,0.3212545
94251066,0.14546293,-0.10883091,0.32114592
94260666,0.14721988,-0.12509234,0.3227113
94271110,0.14721988,-0.12509234,0.3227113
94281467,0.14721988,-0.12509234,0.3227113
94291098,0.13663408,-0.121477,0.3226425
94299880,0.14369097,-0.13593842,0.32275108
94311112,0.14200334,-0.12698431,0.30649954
94319884,0.14890824,-0.1051236,0.33881232
94331119,0.15067883,-0.13224642,0.3374894
94339873,0.14371914,-0.121507645,0.31678632
94350266,0.13490438,-0.12693833,0.31530052
94359873,0.14899111,-0.12690769,0.32125667
94370283,0.1577778,-0.13229239,0.32868844
94379907,0.1577778,-0.13229239,0.32868844
94390312,0.1577778,-0.13229239,0.32868844
94399067,0.15251966,-0.13052306,0.32129213
94410267,0.15779161,-0.1359231,0.3257625
94419098,0.1454762,-0.13415372,0.31833288
94430266,0.15256126,-0.13418438,0.31247666
94439115,0.15424916,-0.13229239,0.32867178
94450266,0.15606236,-0.12330766,0.3183264
94459111,0.149019,-0.123322986,0.31534833
94470266,0.14726186,-0.11429225,0.31382057
94479079,0.15251948,-0.13775377,0.32132977
94490270,0.13664763,-0.13595375,0.31977302
94499089,0.13664763,-0.13595375,0.31977302
94507869,0.16306418,-0.11601564,0.33010113
94518266,0.13489012,-0.14138444,0.31832054
94527875,0.14896321,-0.1304924,0.327165
94538287,0.13660602,-0.13229239,0.3285885
94547866,0.13479318,-0.12681574,0.33885857
94558314,0.147192,-0.12867706,0.32861966
94567894,0.1419063,-0.11603097,0.32705644
94578266,0.14371869,-0.13958444,0.3168804
94587867,0.14189205,-0.13047707,0.33007646
94598266,0.13313289,-0.13596907,0.3168116
94607867,0.13313289,-0.13596907,0.3168116
94618266,0.13664763,-0.13595375,0.31977302
94627073,0.16660635,-0.1304924,0.3272483
94638266,0.14547648,-0.12330766,0.31827644
94647067,0.14543468,-0.12687704,0.32712954
94658266,0.15956329,-0.11966166,0.32421374
94667067,0.1489773,-0.12327701,0.3241826
94678266,0.15080447,-0.110692225,0.31087366
94687876,0.14370479,-0.13956912,0.31982514
94698266,0.15073444,-0.13230772,0.32571036
94707070,0.14016262,-0.12509234,0.32267797
94726276,0.14547639,-0.12692301,0.31829524
94735896,0.14013465,-0.13229239,0.32860515
94746266,0.15602048,-0.1304924,0.32719833
94755866,0.15422171,-0.11780033,0.33448604
94766266,0.14717864,-0.106969595,0.3314515
94776667,0.13837722,-0.13410775,0.32713386
94786268,0.14370488,-0.13595375,0.31980634
94795898,0.14723334,-0.14318445,0.3198606
94806266,0.13484877,-0.12687704,0.32707956
94815866,0.14547665,-0.116076946,0.3182388
94826267,0.14547665,-0.116076946,0.3182388
94835073,0.15247795,-0.13047707,0.33012643
94846266,0.14193384,-0.12690769,0.32122335
94855067,0.14904661,-0.13058434,0.30949643
94866266,0.14369106,-0.13232304,0.32273227
94875067,0.14193402,-0.119676985,0.3211857
94885466,0.13309146,-0.12507702,0.32558945
94895067,0.14542086,-0.12324636,0.33005548
94906266,0.14363565,-0.12503105,0.3344737
94915085,0.15783367,-0.121507645,0.31685296
94926266,0.16130634,-0.13590777,0.3287239
94935067,0.16130634,-0.13590777,0.3287239
94943869,0.14013465,-0.13229239,0.32860515
94954269,0.14367771,-0.1106156,0.32556418
94963899,0.14721979,-0.1287077,0.32273012
94974266,0.14371887,-0.1323537,0.31684276
94984681,0.14543459,-0.1304924,0.32714835
94994266,0.12956293,-0.121461675,0.32555398
95004668,0.13484824,-0.1485692,0.32719246
95014266,0.15073462,-0.12507702,0.32567275
95024708,0.14364955,-0.12504637,0.33152893
95034266,0.13659203,-0.13589245,0.33155206
95044709,0.13659203,-0.13589245,0.33155206
95054266,0.13483523,-0.11240029,0.32994905
95063067,0.15247849,-0.10878493,0.33001354
95074266,0.14544858,-0.12689236,0.32418475
95083071,0.15247813,-0.12324636,0.3300888
95094266,0.1383913,-0.12689236,0.32415143
95103067,0.13663399,-0.12509234,0.32266134
95113466,0.15433265,-0.12876901,0.31098437
95123067,0.1401627,-0.121477,0.32265916
95134266,0.1542636,-0.1106156,0.32561412
95143088,0.14723352,-0.13595375,0.319823
95153467,0.14723352,-0.13595375,0.319823
95162267,0.1384052,-0.12690769,0.3212067
95172669,0.14900519,-0.11969231,0.31827426
95182267,0.14186433,-0.12683105,0.33594716
95191867,0.14715697,-0.13948482,0.336038
95192698,0.14720564,-0.13953847,0.32573134
95202266,0.13314715,-0.12152297,0.31379157
95213492,0.13840538,-0.119676985,0.32116905
95222267,0.13843283,-0.13416904,0.3153548
95233504,0.14013465,-0.13229239,0.32860515
95242267,0.13310553,-0.117861636,0.32260704
95253488,0.16132042,-0.12869239,0.32574153
95262267,0.16132042,-0.12869239,0.32574153
95271067,0.14721952,-0.13955379,0.32278657
95281466,0.14373268,-0.1359844,0.3139168
95291067,0.14888017,-0.11593902,0.34475827
95301466,0.15775026,-0.1214157,0.3345215
95311084,0.14189205,-0.13047707,0.33007646
95321474,0.16487694,-0.12510768,0.31984982
95331066,0.14193402,-0.119676985,0.3211857
95341466,0.15062332,-0.12856978,0.34924963
95351107,0.14189222,-0.12324636,0.33003882
95361493,0.1383634,-0.13047707,0.3300598
95371067,0.1383634,-0.13047707,0.3300598
95381484,0.14364937,-0.13227707,0.33156657
95390267,0.1278056,-0.11966166,0.32406384
95401473,0.15251975,-0.12690769,0.32127333
95410267,0.16313298,-0.14501512,0.31552786
95421481,0.1577499,-0.13587713,0.33459675
95430267,0.1560063,-0.14132313,0.3301995
95441472,0.1384053,-0.123292334,0.32118788
95450267,0.15430476,-0.1323537,0.31689274
95461489,0.15427713,-0.12509234,0.3227446
95470267,0.16310571,-0.123292334,0.32130447
95489503,0.15072036,-0.13952313,0.32869276
95499866,0.1507625,-0.121492326,0.31976438
95509491,0.1490607,-0.12336896,0.30651405
95519066,0.14896294,-0.14133847,0.32722145
95529491,0.13486286,-0.11966166,0.32409716
95539069,0.1472615,-0.12875369,0.31389582
95549478,0.13837776,-0.11241562,0.32702097
95559066,0.13487649,-0.13052306,0.32120883
95569488,0.14370541,-0.114261605,0.31969345
95579068,0.14894958,-0.11963101,0.33005333
95589505,0.14894958,-0.11963101,0.33005333
95598266,0.16489129,-0.10704622,0.316811
95609483,0.15069273,-0.13226175,0.33454463
95618267,0.15069327,-0.110569626,0.33443174
95629466,0.13663399,-0.12509234,0.32266134
95638275,0.13491854,-0.1161076,0.31229928
95649466,0.1436908,-0.14316912,0.32278872
95658269,0.15780541,-0.13955379,0.32283652
95669466,0.14012057,-0.13950782,0.33158752
95678267,0.14719164,-0.14313847,0.3286949
95689491,0.14186442,-0.12321571,0.33592832
95698268,0.14186442,-0.12321571,0.33592832
95707098,0.15604846,-0.123292334,0.32127115
95717485,0.14894931,-0.13047707,0.33010978
95727067,0.14197572,-0.11972296,0.31235144
95737494,0.15076205,-0.13956912,0.31985846
95747081,0.14894904,-0.14132313,0.33016622
95757498,0.13840485,-0.14136912,0.32128194
95767067,0.13844663,-0.13779974,0.31242883
95777467,0.1384191,-0.12692301,0.31826192
95787067,0.1383495,-0.13046175,0.33300453
95797466,0.14719218,-0.12144635,0.32858202
95807867,0.14719218,-0.12144635,0.32858202
95817466,0.15603447,-0.12689236,0.32423472
95826267,0.14547603,-0.14138444,0.3183705
95837466,0.15247795,-0.13047707,0.33012643
95846276,0.14547683,-0.10884623,0.31820118
95857466,0.15076205,-0.13956912,0.31985846
95866267,0.15426342,-0.11784631,0.32565176
95877466,0.15426324,-0.12507702,0.3256894
95886271,0.15246378,-0.14130782,0.33312762
95897467,0.15253356,-0.13053837,0.31834736
95906283,0.13487649,-0.13052306,0.32120883
95925466,0.13134822,-0.11606162,0.32111692
95935915,0.16306418,-0.11601564,0.33010113
95945467,0.14901891,-0.12693833,0.31536716
95956667,0.14189169,-0.1449385,0.3301517
95965467,0.1631336,-0.11970764,0.31539616
95975896,0.16129297,-0.1142003,0.33155578
95985466,0.15956311,-0.12689236,0.32425138
95996667,0.13491827,-0.12695366,0.31235573
96005467,0.1454206,-0.13409242,0.33011192
96016673,0.15250576,-0.13050772,0.32423687
96025472,0.15250576,-0.13050772,0.32423687
96034271,0.15603429,-0.13412307,0.32427236
96044666,0.1348207,-0.13769247,0.33302552
96054302,0.1366062,-0.12506169,0.32855088
96064666,0.15607609,-0.1305537,0.3154193
96074312,0.14547648,-0.12330766,0.31827644
96084667,0.1507764,-0.121507645,0.31681964
96094270,0.15779197,-0.121461675,0.32568723
96104666,0.15609024,-0.11972296,0.31241804
96114284,0.15420718,-0.1430925,0.3375625
96124666,0.13662028,-0.11784631,0.32556847
96134285,0.13662028,-0.11784631,0.32556847
96144666,0.14016226,-0.13955379,0.32275325
96153467,0.14897747,-0.116046295,0.32414496
96164666,0.14194721,-0.14861517,0.31839147
96173467,0.15423553,-0.12143102,0.3315601
96184672,0.14547639,-0.12692301,0.31829524
96193488,0.14544822,-0.14135379,0.32426003
96204686,0.12960471,-0.11789228,0.31670088
96213479,0.13833578,-0.12321571,0.33591166
96224666,0.14370523,-0.121492326,0.3197311
96233467,0.15251984,-0.123292334,0.3212545
96252666,0.15602039,-0.13410775,0.32721713
96262287,0.14374739,-0.10346151,0.3108027
96272666,0.15424988,-0.103369564,0.32852125
96282267,0.15423508,-0.13950782,0.33165416
96292666,0.14193402,-0.119676985,0.3211857
96302284,0.15607636,-0.11970764,0.31536284
96312666,0.12247776,-0.12504637,0.331429
96322307,0.13137549,-0.1377844,0.3153403
96332666,0.1277917,-0.11964633,0.32700863
96342267,0.13846089,-0.12335364,0.3094088
96352674,0.13846089,-0.12335364,0.3094088
96361467,0.15246423,-0.12323104,0.33303356
96372708,0.14717801,-0.13227707,0.33158323
96381467,0.15249185,-0.1304924,0.32718167
96392666,0.12433276,-0.11249225,0.3122305
96401467,0.15073462,-0.12507702,0.32567275
96412666,0.1472059,-0.12869239,0.3256749
96421467,0.14189187,-0.13770778,0.33011407
96432666,0.13843292,-0.1305537,0.315336
96441467,0.15953512,-0.13409242,0.33017856
96452666,0.15427704,-0.1287077,0.3227634
96461472,0.15427704,-0.1287077,0.3227634
96470285,0.14189196,-0.13409242,0.33009526
96480666,0.14899084,-0.13775377,0.3213131
96490301,0.14192012,-0.11966166,0.32413048
96500666,0.14016226,-0.13955379,0.32275325
96510267,0.14017679,-0.114261605,0.3196768
96520687,0.14013465,-0.13229239,0.32860515
96530267,0.15253356,-0.13053837,0.31834736
96540715,0.15072072,-0.12506169,0.32861748
96550267,0.16484924,-0.121461675,0.32572055
96560667,0.16484924,-0.121461675,0.32572055
96571088,0.16484924,-0.121461675,0.32572055
96580678,0.14192021,-0.116046295,0.32411164
96589467,0.15076259,-0.11787696,0.31974557
96600666,0.16130652,-0.12867706,0.32868627
96609467,0.15072063,-0.12867706,0.32863632
96620666,0.14715038,-0.12501572,0.3374351
96629467,0.13836367,-0.11963101,0.33000335
96640666,0.15429077,-0.13595375,0.31985632
96649467,0.1489772,-0.12689236,0.3242014
96659912,0.14546257,-0.123292334,0.32122117
96669474,0.14546257,-0.123292334,0.32122117
96679916,0.14546257,-0.123292334,0.32122117
96688684,0.1366339,-0.1287077,0.32268015
96699869,0.14019024,-0.1323537,0.3168261
96708708,0.15070654,-0.13589245,0.3316187
96719889,0.15424916,-0.13229239,0.32867178
96728678,0.14367735,-0.12507702,0.32563943
96739866,0.14543459,-0.1304924,0.32714835
96748690,0.14369115,-0.1287077,0.32271346
96759109,0.13307756,-0.12506169,0.32853422
96768667,0.14546248,-0.12690769,0.32124
96778267,0.14546248,-0.12690769,0.32124
96788667,0.14546248,-0.12690769,0.32124
96797510,0.15424925,-0.12867706,0.32865298
96807898,0.13137594,-0.11970764,0.31524622
96817467,0.13134786,-0.13052306,0.32119218
96827909,0.14537863,-0.14489253,0.33900264
96837468,0.14020433,-0.12513833,0.3138437
96847922,0.15069336,-0.10695427,0.33441293
96857467,0.13841866,-0.1449998,0.318356
96867883,0.16310544,-0.1341384,0.32136092
96877475,0.13134795,-0.12690769,0.32117337
96887867,0.13134795,-0.12690769,0.32117337
96897467,0.13134795,-0.12690769,0.32117337
96907866,0.14014873,-0.12507702,0.32562277
96916667,0.1313336,-0.14496915,0.3242122
96927866,0.15076277,-0.110646255,0.31970793
96936705,0.15249194,-0.12687704,0.32716286
96947866,0.15952113,-0.13769247,0.33314213
96956666,0.14720608,-0.121461675,0.32563728
96967866,0.13663363,-0.13955379,0.3227366
96976667,0.1542766,-0.14678448,0.3228575
96987885,0.14192003,-0.12327701,0.32414928
96996692,0.14192003,-0.12327701,0.32414928
97015922,0.13484895,-0.11964633,0.32704192
97025467,0.1489772,-0.12689236,0.3242014
97035866,0.1401627,-0.121477,0.32265916
97045467,0.14897747,-0.116046295,0.32414496
97055866,0.1595353,-0.1268617,0.33014092
97065467,0.15950741,-0.13044642,0.33604926
97075866,0.13667552,-0.13236903,0.31386468
97085467,0.14370523,-0.121492326,0.3197311
97095866,0.1560621,-0.13415372,0.31838286
97106267,0.1560621,-0.13415372,0.31838286
97115867,0.1560621,-0.13415372,0.31838286
97124671,0.13306384,-0.11781566,0.33144134
97135866,0.15077631,-0.125123,0.31683844
97144667,0.14901891,-0.12693833,0.31536716
97155879,0.14716393,-0.1394925,0.3345656
97164674,0.14899129,-0.119676985,0.32121903
97175884,0.14021814,-0.12876901,0.31091776
97184713,0.15427686,-0.13593842,0.32280105
97195889,0.14194784,-0.12330766,0.31825978
97204679,0.1454066,-0.13769247,0.3330755
97223866,0.15074842,-0.1287077,0.32274678
97233467,0.13660629,-0.12144635,0.32853204
97243866,0.14546266,-0.119676985,0.32120237
97253466,0.15422136,-0.13226175,0.3345613
97263866,0.15954912,-0.1304924,0.327215
97273467,0.15247813,-0.12324636,0.3300888
97283866,0.14542086,-0.12324636,0.33005548
97293487,0.14193375,-0.13052306,0.32124215
97303866,0.12960382,-0.15404586,0.31688902
97313502,0.15427695,-0.13232304,0.32278225
97323891,0.15427695,-0.13232304,0.32278225
97332673,0.15072072,-0.12506169,0.32861748
97343887,0.15429094,-0.12872304,0.31981868
97352705,0.15427713,-0.12509234,0.3227446
97363914,0.14721961,-0.13593842,0.32276773
97372688,0.12950678,-0.1430925,0.33744588
97383066,0.1384053,-0.123292334,0.32118788
97392667,0.16309172,-0.12689236,0.32426804
97403866,0.16489075,-0.12873836,0.3169239
97412667,0.14717801,-0.13227707,0.33158323
97423074,0.15424961,-0.11421563,0.3285777
97432669,0.15424961,-0.11421563,0.3285777
97443066,0.16487676,-0.13233837,0.31988746
97451866,0.14543477,-0.12326168,0.32711074
97461485,0.14192039,-0.10881558,0.32407403
97471867,0.14900474,-0.13776909,0.31836835
97481507,0.14016253,-0.1287077,0.3226968
97491906,0.14371896,-0.12873836,0.31682396
97503067,0.14896303,-0.13772312,0.32720265
97511888,0.13839148,-0.11966166,0.32411382
97521499,0.14013492,-0.12144635,0.3285487
97531908,0.14721952,-0.13955379,0.32278657
97541480,0.14721952,-0.13955379,0.32278657
97551079,0.1454902,-0.1305537,0.3153693
97560666,0.13836358,-0.12324636,0.33002216
97571073,0.14370514,-0.12510768,0.3197499
97580668,0.15251957,-0.1341384,0.32131094
97591072,0.15602048,-0.1304924,0.32719833
97600667,0.1401627,-0.121477,0.32265916
97611066,0.15253365,-0.12692301,0.31832856
97620666,0.13487658,-0.12690769,0.32119003
97631066,0.15072027,-0.14313847,0.32871157
97640667,0.15072027,-0.14313847,0.32871157
97651068,0.15072027,-0.14313847,0.32871157
97659883,0.15076259,-0.11787696,0.31974557
97671067,0.14193375,-0.13052306,0.32124215
97679884,0.15250593,-0.12327701,0.32419926
97691073,0.14370514,-0.12510768,0.3197499
97699898,0.14364955,-0.12504637,0.33152893
97711066,0.15783349,-0.12873836,0.31689057
97719867,0.1471781,-0.12866174,0.3315644
97731067,0.14549038,-0.123322986,0.31533167
97739867,0.13661993,-0.13230772,0.32564375
97749478,0.13661993,-0.13230772,0.32564375
97759867,0.13661993,-0.13230772,0.32564375
97768667,0.15959091,-0.12692301,0.31836188
97779067,0.13663399,-0.12509234,0.32266134
97788666,0.1507348,-0.11784631,0.3256351
97799066,0.15073498,-0.1106156,0.3255975
97808671,0.15431866,-0.13236903,0.31394795
97819068,0.15426315,-0.12869239,0.3257082
97828712,0.1454345,-0.13410775,0.32716715
97839066,0.147192,-0.12867706,0.32861966
97848676,0.14014891,-0.11784631,0.32558513
97859067,0.14014891,-0.11784631,0.32558513
97869467,0.14014891,-0.11784631,0.32558513
97879066,0.14723423,-0.1070309,0.31967247
97887874,0.14189258,-0.10878493,0.32996356
97899066,0.15073471,-0.121461675,0.3256539
97907867,0.14190586,-0.13410775,0.32715052
97919066,0.13134778,-0.1341384,0.321211
97927874,0.14894949,-0.12324636,0.33007213
97939066,0.14020424,-0.12875369,0.3138625
97947867,0.1401351,-0.11421563,0.3285111
97959066,0.1419481,-0.1124616,0.31820333
97967880,0.1419481,-0.1124616,0.31820333
97987066,0.15249176,-0.13410775,0.32720047
97997466,0.15250602,-0.11966166,0.32418045
98007066,0.14727567,-0.11792293,0.3108946
98016667,0.13134795,-0.12690769,0.32117337
98027086,0.13659248,-0.11781566,0.331458
98036667,0.15600657,-0.13047707,0.33014306
98047072,0.14373268,-0.1359844,0.3139168
98056666,0.13484886,-0.12326168,0.32706076
98067066,0.14366327,-0.13229239,0.3286218
98077467,0.14366327,-0.13229239,0.3286218
98087067,0.14366327,-0.13229239,0.3286218
98095866,0.15603438,-0.13050772,0.32425353
98107068,0.13839139,-0.12327701,0.32413262
98115866,0.14192012,-0.11966166,0.32413048
98127109,0.14721952,-0.13955379,0.32278657
98135875,0.14373268,-0.1359844,0.3139168
98147098,0.13490438,-0.12693833,0.31530052
98155866,0.14724751,-0.1323537,0.31685942
98167097,0.14370506,-0.12872304,0.3197687
98175871,0.14901865,-0.1377844,0.31542358
98195071,0.14542095,-0.11963101,0.33003667
98206266,0.12783305,-0.13415372,0.31824958
98215091,0.14194775,-0.12692301,0.31827858
98226266,0.15783349,-0.12873836,0.31689057
98235067,0.14900501,-0.12692301,0.3183119
98246267,0.14901909,-0.11970764,0.31532952
98255088,0.14017643,-0.12872304,0.31975204
98266267,0.14020406,-0.1359844,0.31390014
98275077,0.13306357,-0.12866174,0.3314978
98284685,0.13306357,-0.12866174,0.3314978
98295091,0.13306357,-0.12866174,0.3314978
98303907,0.14367709,-0.1359231,0.32569587
98314266,0.14014882,-0.121461675,0.32560396
98323867,0.1419064,-0.11241562,0.32703763
98334266,0.13307738,-0.13229239,0.32857183
98343867,0.14720555,-0.1431538,0.32575014
98354266,0.15427731,-0.117861636,0.322707
98363867,0.14715011,-0.1358618,0.33749154
98374287,0.14013438,-0.14313847,0.3286616
98383869,0.15430485,-0.12873836,0.3168739
98394267,0.15430485,-0.12873836,0.3168739
98403067,0.1507486,-0.121477,0.32270914
98414266,0.15431875,-0.12875369,0.31392914
98423067,0.15253347,-0.13415372,0.3183662
98434266,0.14376085,-0.12155362,0.30795202
98443109,0.15249167,-0.13772312,0.3272193
98454266,0.15074824,-0.13593842,0.3227844
98463116,0.15957692,-0.13052306,0.32132545
98472713,0.15252002,-0.11606162,0.32121688
98483068,0.13660593,-0.13590777,0.32860732
98494266,0.1366479,-0.12510768,0.31971657
98503115,0.1366479,-0.12510768,0.31971657
98511867,0.14542095,-0.11963101,0.33003667
98522266,0.14543477,-0.12326168,0.32711074
98531867,0.14546266,-0.119676985,0.32120237
98542266,0.14010684,-0.13226175,0.33449465
98551866,0.15070672,-0.12866174,0.33158106
98562266,0.1578612,-0.13238434,0.31101984
98571867,0.13837722,-0.13410775,0.32713386
98582266,0.12963225,-0.12876901,0.3108678
98591867,0.14724733,-0.13958444,0.31689703
98602267,0.14724733,-0.13958444,0.31689703
98612667,0.14724733,-0.13958444,0.31689703
98622266,0.15954894,-0.13772312,0.3272526
98631088,0.14894958,-0.11963101,0.33005333
98642266,0.14719164,-0.14313847,0.3286949
98651067,0.13307747,-0.12867706,0.32855302
98662266,0.14190604,-0.12687704,0.32711288
98671073,0.15070708,-0.1142003,0.3315058
98682266,0.15431875,-0.12875369,0.31392914
98691112,0.14724733,-0.13958444,0.31689703
98702266,0.15081811,-0.12155362,0.30798534
98711067,0.15081811,-0.12155362,0.30798534
98730266,0.15074833,-0.13232304,0.3227656
98740666,0.14198935,-0.13058434,0.3094631
98750266,0.14187805,-0.1340771,0.33304003
98759867,0.14899093,-0.1341384,0.32129428
98770266,0.13489048,-0.12692301,0.31824526
98779870,0.15433247,-0.13599972,0.311022
98790266,0.15253365,-0.12692301,0.31832856
98799899,0.14720573,-0.1359231,0.32571253
98810266,0.13132024,-0.12326168,0.3270441
98820667,0.13132024,-0.12326168,0.3270441
98830267,0.13132024,-0.12326168,0.3270441
98839073,0.14367753,-0.11784631,0.3256018
98850266,0.1507625,-0.121492326,0.31976438
98859121,0.14190604,-0.12687704,0.32711288
98870266,0.14544867,-0.12327701,0.32416594
98879067,0.15077622,-0.12873836,0.31685725
98890266,0.14189267,-0.10516957,0.32994476
98899067,0.14544858,-0.12689236,0.32418475
98910266,0.16136202,-0.1323537,0.31692603
98919067,0.15427722,-0.121477,0.3227258
98938266,0.14193393,-0.123292334,0.3212045
98947901,0.14367726,-0.12869239,0.32565823
98958266,0.14190622,-0.11964633,0.32707524
98967890,0.14907433,-0.13423035,0.3036257
98978266,0.14193393,-0.123292334,0.3212045
98989467,0.14019033,-0.12873836,0.3168073
98998267,0.14187841,-0.11961569,0.33296475
99009484,0.147331,-0.12883031,0.299172
99018266,0.14370523,-0.121492326,0.3197311
99029467,0.14551835,-0.116122924,0.30940452
99038267,0.14551835,-0.116122924,0.30940452
99047082,0.13489057,-0.12330766,0.31822646
99057483,0.15429121,-0.11787696,0.31976223
99067069,0.14371905,-0.125123,0.31680512
99077501,0.15077622,-0.12873836,0.31685725
99087067,0.15776426,-0.11781566,0.33155793
99097466,0.15247813,-0.12324636,0.3300888
99107067,0.16317512,-0.12698431,0.3065995
99117507,0.13844717,-0.1161076,0.31231594
99127067,0.15952131,-0.13046175,0.3331045
99137466,0.15780577,-0.12509234,0.32276127
99157466,0.15431902,-0.117907606,0.3138727
99166267,0.14897738,-0.11966166,0.3241638
99177466,0.14544831,-0.13773844,0.3242412
99186266,0.15254755,-0.12693833,0.3153838
99197466,0.14901847,-0.14501512,0.31546122
99206273,0.14016244,-0.13232304,0.3227156
99217469,0.12780516,-0.13773844,0.32415792
99226267,0.1348625,-0.13412307,0.3241724
99237466,0.15426333,-0.121461675,0.32567057
99246267,0.15426333,-0.121461675,0.32567057
99255892,0.15426333,-0.121461675,0.32567057
99265468,0.13839121,-0.13050772,0.32417026
99275068,0.14019078,-0.11066157,0.3167132
99285473,0.1472754,-0.12876901,0.31095105
99295066,0.15607636,-0.11970764,0.31536284
99305496,0.13839121,-0.13050772,0.32417026
99315073,0.1560621,-0.13415372,0.31838286
99325466,0.13484895,-0.11964633,0.32704192
99335066,0.1578195,-0.13233837,0.31985414
99345466,0.14367718,-0.13230772,0.32567707
99355867,0.14367718,-0.13230772,0.32567707
99365467,0.14367718,-0.13230772,0.32567707
99374267,0.15253374,-0.12330766,0.31830975
99385469,0.15780586,-0.121477,0.32274246
99394266,0.14899129,-0.119676985,0.32121903
99405498,0.14192012,-0.11966166,0.32413048
99414267,0.14373322,-0.11429225,0.3138039
99425511,0.1367036,-0.12155362,0.3079187
99434266,0.13839175,-0.10881558,0.32405737
99445509,0.14020424,-0.12875369,0.3138625
99454314,0.1613344,-0.12509234,0.32277793
99474267,0.1613344,-0.12509234,0.32277793
99483067,0.13138965,-0.12695366,0.31233907
99493466,0.15424961,-0.11421563,0.3285777
99503067,0.15604864,-0.11606162,0.32123354
99513487,0.15427722,-0.121477,0.3227258
99523066,0.1595771,-0.123292334,0.3212878
99533475,0.12780525,-0.13412307,0.3241391
99543067,0.1489633,-0.12687704,0.3271462
99553503,0.1454763,-0.13053837,0.31831405
99563067,0.1489912,-0.123292334,0.32123783
99573495,0.1489912,-0.123292334,0.32123783
99582267,0.14193384,-0.12690769,0.32122335
99593474,0.156062,-0.13776909,0.31840166
99602266,0.15957701,-0.12690769,0.32130662
99613483,0.13668934,-0.13599972,0.31093872
99622267,0.13837722,-0.13410775,0.32713386
99633466,0.13657857,-0.11780033,0.33440274
99642274,0.15083201,-0.12156895,0.3050406
99653466,0.14724796,-0.11427692,0.31676534
99662284,0.14897738,-0.11966166,0.3241638
99673466,0.14728886,-0.14686112,0.30810037
99682285,0.14728886,-0.14686112,0.30810037
99691067,0.13668934,-0.13599972,0.31093872
99701504,0.16484924,-0.121461675,0.32572055
99711867,0.15600657,-0.13047707,0.33014306
99721477,0.12957673,-0.12509234,0.32262802
99731884,0.14727558,-0.1215383,0.31091344
99741469,0.1418785,-0.116000324,0.33294594
99752666,0.15076241,-0.12510768,0.3197832
99761502,0.15253365,-0.12692301,0.31832856
99772666,0.14366354,-0.12144635,0.32856536
99781467,0.14366354,-0.12144635,0.32856536
99791067,0.14366354,-0.12144635,0.32856536
99801466,0.14546248,-0.12690769,0.32124
99810267,0.1578473,-0.13236903,0.3139646
99820666,0.14364937,-0.13227707,0.33156657
99830297,0.16136256,-0.11066157,0.31681317
99840666,0.15426324,-0.12507702,0.3256894
99850286,0.12429097,-0.11606162,0.3210836
99860666,0.13843301,-0.12693833,0.31531718
99870301,0.14189276,-0.101554215,0.32992592
99880672,0.16840531,-0.13595375,0.31992292
99890285,0.16840531,-0.13595375,0.31992292
99900666,0.15251993,-0.119676985,0.3212357
99909476,0.14364946,-0.12866174,0.33154774
99920669,0.13309146,-0.12507702,0.32558945
99929487,0.1348486,-0.13410775,0.3271172
99940666,0.14021778,-0.14323042,0.31099302
99949467,0.14549029,-0.12693833,0.3153505
99960666,0.15254773,-0.11970764,0.31534618
99969467,0.14370443,-0.15403055,0.3199004
99980666,0.1508043,-0.11792293,0.31091127
99989467,0.14364973,-0.11781566,0.3314913
99999074,0.14364973,-0.11781566,0.3314913
100008666,0.15253383,-0.11969231,0.31829092
100018292,0.15077631,-0.125123,0.31683844
100028666,0.15247804,-0.1268617,0.3301076
100038298,0.13489012,-0.14138444,0.31832054
100048673,0.14894949,-0.12324636,0.33007213
100058288,0.1560898,-0.13779974,0.31251213
100068708,0.15607609,-0.1305537,0.3154193
100078315,0.14539297,-0.12683105,0.33596382
100088666,0.1472337,-0.12872304,0.31978536
100098305,0.1472337,-0.12872304,0.31978536
100108667,0.1472337,-0.12872304,0.31978536
100117467,0.14900501,-0.12692301,0.3183119
100128666,0.13129243,-0.12323104,0.3329336
100137474,0.1472615,-0.12875369,0.31389582
100148666,0.15250576,-0.13050772,0.32423687
100157467,0.15959083,-0.13053837,0.31838068
100168666,0.1437047,-0.14318445,0.31984395
100177467,0.15602039,-0.13410775,0.32721713
100188666,0.15080403,-0.12876901,0.3109677
100197467,0.15957719,-0.119676985,0.321269
100217467,0.15957719,-0.119676985,0.321269
100226288,0.14367762,-0.11423095,0.32558298
100236686,0.14717846,-0.1142003,0.33148915
100246279,0.11715038,-0.11235432,0.33870003
100256666,0.15954947,-0.11603097,0.32713974
100266278,0.15252002,-0.11606162,0.32121688
100276668,0.1560064,-0.13770778,0.3301807
100286267,0.1454623,-0.1341384,0.32127762
100296666,0.14539288,-0.13044642,0.33598262
100306266,0.13660638,-0.117830984,0.32851323
100316667,0.13660638,-0.117830984,0.32851323
100325467,0.15603465,-0.11966166,0.32419708
100336666,0.13834941,-0.1340771,0.33302337
100345467,0.13843301,-0.12693833,0.31531718
100356666,0.12959081,-0.11787696,0.31964564
100365467,0.14014918,-0.10700025,0.32552868
100376666,0.14366372,-0.11421563,0.32852775
100385466,0.15072063,-0.12867706,0.32863632
100396666,0.1507486,-0.121477,0.32270914
100405467,0.14369124,-0.12509234,0.32269463
100416667,0.14370514,-0.12510768,0.3197499
100425468,0.14370514,-0.12510768,0.3197499
100435090,0.14720581,-0.13230772,0.32569373
100444666,0.1507486,-0.121477,0.32270914
100454267,0.1577918,-0.12869239,0.32572487
100464666,0.15604891,-0.10521555,0.3211771
100474267,0.14196192,-0.11609227,0.3152774
100484666,0.14723396,-0.11787696,0.3197289
100495105,0.15247813,-0.12324636,0.3300888
100504666,0.15607609,-0.1305537,0.3154193
100515874,0.15080376,-0.13961509,0.31102416
100524667,0.13486259,-0.13050772,0.3241536
100534267,0.13486259,-0.13050772,0.3241536
100543902,0.12429088,-0.119676985,0.32110244
100553467,0.14376076,-0.12516898,0.30797085
100564666,0.13666216,-0.11066157,0.31669655
100573467,0.1454763,-0.13053837,0.31831405
100583866,0.14187814,-0.13046175,0.3330212
100593484,0.14366327,-0.13229239,0.3286218
100603872,0.1472197,-0.13232304,0.32274893
100613466,0.14894931,-0.13047707,0.33010978
100623875,0.14899111,-0.12690769,0.32125667
100633466,0.147192,-0.12867706,0.32861966
100643928,0.147192,-0.12867706,0.32861966
100652667,0.14724778,-0.121507645,0.31680298
100663898,0.15602084,-0.11603097,0.32712308
100672667,0.14013483,-0.12506169,0.32856753
100683870,0.14899111,-0.12690769,0.32125667
100692667,0.14544849,-0.13050772,0.32420358
100703898,0.14719182,-0.13590777,0.32865727
100712679,0.15599303,-0.116000324,0.33301258
100723894,0.13843283,-0.13416904,0.3153548
100732666,0.16836397,-0.12144635,0.32868198
100743866,0.14186397,-0.14129248,0.3360224
100752667,0.14186397,-0.14129248,0.3360224
100761466,0.13837731,-0.1304924,0.32711503
100771891,0.14191994,-0.12689236,0.3241681
100781467,0.14017643,-0.12872304,0.31975204
100791876,0.12604828,-0.117861636,0.32257372
100801467,0.14894949,-0.12324636,0.33007213
100811887,0.14366363,-0.117830984,0.32854655
100821484,0.16310526,-0.14136912,0.32139856
100831894,0.12780552,-0.12327701,0.32408264
100841475,0.14364928,-0.13589245,0.33158538
100851917,0.15074815,-0.13955379,0.3228032
100862267,0.15074815,-0.13955379,0.3228032
100871914,0.13311908,-0.13233837,0.31973755
100880667,0.15424934,-0.12506169,0.32863414
100891914,0.14373286,-0.12875369,0.31387916
100900667,0.15423526,-0.13227707,0.33161652
100911866,0.14017661,-0.121492326,0.31971443
100920667,0.12959054,-0.12872304,0.31970206
100931866,0.14369106,-0.13232304,0.32273227
100940667,0.13840503,-0.1341384,0.32124433
100951866,0.1454345,-0.13410775,0.32716715
100960677,0.1454345,-0.13410775,0.32716715
100979882,0.12952095,-0.13226175,0.3344447
100989492,0.12783279,-0.1449998,0.31830603
100999868,0.14899102,-0.13052306,0.32127547
101009499,0.14715047,-0.12140037,0.3374163
101019931,0.1419473,-0.1449998,0.31837267
101029484,0.1489633,-0.12687704,0.3271462
101039884,0.15072036,-0.13952313,0.32869276
101049478,0.13663399,-0.12509234,0.32266134
101059914,0.13484868,-0.1304924,0.32709837
101070267,0.13484868,-0.1304924,0.32709837
101079870,0.13484868,-0.1304924,0.32709837
101088667,0.14721997,-0.121477,0.32269248
101099866,0.1454623,-0.1341384,0.32127762
101108667,0.14369142,-0.117861636,0.32265702
101119866,0.14551808,-0.12696898,0.30946094
101128667,0.14016262,-0.12509234,0.32267797
101139866,0.15426306,-0.13230772,0.32572702
101148667,0.13833578,-0.12321571,0.33591166
101159884,0.14370497,-0.13233837,0.3197875
101169466,0.13313289,-0.13596907,0.3168116
101188715,0.13313289,-0.13596907,0.3168116
101197466,0.14547639,-0.12692301,0.31829524
101207883,0.15957701,-0.12690769,0.32130662
101217476,0.1472476,-0.12873836,0.31684062
101227909,0.13832216,-0.11235432,0.33879998
101237467,0.1401767,-0.11787696,0.3196956
101247866,0.1507486,-0.121477,0.32270914
101258285,0.1419194,-0.14858451,0.32428098
101267866,0.1489773,-0.12327701,0.3241826
101278280,0.14363591,-0.114184976,0.33441725
101287867,0.14363591,-0.114184976,0.33441725
101296667,0.14543441,-0.13772312,0.327186
101307073,0.14720617,-0.11784631,0.32561845
101316699,0.12957682,-0.121477,0.3226092
101327066,0.14547665,-0.116076946,0.3182388
101336710,0.16132042,-0.12869239,0.32574153
101347085,0.1454345,-0.13410775,0.32716715
101356705,0.14013545,-0.09975421,0.3284358
101367066,0.14364955,-0.12504637,0.33152893
101376674,0.15070663,-0.13227707,0.3315999
101387067,0.15070663,-0.13227707,0.3315999
101396667,0.15070663,-0.13227707,0.3315999
101407073,0.15604855,-0.119676985,0.32125235
101415872,0.15603384,-0.15219985,0.32436642
101427067,0.14371905,-0.125123,0.31680512
101435885,0.15072072,-0.12506169,0.32861748
101447067,0.15954912,-0.1304924,0.327215
101455871,0.14723414,-0.110646255,0.31969127
101467066,0.14189231,-0.11963101,0.33002
101475867,0.13840485,-0.14136912,0.32128194
101487066,0.15427713,-0.12509234,0.3227446
101495886,0.15427713,-0.12509234,0.3227446
101504669,0.14191994,-0.12689236,0.3241681
101515066,0.13484877,-0.12687704,0.32707956
101524689,0.1402045,-0.117907606,0.31380606
101535066,0.14367735,-0.12507702,0.32563943
101545515,0.12959045,-0.13233837,0.3197209
101555066,0.1630501,-0.12323104,0.3330835
101564666,0.14723387,-0.121492326,0.31974772
101575083,0.15076232,-0.12872304,0.31980202
101584667,0.14364955,-0.12504637,0.33152893
101595067,0.14364955,-0.12504637,0.33152893
101605474,0.14364955,-0.12504637,0.33152893
101615067,0.14021823,-0.12515365,0.31089893
101623867,0.14897703,-0.13412307,0.32423905
101635075,0.13660692,-0.09613885,0.32840034
101643866,0.1436499,-0.11058495,0.33145368
101655084,0.15070646,-0.13950782,0.3316375
101663875,0.14006495,-0.13944651,0.34336656
101675067,0.15597886,-0.12683105,0.33601376
101683866,0.13484842,-0.14133847,0.32715482
101695084,0.16133413,-0.13593842,0.32283437
101703867,0.16133413,-0.13593842,0.32283437
101712667,0.15427677,-0.13955379,0.32281986
101723066,0.14014873,-0.12507702,0.32562277
101732667,0.13484842,-0.14133847,0.32715482
101743074,0.15429103,-0.12510768,0.31979987
101752667,0.15077631,-0.125123,0.31683844
101763066,0.14717801,-0.13227707,0.33158323
101772667,0.15073453,-0.12869239,0.32569155
101783066,0.15603447,-0.12689236,0.32423472
101792667,0.15779197,-0.121461675,0.32568723
101803074,0.15779197,-0.121461675,0.32568723
101813467,0.15779197,-0.121461675,0.32568723
101823068,0.14900519,-0.11969231,0.31827426
101831875,0.14542104,-0.11601564,0.33001783
101842284,0.15426333,-0.121461675,0.32567057
101851867,0.15430494,-0.125123,0.3168551
101863084,0.15072072,-0.12506169,0.32861748
101871867,0.15431866,-0.13236903,0.31394795
101883103,0.16133448,-0.121477,0.32275912
101891873,0.14544831,-0.13773844,0.3242412
101903067,0.16667603,-0.12333831,0.31248683
101911867,0.16667603,-0.12333831,0.31248683
101920667,0.13662001,-0.12869239,0.3256249
101931066,0.14367762,-0.11423095,0.32558298
101940667,0.15429112,-0.121492326,0.31978104
101951067,0.1507625,-0.121492326,0.31976438
101960667,0.1366201,-0.12507702,0.3256061
101971066,0.14194793,-0.11969231,0.31824097
101980673,0.13132015,-0.12687704,0.3270629
101991066,0.15254746,-0.1305537,0.31540263
102000709,0.1525201,-0.11244627,0.32119805
102011067,0.1525201,-0.11244627,0.32119805
102020667,0.1525201,-0.11244627,0.32119805
102030266,0.14894958,-0.11963101,0.33005333
102039867,0.1613343,-0.1287077,0.32279673
102051109,0.15251984,-0.123292334,0.3212545
102059867,0.15784775,-0.11429225,0.31387052
102070293,0.1577778,-0.13229239,0.32868844
102079867,0.14370488,-0.13595375,0.31980634
102090294,0.15251957,-0.1341384,0.32131094
102099867,0.14546257,-0.123292334,0.32122117
102110274,0.1701769,-0.12330766,0.31839302
102119867,0.1701769,-0.12330766,0.31839302
102130283,0.14724742,-0.13596907,0.31687823
102139066,0.14897738,-0.11966166,0.3241638
102150266,0.14901891,-0.12693833,0.31536716
102159066,0.14014837,-0.13953847,0.32569802
102170267,0.15604828,-0.13052306,0.3213088
102179072,0.15603438,-0.13050772,0.32425353
102190266,0.15606263,-0.1124616,0.31826997
102199105,0.1295769,-0.117861636,0.32259038
102210266,0.14371869,-0.13958444,0.3168804
102219103,0.14371869,-0.13958444,0.3168804
102228667,0.14371869,-0.13958444,0.3168804
102238266,0.14719263,-0.103369564,0.32848796
102247867,0.14190622,-0.11964633,0.32707524
102258268,0.15599285,-0.12323104,0.3330502
102267866,0.14023186,-0.13601506,0.30801064
102278303,0.14726186,-0.11429225,0.31382057
102287869,0.14021814,-0.12876901,0.31091776
102298266,0.13138992,-0.1161076,0.31228262
102307885,0.14543477,-0.12326168,0.32711074
102318266,0.14896357,-0.11603097,0.32708976
102327868,0.14896357,-0.11603097,0.32708976
102338266,0.1454763,-0.13053837,0.31831405
102347067,0.13309146,-0.12507702,0.32558945
102358266,0.14369124,-0.12509234,0.32269463
102367084,0.14894949,-0.12324636,0.33007213
102378266,0.1472476,-0.12873836,0.31684062
102387095,0.15424943,-0.12144635,0.32861534
102398266,0.1366062,-0.12506169,0.32855088
102407073,0.15072045,-0.13590777,0.32867393
102418266,0.14364973,-0.11781566,0.3314913
102427096,0.14721952,-0.13955379,0.32278657
102446266,0.14542077,-0.1268617,0.33007428
102455867,0.15949352,-0.1304311,0.338994
102466266,0.13837749,-0.12326168,0.32707742
102475885,0.16307764,-0.13410775,0.32725045
102486266,0.15604855,-0.119676985,0.32125235
102495867,0.13129243,-0.12323104,0.3329336
102506266,0.14373277,-0.13236903,0.31389797
102515867,0.16309145,-0.13773844,0.3243245
102526266,0.14189196,-0.13409242,0.33009526
102536667,0.14189196,-0.13409242,0.33009526
102546267,0.14189196,-0.13409242,0.33009526
102566266,0.16134857,-0.114261605,0.3197767
102575072,0.15072045,-0.13590777,0.32867393
102586266,0.13660611,-0.12867706,0.32856968
102595114,0.15247804,-0.1268617,0.3301076
102606266,0.14014864,-0.12869239,0.32564157
102615095,0.14367735,-0.12507702,0.32563943
102626266,0.15254746,-0.1305537,0.31540263
102635073,0.15254746,-0.1305537,0.31540263
102654273,0.15608989,-0.13418438,0.3124933
102663867,0.14194793,-0.11969231,0.31824097
102674266,0.15779215,-0.11423095,0.32564962
102683867,0.14544849,-0.13050772,0.32420358
102694266,0.14017652,-0.12510768,0.31973323
102703867,0.14719209,-0.12506169,0.32860082
102714266,0.14366363,-0.117830984,0.32854655
102723867,0.14547612,-0.13776909,0.3183517
102734266,0.15245023,-0.12683105,0.3359971
102744667,0.15245023,-0.12683105,0.3359971
102754266,0.16133422,-0.13232304,0.32281557
102763092,0.15961817,-0.14864582,0.31258523
102774266,0.1367036,-0.12155362,0.3079187
102783093,0.1595354,-0.12324636,0.3301221
102793466,0.14189214,-0.1268617,0.33005762
102803067,0.1472615,-0.12875369,0.31389582
102813466,0.15433274,-0.12515365,0.31096557
102823080,0.15602075,-0.11964633,0.32714188
102833466,0.14366345,-0.12506169,0.3285842
102843074,0.14366345,-0.12506169,0.3285842
102853466,0.13311881,-0.14318445,0.319794
102862267,0.14193366,-0.1341384,0.32126096
102873467,0.15079021,-0.12513833,0.31389368
102882267,0.1754347,-0.13953847,0.32586458
102893467,0.15249185,-0.1304924,0.32718167
102902267,0.16839132,-0.13955379,0.3228865
102913467,0.14896321,-0.1304924,0.327165
102922267,0.14720581,-0.13230772,0.32569373
102931910,0.1507764,-0.121507645,0.31681964
102942272,0.1507764,-0.121507645,0.31681964
102951912,0.1507764,-0.121507645,0.31681964
102961466,0.1348625,-0.13412307,0.3241724
102971067,0.14362156,-0.13224642,0.33745608
102981466,0.1507486,-0.121477,0.32270914
102991066,0.14194766,-0.13053837,0.31829742
103001466,0.15080394,-0.13238434,0.31098655
103011067,0.15076259,-0.11787696,0.31974557
103021466,0.14720573,-0.1359231,0.32571253
103031067,0.13307765,-0.12144635,0.32851538
103041466,0.12957673,-0.12509234,0.32262802
103051067,0.12957673,-0.12509234,0.32262802
103061466,0.14191985,-0.13050772,0.32418692
103070267,0.14901927,-0.11247692,0.31529188
103079914,0.13490447,-0.123322986,0.31528172
103090267,0.14366336,-0.12867706,0.328603
103101467,0.14721961,-0.13593842,0.32276773
103110267,0.1507764,-0.121507645,0.31681964
103121466,0.14021823,-0.12515365,0.31089893
103130267,0.14724787,-0.11789228,0.31678417
103141466,0.15956302,-0.13050772,0.3242702
103150267,0.15956302,-0.13050772,0.3242702
103159066,0.15776452,-0.106969595,0.33150148
103169495,0.13307703,-0.14675383,0.3286471
103179066,0.15427722,-0.121477,0.3227258
103189466,0.1437186,-0.14319977,0.3168992
103199866,0.13131961,-0.1485692,0.3271758
103209466,0.147192,-0.12867706,0.32861966
103219066,0.14903253,-0.13779974,0.3124788
103229466,0.14371878,-0.13596907,0.31686157
103239071,0.14549002,-0.1377844,0.31540695
103249481,0.14549002,-0.1377844,0.31540695
103259885,0.14549002,-0.1377844,0.31540695
103269466,0.1454762,-0.13415372,0.31833288
103278275,0.1489773,-0.12327701,0.3241826
103288666,0.15076232,-0.12872304,0.31980202
103298267,0.1542766,-0.14678448,0.3228575
103309467,0.1560064,-0.13770778,0.3301807
103318271,0.14893568,-0.11961569,0.33299807
103329504,0.14724778,-0.121507645,0.31680298
103338267,0.15604828,-0.13052306,0.3213088
103349515,0.16305019,-0.11961569,0.3330647
103358285,0.16305019,-0.11961569,0.3330647
103367066,0.15426315,-0.12869239,0.3257082
103377466,0.15246378,-0.14130782,0.33312762
103387067,0.15600666,-0.1268617,0.33012426
103397466,0.16310571,-0.123292334,0.32130447
103407071,0.14893532,-0.1340771,0.33307335
103417474,0.14719173,-0.13952313,0.3286761
103427067,0.14549038,-0.123322986,0.31533167
103437466,0.14369115,-0.1287077,0.32271346
103447066,0.14899155,-0.10883091,0.32116258
103457466,0.14547665,-0.116076946,0.3182388
103467867,0.14547665,-0.116076946,0.3182388
103477466,0.14715074,-0.1105543,0.33735985
103486267,0.1507486,-0.121477,0.32270914
103497466,0.15602075,-0.11964633,0.32714188
103506267,0.14013483,-0.12506169,0.32856753
103517466,0.13313289,-0.13596907,0.3168116
103526284,0.14716464,-0.110569626,0.33441508
103537498,0.13309129,-0.13230772,0.3256271
103546312,0.14197572,-0.11972296,0.31235144
103556666,0.15423553,-0.12143102,0.3315601
103566268,0.15423553,-0.12143102,0.3315601
103576684,0.15423553,-0.12143102,0.3315601
103585466,0.14193358,-0.13775377,0.3212798
103595880,0.14187787,-0.14130782,0.33307764
103605470,0.15431848,-0.13959977,0.3139856
103616666,0.14012066,-0.13589245,0.33156872
103625467,0.14193349,-0.14136912,0.3212986
103636666,0.15249185,-0.1304924,0.32718167
103645467,0.1595493,-0.12326168,0.32717735
103656667,0.15780586,-0.121477,0.32274246
103665466,0.1437194,-0.11066157,0.31672987
103675067,0.1437194,-0.11066157,0.31672987
103684666,0.13664754,-0.13956912,0.31979182
103694288,0.14374658,-0.13599972,0.31097203
103704666,0.13309146,-0.12507702,0.32558945
103714299,0.1349181,-0.13418438,0.31239337
103724666,0.14721979,-0.1287077,0.32273012
103734267,0.14189222,-0.12324636,0.33003882
103744694,0.1507485,-0.12509234,0.32272795
103754273,0.13311908,-0.13233837,0.31973755
103764697,0.14720581,-0.13230772,0.32569373
103774267,0.13843328,-0.11609227,0.31526074
103784667,0.13843328,-0.11609227,0.31526074
103793467,0.1366478,-0.12872304,0.31973538
103804666,0.13840503,-0.1341384,0.32124433
103813475,0.15609007,-0.12695366,0.31245568
103824666,0.15607627,-0.123322986,0.31538165
103833499,0.13667588,-0.117907606,0.3137894
103844666,0.15249221,-0.11603097,0.32710642
103853499,0.14547648,-0.12330766,0.31827644
103864666,0.15247777,-0.13770778,0.33016405
103873516,0.15602084,-0.11603097,0.32712308
103893478,0.15602084,-0.11603097,0.32712308
103902267,0.14542104,-0.11601564,0.33001783
103912684,0.13489057,-0.12330766,0.31822646
103922285,0.14899093,-0.1341384,0.32129428
103932696,0.1525472,-0.14139976,0.31545907
103942267,0.15954939,-0.11964633,0.32715854
103952671,0.12783332,-0.12330766,0.31819314
103962267,0.15076223,-0.13233837,0.31982082
103972666,0.13666198,-0.11789228,0.3167342
103982273,0.12783314,-0.13053837,0.31823078
103992667,0.12783314,-0.13053837,0.31823078
104001499,0.14894949,-0.12324636,0.33007213
104012666,0.15253374,-0.12330766,0.31830975
104021466,0.14014864,-0.12869239,0.32564157
104032666,0.14900537,-0.1124616,0.31823665
104041493,0.14542086,-0.12324636,0.33005548
104052666,0.14017661,-0.121492326,0.31971443
104061469,0.1560064,-0.13770778,0.3301807
104072666,0.14371878,-0.13596907,0.31686157
104081467,0.14366345,-0.12506169,0.3285842
104101467,0.14366345,-0.12506169,0.3285842
104110318,0.14013492,-0.12144635,0.3285487
104120666,0.14550427,-0.12333831,0.3123869
104130266,0.15957701,-0.12690769,0.32130662
104140666,0.15079021,-0.12513833,0.31389368
104150267,0.13132015,-0.12687704,0.3270629
104160666,0.14016262,-0.12509234,0.32267797
104170267,0.14549029,-0.12693833,0.3153505
104180666,0.13657804,-0.1394925,0.33451563
104190270,0.15431875,-0.12875369,0.31392914
104200703,0.15431875,-0.12875369,0.31392914
104209472,0.14901882,-0.1305537,0.31538597
104220666,0.15250584,-0.12689236,0.32421806
104229480,0.15247813,-0.12324636,0.3300888
104240666,0.13837767,-0.11603097,0.32703978
104249472,0.14190613,-0.12326168,0.32709408
104260666,0.12251991,-0.10701557,0.32250062
104269481,0.15251957,-0.1341384,0.32131094
104280666,0.15078995,-0.1359844,0.3139501
104289472,0.1366202,-0.121461675,0.3255873
104309487,0.1366202,-0.121461675,0.3255873
104319111,0.133105,-0.13955379,0.32271993
104328667,0.14193358,-0.13775377,0.3212798
104339087,0.15434656,-0.12878434,0.30803964
104349508,0.1454206,-0.13409242,0.33011192
104358298,0.14896321,-0.1304924,0.327165
104368667,0.14020424,-0.12875369,0.3138625
104378301,0.14894949,-0.12324636,0.33007213
104388666,0.14724751,-0.1323537,0.31685942
104399873,0.15780595,-0.117861636,0.32272363
104408668,0.15780595,-0.117861636,0.32272363
104417467,0.14544822,-0.14135379,0.32426003
104427866,0.1454763,-0.13053837,0.31831405
104437466,0.15777798,-0.12506169,0.3286508
104447866,0.13664807,-0.11787696,0.31967893
104457467,0.1401628,-0.117861636,0.32264036
104467866,0.13840538,-0.119676985,0.32116905
104477466,0.15607662,-0.10886156,0.3153064
104487866,0.1472337,-0.12872304,0.31978536
104498266,0.15429094,-0.12872304,0.31981868
104507867,0.15429094,-0.12872304,0.31981868
104517485,0.15429094,-0.12872304,0.31981868
104526315,0.15429121,-0.11787696,0.31976223
104536667,0.1578334,-0.1323537,0.3169094
104547871,0.16134812,-0.13233837,0.3198708
104556667,0.13137585,-0.123322986,0.31526506
104567906,0.1489633,-0.12687704,0.3271462
104576667,0.15426297,-0.1359231,0.32574585
104587904,0.15426333,-0.121461675,0.32567057
104596666,0.14367718,-0.13230772,0.32567707
104607915,0.14722006,-0.117861636,0.32267368
104616667,0.14722006,-0.117861636,0.32267368
104625467,0.13844663,-0.13779974,0.31242883
104635866,0.14371923,-0.11789228,0.3167675
104645467,0.15077604,-0.13596907,0.3168949
104655866,0.15072098,-0.11421563,0.32856104
104665467,0.140149,-0.11423095,0.32556632
104675866,0.14543504,-0.11241562,0.3270543
104685485,0.15776408,-0.12504637,0.33159557
104695866,0.15079004,-0.13236903,0.3139313
104705511,0.13137567,-0.1305537,0.31530267
104715915,0.13137567,-0.1305537,0.31530267
104726267,0.13137567,-0.1305537,0.31530267
104735889,0.13659248,-0.11781566,0.331458
104744667,0.15426333,-0.121461675,0.32567057
104755883,0.16140409,-0.11793826,0.3080165
104764672,0.14899102,-0.13052306,0.32127547
104775894,0.15430476,-0.1323537,0.31689274
104784667,0.13668925,-0.13961509,0.31095755
104795870,0.14548984,-0.14501512,0.31544456
104804675,0.15426315,-0.12869239,0.3257082
104815882,0.14727558,-0.1215383,0.31091344
104824667,0.14727558,-0.1215383,0.31091344
104843866,0.13668951,-0.12876901,0.3109011
104853509,0.15783376,-0.11789228,0.31683412
104863866,0.15430458,-0.13958444,0.31693035
104873512,0.14899138,-0.11606162,0.32120022
104883914,0.14019042,-0.125123,0.31678846
104893467,0.14190568,-0.14133847,0.32718813
104903894,0.15073462,-0.12507702,0.32567275
104913468,0.14366354,-0.12144635,0.32856536
104923882,0.14893523,-0.13769247,0.33309215
104934267,0.14893523,-0.13769247,0.33309215
104943882,0.14013438,-0.14313847,0.3286616
104952667,0.14370514,-0.12510768,0.3197499
104963899,0.14012048,-0.14312315,0.33160636
104972667,0.14894949,-0.12324636,0.33007213
104983883,0.15776345,-0.15035386,0.33172727
104992667,0.15603483,-0.112430945,0.32415947
105003879,0.15076241,-0.12510768,0.3197832
105012667,0.14894886,-0.14855386,0.33020383
105023912,0.12954885,-0.12867706,0.32853636
105032667,0.12954885,-0.12867706,0.32853636
105051911,0.14371923,-0.11789228,0.3167675
105062267,0.15076268,-0.114261605,0.31972677
105071901,0.13840547,-0.11606162,0.32115024
105082266,0.15960464,-0.13416904,0.31545475
105091905,0.1454763,-0.13053837,0.31831405
105103068,0.13664754,-0.13956912,0.31979182
105111893,0.14196147,-0.13416904,0.31537145
105122284,0.15074833,-0.13232304,0.3227656
105131899,0.15780577,-0.12509234,0.32276127
105141467,0.15780577,-0.12509234,0.32276127
105151084,0.15254755,-0.12693833,0.3153838
105160679,0.14374685,-0.12515365,0.3109156
105171073,0.15424907,-0.13590777,0.3286906
105180667,0.15956338,-0.116046295,0.32419494
105191068,0.14903316,-0.11249225,0.3123471
105200667,0.15072036,-0.13952313,0.32869276
105211066,0.13487658,-0.12690769,0.32119003
105220666,0.15253401,-0.1124616,0.3182533
105231066,0.14899111,-0.12690769,0.32125667
105240667,0.14899111,-0.12690769,0.32125667
105251067,0.14899111,-0.12690769,0.32125667
105259905,0.1489912,-0.123292334,0.32123783
105271074,0.14019033,-0.12873836,0.3168073
105279872,0.14187823,-0.12684639,0.3330024
105291066,0.147192,-0.12867706,0.32861966
105299893,0.14723387,-0.121492326,0.31974772
105311076,0.1366202,-0.121461675,0.3255873
105319867,0.14013492,-0.12144635,0.3285487
105331066,0.15603429,-0.13412307,0.32427236
105339866,0.14724724,-0.14319977,0.31691587
105349468,0.14724724,-0.14319977,0.31691587
105359875,0.14724724,-0.14319977,0.31691587
105368712,0.1454763,-0.13053837,0.31831405
105379066,0.13311917,-0.12872304,0.31971872
105388679,0.1383634,-0.13047707,0.3300598
105399067,0.14027347,-0.13967639,0.29919514
105408681,0.14721952,-0.13955379,0.32278657
105419066,0.14903289,-0.12333831,0.31240356
105428675,0.13668942,-0.13238434,0.3109199
105439066,0.14013465,-0.13229239,0.32860515
105449466,0.13667597,-0.11429225,0.3137706
105459067,0.13667597,-0.11429225,0.3137706
105467867,0.13666171,-0.12873836,0.31679064
105479066,0.14549065,-0.11247692,0.31527522
105487867,0.1507903,-0.12152297,0.31387484
105499066,0.14189214,-0.1268617,0.33005762
105507867,0.15080385,-0.13599972,0.31100535
105519066,0.14369088,-0.13955379,0.3227699
105527887,0.14201662,-0.15230712,0.30368647
105538266,0.14894967,-0.11601564,0.3300345
105547870,0.15780586,-0.121477,0.32274246
105567868,0.15780586,-0.121477,0.32274246
105576689,0.15078995,-0.1359844,0.3139501
105587066,0.15433292,-0.11792293,0.31092793
105596699,0.14367726,-0.12869239,0.32565823
105607066,0.15253365,-0.12692301,0.31832856
105616666,0.14194801,-0.116076946,0.31822214
105627068,0.13494617,-0.12336896,0.30644742
105637466,0.1349181,-0.13418438,0.31239337
105647066,0.13138974,-0.12333831,0.31232026
105656674,0.15777753,-0.14313847,0.3287449
105667067,0.15777753,-0.14313847,0.3287449
105675867,0.15779161,-0.1359231,0.3257625
105687066,0.143677,-0.13953847,0.32571468
105695886,0.1384053,-0.123292334,0.32118788
105707067,0.15070672,-0.12866174,0.33158106
105715867,0.15786174,-0.110692225,0.31090698
105727083,0.14196165,-0.12693833,0.31533384
105735867,0.13839094,-0.14135379,0.3242267
105747073,0.15429112,-0.121492326,0.31978104
105755877,0.14890762,-0.1304311,0.33894402
105775867,0.14890762,-0.1304311,0.33894402
105784711,0.14019024,-0.1323537,0.3168261
105795074,0.15070681,-0.12504637,0.33156225
105804668,0.1436631,-0.13952313,0.32865945
105815078,0.15963243,-0.1341997,0.30956522
105824707,0.1384052,-0.12690769,0.3212067
105835073,0.14373295,-0.12513833,0.31386036
105844688,0.14013456,-0.13590777,0.32862398
105855067,0.1366896,-0.12515365,0.31088227
105864712,0.14904688,-0.11973829,0.30944
105875068,0.14904688,-0.11973829,0.30944
105884666,0.13486277,-0.12327701,0.32411596
105894266,0.1489773,-0.12327701,0.3241826
105903867,0.1366478,-0.12872304,0.31973538
105914274,0.15424952,-0.117830984,0.32859653
105923867,0.14550444,-0.1161076,0.31234926
105934266,0.14899102,-0.13052306,0.32127547
105943867,0.14730321,-0.12879966,0.30506155
105954266,0.13840476,-0.14498448,0.32130075
105963867,0.15426306,-0.13230772,0.32572702
105974267,0.15426306,-0.13230772,0.32572702
105983867,0.15426306,-0.13230772,0.32572702
105994266,0.15072054,-0.13229239,0.32865512
106003067,0.1437186,-0.14319977,0.3168992
106013514,0.14728957,-0.11793826,0.30794987
106023067,0.14899075,-0.14136912,0.32133192
106034269,0.15249212,-0.11964633,0.32712522
106043068,0.1507485,-0.12509234,0.32272795
106054313,0.14550409,-0.13056903,0.3124245
106063084,0.14904697,-0.116122924,0.30942115
106074300,0.14019051,-0.121507645,0.31676966
106091867,0.15250558,-0.13773844,0.3242745
106102266,0.15602084,-0.11603097,0.32712308
106111867,0.1384192,-0.12330766,0.31824312
106122266,0.15956329,-0.11966166,0.32421374
106131882,0.15436019,-0.13964574,0.3051513
106142266,0.15254737,-0.13416904,0.31542143
106151867,0.1384331,-0.123322986,0.31529835
106162273,0.16664806,-0.13053837,0.318414
106171885,0.1366339,-0.1287077,0.32268015
106182266,0.16141737,-0.14326108,0.30520344
106192667,0.16141737,-0.14326108,0.30520344
106200713,0.15965307,-0.14326108,0.30519512
106202306,0.15960455,-0.1377844,0.31547356
106211067,0.13670386,-0.11070755,0.30786225
106222315,0.14366345,-0.12506169,0.3285842
106231084,0.14020441,-0.12152297,0.31382486
106242310,0.14190648,-0.108800255,0.3270188
106251097,0.14014864,-0.12869239,0.32564157
106262279,0.15081811,-0.12155362,0.30798534
106271069,0.14726132,-0.1359844,0.31393346
106282288,0.15781958,-0.12872304,0.31983534
106291067,0.15781958,-0.12872304,0.31983534
106310266,0.13489057,-0.12330766,0.31822646
106319867,0.15429085,-0.13233837,0.31983748
106330266,0.14724751,-0.1323537,0.31685942
106339880,0.14193411,-0.11606162,0.3211669
106350267,0.15249167,-0.13772312,0.3272193
106359867,0.145504,-0.13418438,0.31244335
106370307,0.14197536,-0.13418438,0.3124267
106390273,0.14023195,-0.13239968,0.3079918
106400667,0.14023195,-0.13239968,0.3079918
106410273,0.1418924,-0.11601564,0.3300012
106419091,0.14544867,-0.12327701,0.32416594
106430266,0.15429121,-0.11787696,0.31976223
106737466,0.13664798,-0.121492326,0.31969777
106746267,0.15069264,-0.13587713,0.33456343
106757466,0.14376067,-0.12878434,0.30798966
106766266,0.1384331,-0.123322986,0.31529835
106777466,0.1577778,-0.13229239,0.32868844
106786267,0.14017634,-0.13233837,0.31977087
106797466,0.13132024,-0.12326168,0.3270441
106806267,0.14726168,-0.12152297,0.31385818
106817466,0.12783314,-0.13053837,0.31823078
107569467,0.14544885,-0.116046295,0.3241283
107578289,0.15073408,-0.14676917,0.32578564
107588666,0.13664772,-0.13233837,0.3197542
107598266,0.14191976,-0.13412307,0.32420573
107608694,0.13668934,-0.13599972,0.31093872
107618266,0.14369142,-0.117861636,0.32265702
107628683,0.14190604,-0.12687704,0.32711288
107638266,0.14193366,-0.1341384,0.32126096
107648677,0.14190622,-0.11964633,0.32707524
107658267,0.15253365,-0.12692301,0.31832856
107668681,0.15777807,-0.12144635,0.328632
107678267,0.15777807,-0.12144635,0.328632
107688666,0.14370532,-0.11787696,0.31971225
107697467,0.13666162,-0.1323537,0.31680945
107708666,0.1471641,-0.13226175,0.33452797
107717467,0.14719218,-0.12144635,0.32858202
107728666,0.14543477,-0.12326168,0.32711074
107737476,0.14193375,-0.13052306,0.32124215
107748666,0.15070717,-0.11058495,0.331487
107757473,0.14021796,-0.13599972,0.31095538
107768666,0.1507208,-0.12144635,0.32859868
107777467,0.1507208,-0.12144635,0.32859868
107796683,0.14900519,-0.11969231,0.31827426
107806279,0.13664816,-0.114261605,0.31966013
107816698,0.15603465,-0.11966166,0.32419708
107826267,0.14728948,-0.12155362,0.30796868
107836666,0.14193375,-0.13052306,0.32124215
107846267,0.15602048,-0.1304924,0.32719833
107856666,0.15247786,-0.13409242,0.33014524
107866267,0.14542077,-0.1268617,0.33007428
107876666,0.14193366,-0.1341384,0.32126096
107887072,0.14193366,-0.1341384,0.32126096
107896667,0.14193366,-0.1341384,0.32126096
107905480,0.14370506,-0.12872304,0.3197687
107916666,0.14544849,-0.13050772,0.32420358
107925475,0.13664816,-0.114261605,0.31966013
107936666,0.14894949,-0.12324636,0.33007213
107945467,0.14013465,-0.13229239,0.32860515
107956666,0.15249194,-0.12687704,0.32716286
107965467,0.118976586,-0.13953847,0.3255981
107976666,0.15249203,-0.12326168,0.32714403
107985505,0.14366354,-0.12144635,0.32856536
108004666,0.16136238,-0.11789228,0.31685078
108014266,0.15250629,-0.10881558,0.324124
108024666,0.14371896,-0.12873836,0.31682396
108034266,0.14012066,-0.13589245,0.33156872
108044666,0.15249176,-0.13410775,0.32720047
108054267,0.17189269,-0.117830984,0.3286798
108064666,0.14546266,-0.119676985,0.32120237
108074267,0.14373268,-0.1359844,0.3139168
108084666,0.122533366,-0.12510768,0.31964993
108094266,0.14899102,-0.13052306,0.32127547
108104667,0.14899102,-0.13052306,0.32127547
108113467,0.14896303,-0.13772312,0.32720265
108123866,0.13307756,-0.12506169,0.32853422
108133467,0.14373268,-0.1359844,0.3139168
108143866,0.14720617,-0.11784631,0.32561845
108153505,0.15599303,-0.116000324,0.33301258
108164666,0.14190541,-0.15218453,0.32724458
108173474,0.13844681,-0.13056903,0.31239122
108184666,0.13843283,-0.13416904,0.3153548
108193483,0.14366327,-0.13229239,0.3286218
108203866,0.1366757,-0.12513833,0.31382704
108213485,0.1366757,-0.12513833,0.31382704
108223867,0.13487658,-0.12690769,0.32119003
108232667,0.14900483,-0.13415372,0.31834954
108243066,0.13486277,-0.12327701,0.32411596
108252677,0.15077622,-0.12873836,0.31685725
108263884,0.15251984,-0.123292334,0.3212545
108272676,0.13310508,-0.13593842,0.32270113
108283903,0.16138965,-0.13961509,0.31107414
108292666,0.14900483,-0.13415372,0.31834954
108303867,0.15077604,-0.13596907,0.3168949
108312667,0.15077604,-0.13596907,0.3168949
108322267,0.15077604,-0.13596907,0.3168949
108331866,0.14189196,-0.13409242,0.33009526
108341499,0.14721997,-0.121477,0.32269248
108351866,0.13306375,-0.12143102,0.33146015
108362303,0.14016253,-0.1287077,0.3226968
108371866,0.13491818,-0.13056903,0.31237456
108381484,0.13666198,-0.11789228,0.3167342
108391866,0.13487667,-0.123292334,0.32117122
108401521,0.12956284,-0.12507702,0.3255728
108411879,0.1402184,-0.11792293,0.31086132
108421467,0.1402184,-0.11792293,0.31086132
108431910,0.1402184,-0.11792293,0.31086132
108440667,0.14017661,-0.121492326,0.31971443
108451875,0.15074815,-0.13955379,0.3228032
108460666,0.14369133,-0.121477,0.32267582
108471892,0.1472337,-0.12872304,0.31978536
108480666,0.15424907,-0.13590777,0.3286906
108491874,0.13844717,-0.1161076,0.31231594
108500666,0.15247795,-0.13047707,0.33012643
108511869,0.13660602,-0.13229239,0.3285885
108520667,0.14016226,-0.13955379,0.32275325
108530311,0.14016226,-0.13955379,0.32275325
108540673,0.14016226,-0.13955379,0.32275325
108549502,0.14191994,-0.12689236,0.3241681
108559866,0.14549011,-0.13416904,0.3153881
108569472,0.14016244,-0.13232304,0.3227156
108579885,0.14899075,-0.14136912,0.32133192
108589471,0.15429103,-0.12510768,0.31979987
108599884,0.14013474,-0.12867706,0.32858634
