timestamp,timestamp_sample,control[0],control[1],control[2],control[3],control[4],control[5],control[6],control[7]
93443963,93443869,-0.0061454633,-0.0075222184,-0.4209437,-0.0,0.0,0.0,0.0,0.0
93491945,93491869,-0.005627011,-0.007843316,-0.42125902,-0.0,0.0,0.0,0.0,0.0
93495986,93495869,-0.0056161564,-0.007933787,-0.42132536,-0.0,0.0,0.0,0.0,0.0
93499965,93499889,-0.0058480655,-0.008376058,-0.42130312,-0.0,0.0,0.0,0.0,0.0
93503969,93503893,-0.0061600003,-0.007964998,-0.42127553,-0.0,0.0,0.0,0.0,0.0
93507955,93507875,-0.0061980877,-0.00786962,-0.42121193,-0.0,0.0,0.0,0.0,0.0
93511945,93511869,-0.0062669655,-0.007994182,-0.42117316,-0.0,0.0,0.0,0.0,0.0
93515988,93515882,-0.0056923386,-0.007855,-0.42121005,-0.0,0.0,0.0,0.0,0.0
93519945,93519869,-0.004878418,-0.007906575,-0.42122442,-0.0,0.0,0.0,0.0,0.0
93523999,93523882,-0.0047560167,-0.007564515,-0.42118192,-0.0,0.0,0.0,0.0,0.0
93527951,93527875,-0.0049871346,-0.00732386,-0.42120624,-0.0,0.0,0.0,0.0,0.0
93531952,93531868,-0.004793975,-0.007145276,-0.4212502,-0.0,0.0,0.0,0.0,0.0
93535983,93535869,-0.005107128,-0.007610566,-0.42132568,-0.0,0.0,0.0,0.0,0.0
93539945,93539869,-0.006090319,-0.008038793,-0.42135525,-0.0,0.0,0.0,0.0,0.0
93543979,93543868,-0.006134438,-0.0082270615,-0.4212853,-0.0,0.0,0.0,0.0,0.0
93547952,93547875,-0.0059505203,-0.007692849,-0.4212857,-0.0,0.0,0.0,0.0,0.0
93551945,93551869,-0.005610576,-0.0071495804,-0.42133674,-0.0,0.0,0.0,0.0,0.0
93555952,93555868,-0.005019613,-0.0070643486,-0.4213806,-0.0,0.0,0.0,0.0,0.0
93559945,93559869,-0.0048979977,-0.007187002,-0.4213991,-0.0,0.0,0.0,0.0,0.0
93563986,93563910,-0.005647565,-0.007553157,-0.4213706,-0.0,0.0,0.0,0.0,0.0
93567952,93567875,-0.0059689614,-0.008076088,-0.42129,-0.0,0.0,0.0,0.0,0.0
93571982,93571902,-0.0058877696,-0.007861289,-0.42118317,-0.0,0.0,0.0,0.0,0.0
93575945,93575869,-0.0053438577,-0.0074239373,-0.42110568,-0.0,0.0,0.0,0.0,0.0
93579945,93579869,-0.0052133612,-0.0072615347,-0.4210301,-0.0,0.0,0.0,0.0,0.0
93584010,93583929,-0.0052493853,-0.0076673017,-0.42099792,-0.0,0.0,0.0,0.0,0.0
93587946,93587869,-0.0051746913,-0.007707507,-0.42104173,-0.0,0.0,0.0,0.0,0.0
93591949,93591870,-0.005755818,-0.008063833,-0.42116672,-0.0,0.0,0.0,0.0,0.0
93595955,93595879,-0.0057251067,-0.008216758,-0.42109847,-0.0,0.0,0.0,0.0,0.0
93599961,93599882,-0.0057324627,-0.008048943,-0.4209953,-0.0,0.0,0.0,0.0,0.0
93603975,93603869,-0.00575143,-0.008031029,-0.42098293,-0.0,0.0,0.0,0.0,0.0
93607982,93607869,-0.005509547,-0.007939393,-0.42105627,-0.0,0.0,0.0,0.0,0.0
93611234,93611119,-0.004937599,-0.0073308498,-0.4211968,-0.0,0.0,0.0,0.0,0.0
93615148,93615068,-0.00537016,-0.0067672,-0.42137414,-0.0,0.0,0.0,0.0,0.0
93618391,93618314,-0.004926234,-0.0066690105,-0.42136094,-0.0,0.0,0.0,0.0,0.0
93623149,93623069,-0.0052150395,-0.007544549,-0.42127815,-0.0,0.0,0.0,0.0,0.0
93627149,93627077,-0.005704122,-0.0078015514,-0.4211997,-0.0,0.0,0.0,0.0,0.0
93631194,93631112,-0.0056673465,-0.007935237,-0.42112264,-0.0,0.0,0.0,0.0,0.0
93635951,93635875,-0.0054299356,-0.0077781626,-0.42101812,-0.0,0.0,0.0,0.0,0.0
93639945,93639869,-0.005667806,-0.007491362,-0.42103454,-0.0,0.0,0.0,0.0,0.0
93643972,93643869,-0.0055425367,-0.007831546,-0.42116514,-0.0,0.0,0.0,0.0,0.0
93647970,93647890,-0.0050121313,-0.0077222427,-0.4212687,-0.0,0.0,0.0,0.0,0.0
93651987,93651907,-0.0054137665,-0.007930427,-0.42143914,-0.0,0.0,0.0,0.0,0.0
93655982,93655900,-0.0058315587,-0.008229017,-0.4214456,-0.0,0.0,0.0,0.0,0.0
93659956,93659876,-0.0058000926,-0.007907432,-0.42142192,-0.0,0.0,0.0,0.0,0.0
93663983,93663869,-0.0052142604,-0.0069708764,-0.42136773,-0.0,0.0,0.0,0.0,0.0
93668008,93667917,-0.0053426083,-0.0074199326,-0.42129546,-0.0,0.0,0.0,0.0,0.0
93672038,93671918,-0.0056658564,-0.00782272,-0.421273,-0.0,0.0,0.0,0.0,0.0
93675951,93675875,-0.0057696477,-0.007955652,-0.42124063,-0.0,0.0,0.0,0.0,0.0
93679162,93679090,-0.005848681,-0.0076205814,-0.42123967,-0.0,0.0,0.0,0.0,0.0
93683148,93683068,-0.005836496,-0.0074773133,-0.4212509,-0.0,0.0,0.0,0.0,0.0
93687141,93687069,-0.0057282844,-0.007458214,-0.42120573,-0.0,0.0,0.0,0.0,0.0
93691188,93691070,-0.0054123513,-0.0074200463,-0.42113534,-0.0,0.0,0.0,0.0,0.0
93695186,93695069,-0.0053784354,-0.007460759,-0.421077,-0.0,0.0,0.0,0.0,0.0
93698399,93698316,-0.0054748273,-0.006856895,-0.42104968,-0.0,0.0,0.0,0.0,0.0
93703153,93703068,-0.0058360985,-0.007596306,-0.4209698,-0.0,0.0,0.0,0.0,0.0
93707151,93707075,-0.005511334,-0.007802199,-0.42097387,-0.0,0.0,0.0,0.0,0.0
93711177,93711069,-0.005316524,-0.007832218,-0.4210247,-0.0,0.0,0.0,0.0,0.0
93715169,93715086,-0.0052065477,-0.007996395,-0.42114702,-0.0,0.0,0.0,0.0,0.0
93718423,93718317,-0.00565572,-0.007972777,-0.4213111,-0.0,0.0,0.0,0.0,0.0
93723141,93723069,-0.005687005,-0.007949329,-0.42135063,-0.0,0.0,0.0,0.0,0.0
93727161,93727082,-0.0057436395,-0.007785835,-0.42125854,-0.0,0.0,0.0,0.0,0.0
93731182,93731069,-0.0060034185,-0.007831237,-0.42117316,-0.0,0.0,0.0,0.0,0.0
93735170,93735090,-0.005950842,-0.007523847,-0.42115614,-0.0,0.0,0.0,0.0,0.0
93739176,93739096,-0.0058613527,-0.0072876974,-0.42120796,-0.0,0.0,0.0,0.0,0.0
93743149,93743069,-0.005567827,-0.0075964597,-0.42125407,-0.0,0.0,0.0,0.0,0.0
93747150,93747070,-0.0053194147,-0.007396674,-0.42127237,-0.0,0.0,0.0,0.0,0.0
93751141,93751069,-0.005340859,-0.0075705633,-0.42120114,-0.0,0.0,0.0,0.0,0.0
93755154,93755075,-0.0055419393,-0.0076686805,-0.42106476,-0.0,0.0,0.0,0.0,0.0
93759273,93759076,-0.005906211,-0.0076617706,-0.4209504,-0.0,0.0,0.0,0.0,0.0
93763170,93763087,-0.005677993,-0.0076547824,-0.42098284,-0.0,0.0,0.0,0.0,0.0
93767149,93767069,-0.005553088,-0.007759435,-0.42107993,-0.0,0.0,0.0,0.0,0.0
93771147,93771074,-0.005771011,-0.007337608,-0.4211447,-0.0,0.0,0.0,0.0,0.0
93775154,93775075,-0.005823019,-0.007373097,-0.42111054,-0.0,0.0,0.0,0.0,0.0
93779212,93779096,-0.0053715855,-0.0075096106,-0.42106715,-0.0,0.0,0.0,0.0,0.0
93783148,93783068,-0.0049106074,-0.0071834233,-0.42104873,-0.0,0.0,0.0,0.0,0.0
93787148,93787068,-0.0043976074,-0.0072123064,-0.42100844,-0.0,0.0,0.0,0.0,0.0
93791150,93791069,-0.0047482303,-0.0076452265,-0.42098904,-0.0,0.0,0.0,0.0,0.0
93795154,93795075,-0.0056623416,-0.0074174376,-0.42104384,-0.0,0.0,0.0,0.0,0.0
93799196,93799086,-0.0066241683,-0.007419318,-0.42096302,-0.0,0.0,0.0,0.0,0.0
93803147,93803075,-0.0065811016,-0.007690974,-0.42085895,-0.0,0.0,0.0,0.0,0.0
93807148,93807068,-0.005422419,-0.007650877,-0.42081484,-0.0,0.0,0.0,0.0,0.0
93811148,93811068,-0.004897444,-0.007910193,-0.4209434,-0.0,0.0,0.0,0.0,0.0
93815156,93815076,-0.0055163107,-0.0077344873,-0.42107973,-0.0,0.0,0.0,0.0,0.0
93819295,93819118,-0.0057327454,-0.008072791,-0.42103395,-0.0,0.0,0.0,0.0,0.0
93823150,93823069,-0.005880051,-0.008345671,-0.4209238,-0.0,0.0,0.0,0.0,0.0
93827161,93827089,-0.0055018147,-0.007787934,-0.4209357,-0.0,0.0,0.0,0.0,0.0
93831148,93831069,-0.00544097,-0.0075964024,-0.42104205,-0.0,0.0,0.0,0.0,0.0
93835154,93835082,-0.005561278,-0.007844309,-0.42108575,-0.0,0.0,0.0,0.0,0.0
93839177,93839070,-0.0055073192,-0.008056385,-0.4212238,-0.0,0.0,0.0,0.0,0.0
93843192,93843069,-0.005245707,-0.0074604866,-0.42125082,-0.0,0.0,0.0,0.0,0.0
93847200,93847118,-0.00567742,-0.007220104,-0.4212923,-0.0,0.0,0.0,0.0,0.0
93851148,93851076,-0.005775617,-0.007106598,-0.42122552,-0.0,0.0,0.0,0.0,0.0
93855141,93855069,-0.0058273696,-0.007225701,-0.4211479,-0.0,0.0,0.0,0.0,0.0
93859189,93859069,-0.005603087,-0.0075518372,-0.4210437,-0.0,0.0,0.0,0.0,0.0
93863188,93863076,-0.0054919897,-0.0077938708,-0.4210206,-0.0,0.0,0.0,0.0,0.0
93867189,93867106,-0.0059482525,-0.007862356,-0.4209775,-0.0,0.0,0.0,0.0,0.0
93871144,93871069,-0.0061331554,-0.0075728823,-0.42095467,-0.0,0.0,0.0,0.0,0.0
93875164,93875080,-0.0055776774,-0.007403241,-0.42098236,-0.0,0.0,0.0,0.0,0.0
93879178,93879075,-0.005710847,-0.007856648,-0.42093173,-0.0,0.0,0.0,0.0,0.0
93883186,93883089,-0.0054653543,-0.00780777,-0.42093593,-0.0,0.0,0.0,0.0,0.0
93887161,93887069,-0.0055923285,-0.008075073,-0.42104027,-0.0,0.0,0.0,0.0,0.0
93891153,93891069,-0.0052068722,-0.007838519,-0.42122227,-0.0,0.0,0.0,0.0,0.0
93895151,93895075,-0.0049548303,-0.0075997286,-0.42132542,-0.0,0.0,0.0,0.0,0.0
93899160,93899069,-0.004874933,-0.007588342,-0.42131916,-0.0,0.0,0.0,0.0,0.0
93903167,93903072,-0.005881835,-0.007479724,-0.42119917,-0.0,0.0,0.0,0.0,0.0
93907160,93907070,-0.0066100075,-0.006960175,-0.42112872,-0.0,0.0,0.0,0.0,0.0
93911149,93911069,-0.0059991423,-0.007407398,-0.42118654,-0.0,0.0,0.0,0.0,0.0
93915147,93915075,-0.0051638884,-0.007379051,-0.4212297,-0.0,0.0,0.0,0.0,0.0
93919148,93919068,-0.005114761,-0.0072800457,-0.42118096,-0.0,0.0,0.0,0.0,0.0
93923152,93923081,-0.0054948963,-0.0076409294,-0.42106605,-0.0,0.0,0.0,0.0,0.0
93927226,93927090,-0.0056811688,-0.0076294513,-0.42094252,-0.0,0.0,0.0,0.0,0.0
93931151,93931068,-0.0055792257,-0.007597276,-0.42089483,-0.0,0.0,0.0,0.0,0.0
93935157,93935076,-0.0056653596,-0.0077120457,-0.42093492,-0.0,0.0,0.0,0.0,0.0
93939148,93939069,-0.00560899,-0.007400338,-0.42096815,-0.0,0.0,0.0,0.0,0.0
93943166,93943094,-0.00564379,-0.007890776,-0.42096385,-0.0,0.0,0.0,0.0,0.0
93947229,93947069,-0.0053723315,-0.008018866,-0.4209159,-0.0,0.0,0.0,0.0,0.0
93951141,93951069,-0.0056846007,-0.007186377,-0.42097926,-0.0,0.0,0.0,0.0,0.0
93955154,93955070,-0.005940394,-0.0068662786,-0.42102262,-0.0,0.0,0.0,0.0,0.0
93959145,93959069,-0.005745819,-0.0073115486,-0.42096773,-0.0,0.0,0.0,0.0,0.0
93963158,93963075,-0.0059215836,-0.0074727125,-0.4209598,-0.0,0.0,0.0,0.0,0.0
93967205,93967089,-0.0056029344,-0.0075494493,-0.42101622,-0.0,0.0,0.0,0.0,0.0
93971144,93971069,-0.0054785153,-0.007599467,-0.42111993,-0.0,0.0,0.0,0.0,0.0
93975148,93975068,-0.0053738407,-0.0076507013,-0.4211092,-0.0,0.0,0.0,0.0,0.0
93979148,93979075,-0.005531133,-0.007340976,-0.42107317,-0.0,0.0,0.0,0.0,0.0
93983156,93983075,-0.005606368,-0.0074778832,-0.4210384,-0.0,0.0,0.0,0.0,0.0
93987233,93987116,-0.005505206,-0.007568929,-0.42108425,-0.0,0.0,0.0,0.0,0.0
93991148,93991068,-0.0055501675,-0.00749435,-0.42110968,-0.0,0.0,0.0,0.0,0.0
93995179,93995107,-0.004857725,-0.0071642925,-0.42103964,-0.0,0.0,0.0,0.0,0.0
93999150,93999070,-0.004883023,-0.00785022,-0.4209942,-0.0,0.0,0.0,0.0,0.0
94003158,94003079,-0.0052544232,-0.007971796,-0.4209314,-0.0,0.0,0.0,0.0,0.0
94007183,94007069,-0.005538547,-0.0073697693,-0.42085385,-0.0,0.0,0.0,0.0,0.0
94011188,94011075,-0.005377033,-0.007139497,-0.4208448,-0.0,0.0,0.0,0.0,0.0
94015197,94015117,-0.0055777123,-0.007186366,-0.4209251,-0.0,0.0,0.0,0.0,0.0
94019148,94019076,-0.0058078575,-0.007283592,-0.42102203,-0.0,0.0,0.0,0.0,0.0
94023154,94023075,-0.0061238287,-0.0075588664,-0.42107797,-0.0,0.0,0.0,0.0,0.0
94027149,94027069,-0.005750122,-0.007957998,-0.42100236,-0.0,0.0,0.0,0.0,0.0
94031197,94031069,-0.0053998595,-0.008629151,-0.42094216,-0.0,0.0,0.0,0.0,0.0
94035192,94035113,-0.005507198,-0.008193703,-0.42096257,-0.0,0.0,0.0,0.0,0.0
94039148,94039068,-0.0056259655,-0.0076070954,-0.42099434,-0.0,0.0,0.0,0.0,0.0
94043158,94043086,-0.0054415814,-0.0070753535,-0.42108828,-0.0,0.0,0.0,0.0,0.0
94047148,94047068,-0.0047598886,-0.0072236895,-0.4211474,-0.0,0.0,0.0,0.0,0.0
94051167,94051086,-0.0049757245,-0.007389966,-0.4209783,-0.0,0.0,0.0,0.0,0.0
94055186,94055090,-0.0055257143,-0.007849427,-0.42084917,-0.0,0.0,0.0,0.0,0.0
94059141,94059069,-0.005992264,-0.008335481,-0.4208685,-0.0,0.0,0.0,0.0,0.0
94063175,94063085,-0.0059437007,-0.007840769,-0.42094904,-0.0,0.0,0.0,0.0,0.0
94067150,94067069,-0.006052275,-0.007645825,-0.42093477,-0.0,0.0,0.0,0.0,0.0
94071206,94071114,-0.0058446373,-0.00714994,-0.42076015,-0.0,0.0,0.0,0.0,0.0
94075215,94075069,-0.0054142284,-0.0070474013,-0.4206206,-0.0,0.0,0.0,0.0,0.0
94079141,94079069,-0.005262686,-0.007591721,-0.42062718,-0.0,0.0,0.0,0.0,0.0
94083154,94083075,-0.005422289,-0.0075477534,-0.42060405,-0.0,0.0,0.0,0.0,0.0
94087148,94087076,-0.004892162,-0.007679216,-0.42067176,-0.0,0.0,0.0,0.0,0.0
94091148,94091068,-0.0055849836,-0.0076231584,-0.42083326,-0.0,0.0,0.0,0.0,0.0
94095223,94095069,-0.0056388266,-0.008282394,-0.42104802,-0.0,0.0,0.0,0.0,0.0
94099154,94099069,-0.0057285274,-0.008049977,-0.42109177,-0.0,0.0,0.0,0.0,0.0
94103151,94103075,-0.005695863,-0.00798498,-0.42105156,-0.0,0.0,0.0,0.0,0.0
94107156,94107074,-0.0056119408,-0.0076183677,-0.42093974,-0.0,0.0,0.0,0.0,0.0
94111150,94111074,-0.00569238,-0.007846239,-0.42090788,-0.0,0.0,0.0,0.0,0.0
94115223,94115069,-0.005032274,-0.007727923,-0.42089364,-0.0,0.0,0.0,0.0,0.0
94119148,94119068,-0.0046231723,-0.0074041993,-0.4209256,-0.0,0.0,0.0,0.0,0.0
94123164,94123076,-0.0054901894,-0.0073080044,-0.4209315,-0.0,0.0,0.0,0.0,0.0
94127149,94127069,-0.0058125444,-0.007905085,-0.42091843,-0.0,0.0,0.0,0.0,0.0
94131148,94131075,-0.0058791596,-0.0076776803,-0.4209118,-0.0,0.0,0.0,0.0,0.0
94135198,94135090,-0.00568072,-0.0078334585,-0.42087418,-0.0,0.0,0.0,0.0,0.0
94139149,94139069,-0.005551831,-0.007762427,-0.42078564,-0.0,0.0,0.0,0.0,0.0
94143203,94143124,-0.005512413,-0.007444008,-0.42076704,-0.0,0.0,0.0,0.0,0.0
94147148,94147068,-0.005560141,-0.0071014925,-0.42084417,-0.0,0.0,0.0,0.0,0.0
94151144,94151069,-0.006110245,-0.0074625043,-0.42086202,-0.0,0.0,0.0,0.0,0.0
94155233,94155112,-0.0060353875,-0.007876818,-0.4209548,-0.0,0.0,0.0,0.0,0.0
94159169,94159087,-0.0061262213,-0.007856266,-0.42102513,-0.0,0.0,0.0,0.0,0.0
94163191,94163106,-0.005793553,-0.007800435,-0.4210197,-0.0,0.0,0.0,0.0,0.0
94167141,94167069,-0.0052773794,-0.00767251,-0.4209846,-0.0,0.0,0.0,0.0,0.0
94171149,94171069,-0.005310128,-0.0077481046,-0.42092547,-0.0,0.0,0.0,0.0,0.0
94175177,94175075,-0.0051164967,-0.007361666,-0.42084,-0.0,0.0,0.0,0.0,0.0
94179192,94179069,-0.005125839,-0.007346816,-0.42068988,-0.0,0.0,0.0,0.0,0.0
94183171,94183075,-0.0056558377,-0.0073690237,-0.4206513,-0.0,0.0,0.0,0.0,0.0
94187151,94187068,-0.005685519,-0.007305977,-0.42075783,-0.0,0.0,0.0,0.0,0.0
94191154,94191075,-0.005585412,-0.007277425,-0.42082903,-0.0,0.0,0.0,0.0,0.0
94195142,94195070,-0.005548587,-0.0078064525,-0.4208108,-0.0,0.0,0.0,0.0,0.0
94199184,94199068,-0.005769791,-0.008484634,-0.42082387,-0.0,0.0,0.0,0.0,0.0
94203164,94203080,-0.005786612,-0.007917284,-0.4208223,-0.0,0.0,0.0,0.0,0.0
94207151,94207075,-0.0054281955,-0.007787579,-0.42080194,-0.0,0.0,0.0,0.0,0.0
94211154,94211075,-0.0055347993,-0.0077381684,-0.4206513,-0.0,0.0,0.0,0.0,0.0
94215147,94215074,-0.0056273933,-0.007675616,-0.420532,-0.0,0.0,0.0,0.0,0.0
94219156,94219075,-0.005662498,-0.0074886763,-0.4204619,-0.0,0.0,0.0,0.0,0.0
94223168,94223069,-0.006015079,-0.0075225714,-0.42047283,-0.0,0.0,0.0,0.0,0.0
94227151,94227070,-0.0061873877,-0.007517272,-0.42049113,-0.0,0.0,0.0,0.0,0.0
94231154,94231075,-0.005904773,-0.007546599,-0.42059776,-0.0,0.0,0.0,0.0,0.0
94235148,94235069,-0.005646963,-0.007198085,-0.4206477,-0.0,0.0,0.0,0.0,0.0
94239194,94239114,-0.005316427,-0.0073238946,-0.42070085,-0.0,0.0,0.0,0.0,0.0
94243204,94243069,-0.0051895147,-0.0077475077,-0.42069045,-0.0,0.0,0.0,0.0,0.0
94247148,94247068,-0.0055419235,-0.007921573,-0.42056903,-0.0,0.0,0.0,0.0,0.0
94251147,94251075,-0.005708484,-0.007886788,-0.42053708,-0.0,0.0,0.0,0.0,0.0
94259143,94259069,-0.006016603,-0.007506691,-0.4207142,-0.0,0.0,0.0,0.0,0.0
94263213,94263069,-0.0056342804,-0.0073387288,-0.42073494,-0.0,0.0,0.0,0.0,0.0
94267158,94267068,-0.0061880485,-0.0065029482,6.40714e-05,0.0,0.0,0.0,0.0,0.0
94271194,94271119,-0.0063561103,-0.0065035434,0.00020525538,0.0,0.0,0.0,0.0,0.0
94275148,94275068,-0.0070110145,-0.006895989,0.00016492303,0.0,0.0,0.0,0.0,0.0
94279141,94279069,-0.0069651986,-0.0070957043,9.679485e-05,0.0,0.0,0.0,0.0,0.0
94283224,94283070,-0.006392536,-0.0068423464,-1.8123916e-06,0.0,0.0,0.0,0.0,0.0
94287149,94287069,-0.006497684,-0.006223706,3.4874098e-05,0.0,0.0,0.0,0.0,0.0
94291186,94291107,-0.0068927472,-0.006074153,0.00016930074,0.0,0.0,0.0,0.0,0.0
94295142,94295069,-0.006810459,-0.006455635,0.00019113731,0.0,0.0,0.0,0.0,0.0
94299149,94299069,-0.0062281205,-0.0067749326,0.0001301594,0.0,0.0,0.0,0.0,0.0
94303197,94303075,-0.0064034793,-0.0066985902,-2.215563e-05,0.0,0.0,0.0,0.0,0.0
94307145,94307069,-0.0064016413,-0.006641922,-2.9069488e-05,0.0,0.0,0.0,0.0,0.0
94311207,94311121,-0.0061673494,-0.0064743883,3.851182e-05,0.0,0.0,0.0,0.0,0.0
94315148,94315069,-0.0064273193,-0.006414416,-7.960782e-05,0.0,0.0,0.0,0.0,0.0
94319152,94319069,-0.007148811,-0.0066632032,-0.00012290555,0.0,0.0,0.0,0.0,0.0
94323238,94323113,-0.007227231,-0.006882518,-0.00013579945,0.0,0.0,0.0,0.0,0.0
94327150,94327069,-0.007356207,-0.006369181,-0.000107304775,0.0,0.0,0.0,0.0,0.0
94331207,94331128,-0.0076800836,-0.006401167,-0.00012090615,0.0,0.0,0.0,0.0,0.0
94335148,94335069,-0.007154671,-0.006675773,-0.00017633718,0.0,0.0,0.0,0.0,0.0
94339147,94339075,-0.0068137315,-0.006449921,-0.00010145271,0.0,0.0,0.0,0.0,0.0
94343148,94343068,-0.0063906205,-0.006783335,-6.333493e-06,0.0,0.0,0.0,0.0,0.0
94347209,94347087,-0.0061884345,-0.007033668,0.000118195036,0.0,0.0,0.0,0.0,0.0
94351176,94351092,-0.006379341,-0.006921467,0.00017009019,0.0,0.0,0.0,0.0,0.0
94355148,94355068,-0.0068614585,-0.00702442,0.00011959606,0.0,0.0,0.0,0.0,0.0
94358380,94358304,-0.0067102048,-0.0064344364,4.2699696e-05,0.0,0.0,0.0,0.0,0.0
94362354,94362269,-0.006986152,-0.006148755,3.815153e-06,0.0,0.0,0.0,0.0,0.0
94366352,94366268,-0.007188062,-0.006555497,0.00010988558,0.0,0.0,0.0,0.0,0.0
94370406,94370292,-0.007000466,-0.006435853,0.00020376818,0.0,0.0,0.0,0.0,0.0
94375150,94375075,-0.0059896996,-0.0067906994,8.997061e-05,0.0,0.0,0.0,0.0,0.0
94379150,94379069,-0.0065833926,-0.006863689,-5.848472e-05,0.0,0.0,0.0,0.0,0.0
94383169,94383087,-0.007014988,-0.0063222167,-0.00019331537,0.0,0.0,0.0,0.0,0.0
94387156,94387075,-0.0074503683,-0.0065819775,-0.00019065083,0.0,0.0,0.0,0.0,0.0
94390435,94390321,-0.0070166187,-0.006666348,-0.00013003881,0.0,0.0,0.0,0.0,0.0
94395147,94395075,-0.0064021526,-0.0068582655,-9.841192e-05,0.0,0.0,0.0,0.0,0.0
94399156,94399076,-0.0064240606,-0.006185396,-7.767013e-05,0.0,0.0,0.0,0.0,0.0
94403150,94403069,-0.007275035,-0.006348972,2.9905746e-05,0.0,0.0,0.0,0.0,0.0
94407195,94407115,-0.007411596,-0.0061598364,0.0001180209,0.0,0.0,0.0,0.0,0.0
94411214,94411070,-0.0066308575,-0.005845371,9.432885e-05,0.0,0.0,0.0,0.0,0.0
94415148,94415069,-0.006545577,-0.0065103048,0.00010272551,0.0,0.0,0.0,0.0,0.0
94419187,94419107,-0.006179834,-0.006849669,8.341628e-05,0.0,0.0,0.0,0.0,0.0
94423147,94423075,-0.0065597626,-0.0069978293,2.9864827e-05,0.0,0.0,0.0,0.0,0.0
94427163,94427083,-0.0070063276,-0.0064104223,-0.000113160226,0.0,0.0,0.0,0.0,0.0
94431968,94431891,-0.007022463,-0.0066063027,-0.00023324425,0.0,0.0,0.0,0.0,0.0
94435946,94435869,-0.006732703,-0.0067898133,-0.00020956363,0.0,0.0,0.0,0.0,0.0
94439196,94439124,-0.006639281,-0.0068151406,-0.00023982469,0.0,0.0,0.0,0.0,0.0
94447151,94447069,-0.006686406,-0.0068431487,-0.00036078098,0.0,0.0,0.0,0.0,0.0
94451225,94451069,-0.00664011,-0.0067549795,-0.00023982258,0.0,0.0,0.0,0.0,0.0
94454366,94454290,-0.0067151,-0.006666403,-0.0001753343,0.0,0.0,0.0,0.0,0.0
94458385,94458268,-0.0065162065,-0.0066428534,-0.00010478882,0.0,0.0,0.0,0.0,0.0
94462345,94462269,-0.006484293,-0.006843724,-1.6396752e-05,0.0,0.0,0.0,0.0,0.0
94466345,94466269,-0.007202759,-0.0070893457,2.2718546e-05,0.0,0.0,0.0,0.0,0.0
94470351,94470275,-0.0075475294,-0.0069270926,-2.256318e-05,0.0,0.0,0.0,0.0,0.0
94474353,94474277,-0.006748795,-0.006278204,-5.1539394e-07,0.0,0.0,0.0,0.0,0.0
94478379,94478269,-0.0064340206,-0.0065794247,3.596523e-05,0.0,0.0,0.0,0.0,0.0
94482356,94482276,-0.0066268425,-0.0065374584,0.00013892147,0.0,0.0,0.0,0.0,0.0
94486389,94486309,-0.0068615945,-0.0065171043,0.00026289816,0.0,0.0,0.0,0.0,0.0
94490355,94490279,-0.007111345,-0.006640188,0.00026767253,0.0,0.0,0.0,0.0,0.0
94494347,94494269,-0.0071226833,-0.0067307726,0.00026896122,0.0,0.0,0.0,0.0,0.0
94498427,94498269,-0.0065189856,-0.0069997776,0.00023348373,0.0,0.0,0.0,0.0,0.0
94502345,94502269,-0.0062446618,-0.0067215506,0.00018576835,0.0,0.0,0.0,0.0,0.0
94506355,94506278,-0.006291444,-0.0058795693,0.00015476574,0.0,0.0,0.0,0.0,0.0
94510352,94510269,-0.006759852,-0.0055794637,6.124851e-05,0.0,0.0,0.0,0.0,0.0
94514357,94514281,-0.007194849,-0.0063069346,0.000100686346,0.0,0.0,0.0,0.0,0.0
94518429,94518275,-0.007058221,-0.006743214,0.00013466265,0.0,0.0,0.0,0.0,0.0
94522345,94522269,-0.007787684,-0.0067705563,0.00019020283,0.0,0.0,0.0,0.0,0.0
94526407,94526318,-0.007386229,-0.006768664,0.000311354,0.0,0.0,0.0,0.0,0.0
94530365,94530286,-0.007066636,-0.007021397,0.00032091257,0.0,0.0,0.0,0.0,0.0
94534398,94534303,-0.0071153324,-0.0066459933,0.00033047053,0.0,0.0,0.0,0.0,0.0
94538372,94538296,-0.0066764345,-0.0061244806,0.00016983283,0.0,0.0,0.0,0.0,0.0
94542345,94542269,-0.0063265455,-0.006119265,-5.365591e-06,0.0,0.0,0.0,0.0,0.0
94546368,94546291,-0.006520899,-0.006578058,-5.2316533e-05,0.0,0.0,0.0,0.0,0.0
94550344,94550268,-0.0069608497,-0.006806765,-3.081895e-05,0.0,0.0,0.0,0.0,0.0
94554345,94554269,-0.006986691,-0.006611579,6.4320186e-05,0.0,0.0,0.0,0.0,0.0
94558437,94558323,-0.0067177187,-0.006856328,7.037504e-05,0.0,0.0,0.0,0.0,0.0
94562356,94562272,-0.006570492,-0.0068399524,3.775825e-05,0.0,0.0,0.0,0.0,0.0
94566372,94566269,-0.0069382116,-0.00697415,6.6812696e-05,0.0,0.0,0.0,0.0,0.0
94570345,94570269,-0.006686642,-0.0069534844,9.784242e-05,0.0,0.0,0.0,0.0,0.0
94574345,94574269,-0.0066999774,-0.0068643126,0.0001309214,0.0,0.0,0.0,0.0,0.0
94578351,94578275,-0.006986464,-0.006878168,0.00017547641,0.0,0.0,0.0,0.0,0.0
94582393,94582279,-0.006610231,-0.0067195813,0.00013163693,0.0,0.0,0.0,0.0,0.0
94586383,94586269,-0.006663623,-0.0061023924,0.00011551314,0.0,0.0,0.0,0.0,0.0
94590352,94590269,-0.0070043616,-0.0063859005,0.00012659228,0.0,0.0,0.0,0.0,0.0
94594337,94594268,-0.0071348017,-0.006728789,0.000154126,0.0,0.0,0.0,0.0,0.0
94598351,94598275,-0.0067907837,-0.0063965926,0.0002182757,0.0,0.0,0.0,0.0,0.0
94602385,94602269,-0.006254909,-0.006303274,9.273095e-05,0.0,0.0,0.0,0.0,0.0
94606372,94606269,-0.006002868,-0.006397658,-3.9631315e-05,0.0,0.0,0.0,0.0,0.0
94610356,94610279,-0.006652734,-0.0065602353,-2.8460814e-05,0.0,0.0,0.0,0.0,0.0
94614379,94614303,-0.0074962494,-0.006749187,1.8936033e-05,0.0,0.0,0.0,0.0,0.0
94618372,94618275,-0.007553553,-0.0068498813,2.4482932e-05,0.0,0.0,0.0,0.0,0.0
94622385,94622305,-0.006981579,-0.0069373776,-6.98712e-06,0.0,0.0,0.0,0.0,0.0
94626389,94626272,-0.0063107917,-0.0071149603,-5.649778e-05,0.0,0.0,0.0,0.0,0.0
94630345,94630269,-0.006644615,-0.006247673,4.5932105e-05,0.0,0.0,0.0,0.0,0.0
94634393,94634317,-0.007151249,-0.0060388832,0.00015035065,0.0,0.0,0.0,0.0,0.0
94638352,94638275,-0.0068998863,-0.006183034,0.00017003239,0.0,0.0,0.0,0.0,0.0
94642382,94642306,-0.006658459,-0.0066426187,0.00018559975,0.0,0.0,0.0,0.0,0.0
94646383,94646272,-0.0063255792,-0.0063892547,0.00019826696,0.0,0.0,0.0,0.0,0.0
94650345,94650269,-0.006321973,-0.006356691,0.00010982676,0.0,0.0,0.0,0.0,0.0
94654379,94654303,-0.006730114,-0.0065340553,4.5006514e-06,0.0,0.0,0.0,0.0,0.0
94658351,94658275,-0.0066145565,-0.0068545206,4.247758e-05,0.0,0.0,0.0,0.0,0.0
94662359,94662282,-0.0062482636,-0.0071247662,8.688608e-06,0.0,0.0,0.0,0.0,0.0
94666409,94666269,-0.0061003184,-0.0071088313,-7.411327e-05,0.0,0.0,0.0,0.0,0.0
94670345,94670269,-0.0059165834,-0.006861355,-6.8735266e-05,0.0,0.0,0.0,0.0,0.0
94674359,94674276,-0.006506794,-0.0066114324,3.6663932e-05,0.0,0.0,0.0,0.0,0.0
94678354,94678275,-0.007169367,-0.006831555,0.00011186614,0.0,0.0,0.0,0.0,0.0
94682369,94682300,-0.007291282,-0.006196349,-3.271517e-05,0.0,0.0,0.0,0.0,0.0
94686423,94686269,-0.007182585,-0.0062663397,-8.88796e-05,0.0,0.0,0.0,0.0,0.0
94690345,94690269,-0.007280587,-0.0066911853,-7.161726e-05,0.0,0.0,0.0,0.0,0.0
94694361,94694285,-0.0073469724,-0.0064604483,-3.596152e-05,0.0,0.0,0.0,0.0,0.0
94698353,94698275,-0.007051436,-0.006079237,-1.4188953e-05,0.0,0.0,0.0,0.0,0.0
94702382,94702299,-0.006957073,-0.0066023488,6.3314845e-05,0.0,0.0,0.0,0.0,0.0
94706362,94706286,-0.0063868165,-0.0064834864,9.1379414e-05,0.0,0.0,0.0,0.0,0.0
94710345,94710269,-0.006506936,-0.0065604164,4.802315e-05,0.0,0.0,0.0,0.0,0.0
94714383,94714269,-0.0063186088,-0.0070589026,-2.1549231e-05,0.0,0.0,0.0,0.0,0.0
94718345,94718269,-0.006252149,-0.0068242224,-2.8507928e-05,0.0,0.0,0.0,0.0,0.0
94722358,94722268,-0.006512526,-0.0065405415,-0.000108363296,0.0,0.0,0.0,0.0,0.0
94726354,94726285,-0.0074629295,-0.0063916356,-3.3903405e-05,0.0,0.0,0.0,0.0,0.0
94730357,94730269,-0.0077630924,-0.006375812,5.820375e-05,0.0,0.0,0.0,0.0,0.0
94734372,94734269,-0.007224286,-0.006392217,0.00016767957,0.0,0.0,0.0,0.0,0.0
94738345,94738269,-0.007026752,-0.0069963117,0.0001897841,0.0,0.0,0.0,0.0,0.0
94742363,94742287,-0.0061965506,-0.007168929,9.524382e-05,0.0,0.0,0.0,0.0,0.0
94746351,94746275,-0.005983095,-0.006811436,2.6642612e-05,0.0,0.0,0.0,0.0,0.0
94750382,94750269,-0.0061936746,-0.0070477645,-5.4379427e-05,0.0,0.0,0.0,0.0,0.0
94754390,94754268,-0.0059678108,-0.0069064717,-7.376635e-05,0.0,0.0,0.0,0.0,0.0
94758358,94758269,-0.0061878893,-0.006406232,-6.5494634e-05,0.0,0.0,0.0,0.0,0.0
94762371,94762295,-0.006650913,-0.006257793,-7.732754e-05,0.0,0.0,0.0,0.0,0.0
94766351,94766275,-0.006820239,-0.0062895333,-8.021295e-06,0.0,0.0,0.0,0.0,0.0
94770381,94770268,-0.007179002,-0.00650114,1.5563752e-05,0.0,0.0,0.0,0.0,0.0
94774372,94774269,-0.0066672177,-0.006661988,2.9392118e-05,0.0,0.0,0.0,0.0,0.0
94778345,94778269,-0.0069572614,-0.0070396345,5.197606e-05,0.0,0.0,0.0,0.0,0.0
94782358,94782282,-0.0068010623,-0.007025924,-4.6824538e-05,0.0,0.0,0.0,0.0,0.0
94786360,94786277,-0.0067881844,-0.006589509,-0.000109260545,0.0,0.0,0.0,0.0,0.0
94790369,94790289,-0.0064286944,-0.0062844595,-0.00016632742,0.0,0.0,0.0,0.0,0.0
94794383,94794269,-0.0060638567,-0.006622761,-0.00013132514,0.0,0.0,0.0,0.0,0.0
94798347,94798269,-0.006350188,-0.0065861223,-5.8016136e-05,0.0,0.0,0.0,0.0,0.0
94802389,94802313,-0.0068514575,-0.0069901915,-0.00016504375,0.0,0.0,0.0,0.0,0.0
94806351,94806275,-0.006784615,-0.006896007,-0.00027260452,0.0,0.0,0.0,0.0,0.0
94810391,94810305,-0.0069839866,-0.007154051,-0.00031671522,0.0,0.0,0.0,0.0,0.0
94814365,94814269,-0.006667319,-0.0067400946,-0.00026528238,0.0,0.0,0.0,0.0,0.0
94818350,94818269,-0.0069715315,-0.006310696,-0.00021098857,0.0,0.0,0.0,0.0,0.0
94822350,94822270,-0.0071309833,-0.006517541,-0.00012543707,0.0,0.0,0.0,0.0,0.0
94826352,94826276,-0.00685381,-0.006421138,-7.4425305e-05,0.0,0.0,0.0,0.0,0.0
94830366,94830290,-0.0065162294,-0.0061737807,-2.5227155e-05,0.0,0.0,0.0,0.0,0.0
94834415,94834268,-0.006357411,-0.0065489328,9.965253e-06,0.0,0.0,0.0,0.0,0.0
94838342,94838269,-0.006472192,-0.007026092,2.7157018e-06,0.0,0.0,0.0,0.0,0.0
94842404,94842315,-0.0066179824,-0.006438698,0.00013023823,0.0,0.0,0.0,0.0,0.0
94846367,94846274,-0.0066175708,-0.0062768925,0.00023656027,0.0,0.0,0.0,0.0,0.0
94850354,94850274,-0.0068669147,-0.006190452,0.00023587435,0.0,0.0,0.0,0.0,0.0
94854385,94854268,-0.0065382873,-0.006456673,0.00016068283,0.0,0.0,0.0,0.0,0.0
94858343,94858269,-0.006907228,-0.0062087155,0.00015802051,0.0,0.0,0.0,0.0,0.0
94862375,94862269,-0.0075234603,-0.006467633,0.0001041202,0.0,0.0,0.0,0.0,0.0
94866355,94866275,-0.0072898204,-0.0068342513,-2.6554377e-05,0.0,0.0,0.0,0.0,0.0
94870353,94870269,-0.00725731,-0.0068925833,-0.000103836785,0.0,0.0,0.0,0.0,0.0
94874371,94874290,-0.006553791,-0.006417257,-8.1547005e-05,0.0,0.0,0.0,0.0,0.0
94878339,94878269,-0.006484553,-0.005785113,4.186525e-06,0.0,0.0,0.0,0.0,0.0
94882390,94882269,-0.0065476852,-0.0064059,8.840696e-05,0.0,0.0,0.0,0.0,0.0
94886364,94886281,-0.006418285,-0.0068517122,8.583375e-05,0.0,0.0,0.0,0.0,0.0
94890382,94890300,-0.006812968,-0.006948987,3.9369817e-05,0.0,0.0,0.0,0.0,0.0
94894374,94894295,-0.0070101805,-0.0065662237,5.880208e-06,0.0,0.0,0.0,0.0,0.0
94898350,94898269,-0.0070477463,-0.006833049,-3.1536532e-05,0.0,0.0,0.0,0.0,0.0
94902384,94902269,-0.0068249167,-0.0068199188,7.37485e-05,0.0,0.0,0.0,0.0,0.0
94906355,94906275,-0.0068799453,-0.0062656556,8.10415e-05,0.0,0.0,0.0,0.0,0.0
94910386,94910306,-0.0069353646,-0.006245682,-1.35721375e-05,0.0,0.0,0.0,0.0,0.0
94914348,94914268,-0.007086606,-0.006447955,-7.137575e-06,0.0,0.0,0.0,0.0,0.0
94918380,94918269,-0.007062299,-0.0065970593,3.2161613e-05,0.0,0.0,0.0,0.0,0.0
94922386,94922268,-0.0066575143,-0.0065225377,8.6056316e-05,0.0,0.0,0.0,0.0,0.0
94926363,94926275,-0.006726617,-0.006184536,8.04495e-05,0.0,0.0,0.0,0.0,0.0
94930368,94930276,-0.006413378,-0.005928167,0.00016795154,0.0,0.0,0.0,0.0,0.0
94934344,94934271,-0.0063920957,-0.006442033,6.048812e-05,0.0,0.0,0.0,0.0,0.0
94938368,94938271,-0.0072964714,-0.006543366,-7.183188e-05,0.0,0.0,0.0,0.0,0.0
94942345,94942269,-0.0071540764,-0.0062912805,-9.200196e-05,0.0,0.0,0.0,0.0,0.0
94946345,94946269,-0.006791605,-0.0064035146,-3.0561125e-05,0.0,0.0,0.0,0.0,0.0
94950387,94950310,-0.0066548255,-0.006436379,-2.801265e-05,0.0,0.0,0.0,0.0,0.0
94954361,94954278,-0.0067511285,-0.006475689,-0.00012438928,0.0,0.0,0.0,0.0,0.0
94958394,94958317,-0.006712442,-0.0067016464,-0.00014034475,0.0,0.0,0.0,0.0,0.0
94962345,94962269,-0.006532902,-0.0064776097,-4.80281e-05,0.0,0.0,0.0,0.0,0.0
94966349,94966268,-0.0065872464,-0.0060812808,2.9778475e-05,0.0,0.0,0.0,0.0,0.0
94970362,94970286,-0.0068873516,-0.0060864477,0.00010127698,0.0,0.0,0.0,0.0,0.0
94974351,94974275,-0.0067671407,-0.006296461,0.00010309648,0.0,0.0,0.0,0.0,0.0
94978380,94978309,-0.006724432,-0.0062556546,-1.6139404e-05,0.0,0.0,0.0,0.0,0.0
94982358,94982268,-0.0068491693,-0.0069431686,1.3853222e-05,0.0,0.0,0.0,0.0,0.0
94986345,94986269,-0.006939263,-0.0069895475,1.12351745e-05,0.0,0.0,0.0,0.0,0.0
94990372,94990269,-0.0065016253,-0.0067905798,4.815811e-06,0.0,0.0,0.0,0.0,0.0
94994351,94994275,-0.0062669544,-0.0066526546,0.0001300434,0.0,0.0,0.0,0.0,0.0
94998386,94998315,-0.006463153,-0.006382577,0.00021304625,0.0,0.0,0.0,0.0,0.0
95002382,95002269,-0.006560028,-0.0063878996,0.00021893099,0.0,0.0,0.0,0.0,0.0
95006348,95006269,-0.0067473655,-0.006691188,0.00017574502,0.0,0.0,0.0,0.0,0.0
95010395,95010269,-0.006875402,-0.0067905635,0.00017907399,0.0,0.0,0.0,0.0,0.0
95014364,95014275,-0.0068443324,-0.006219878,0.00010644165,0.0,0.0,0.0,0.0,0.0
95018349,95018275,-0.0073715122,-0.00626487,5.3437718e-05,0.0,0.0,0.0,0.0,0.0
95022371,95022269,-0.00733099,-0.0063144043,9.690374e-06,0.0,0.0,0.0,0.0,0.0
95026345,95026268,-0.0069248434,-0.0064356835,-7.738968e-06,0.0,0.0,0.0,0.0,0.0
95030378,95030268,-0.006400511,-0.0065038973,9.220363e-05,0.0,0.0,0.0,0.0,0.0
95034351,95034275,-0.006930896,-0.0065497854,0.0002499497,0.0,0.0,0.0,0.0,0.0
95038388,95038308,-0.0064892434,-0.006443609,0.00040351506,0.0,0.0,0.0,0.0,0.0
95042375,95042299,-0.0063253343,-0.0061713643,0.00043964092,0.0,0.0,0.0,0.0,0.0
95046345,95046269,-0.0060496116,-0.0062282584,0.0002726909,0.0,0.0,0.0,0.0,0.0
95050383,95050269,-0.006263813,-0.006332321,0.00013588353,0.0,0.0,0.0,0.0,0.0
95054361,95054275,-0.007082706,-0.006408564,4.6124034e-05,0.0,0.0,0.0,0.0,0.0
95058355,95058269,-0.007371741,-0.0067687775,5.52429e-05,0.0,0.0,0.0,0.0,0.0
95062338,95062269,-0.007025912,-0.006956774,2.0826324e-06,0.0,0.0,0.0,0.0,0.0
95066352,95066269,-0.0069957497,-0.006427052,-0.00015220988,0.0,0.0,0.0,0.0,0.0
95070372,95070269,-0.0069198343,-0.0058652996,-0.0002338296,0.0,0.0,0.0,0.0,0.0
95074351,95074275,-0.006872631,-0.006597887,-0.00012746637,0.0,0.0,0.0,0.0,0.0
95078401,95078310,-0.006744027,-0.006427132,-3.0752166e-05,0.0,0.0,0.0,0.0,0.0
95082345,95082269,-0.0065693874,-0.0062779197,9.171956e-06,0.0,0.0,0.0,0.0,0.0
95086415,95086300,-0.0061438438,-0.0064495765,9.926435e-06,0.0,0.0,0.0,0.0,0.0
95090345,95090269,-0.0065586837,-0.006456074,-6.135763e-05,0.0,0.0,0.0,0.0,0.0
95094358,95094275,-0.006525509,-0.006409849,-0.00016965314,0.0,0.0,0.0,0.0,0.0
95098347,95098271,-0.0066846386,-0.006593686,-0.00019648187,0.0,0.0,0.0,0.0,0.0
95102352,95102275,-0.0063482407,-0.0062775887,-0.0001636609,0.0,0.0,0.0,0.0,0.0
95106371,95106269,-0.0069293412,-0.0065603745,-8.710026e-05,0.0,0.0,0.0,0.0,0.0
95110345,95110269,-0.007031595,-0.0062137786,1.6178497e-05,0.0,0.0,0.0,0.0,0.0
95114346,95114269,-0.00667518,-0.0059526702,-1.1529227e-05,0.0,0.0,0.0,0.0,0.0
95118357,95118280,-0.0071042376,-0.006257561,-6.0289196e-05,0.0,0.0,0.0,0.0,0.0
95122353,95122269,-0.007191544,-0.0067194863,-6.1717285e-05,0.0,0.0,0.0,0.0,0.0
95125583,95125507,-0.006644221,-0.006859873,-4.4626035e-05,0.0,0.0,0.0,0.0,0.0
95129549,95129475,-0.0066057066,-0.0067668105,-3.3473568e-06,0.0,0.0,0.0,0.0,0.0
95134351,95134275,-0.007013009,-0.0063494686,-0.00015125748,0.0,0.0,0.0,0.0,0.0
95138386,95138268,-0.0067212954,-0.0063386885,-0.00022540473,0.0,0.0,0.0,0.0,0.0
95142345,95142269,-0.0067926706,-0.0062630353,-0.0002637288,0.0,0.0,0.0,0.0,0.0
95145595,95145518,-0.006567239,-0.0065110778,-0.00033199682,0.0,0.0,0.0,0.0,0.0
95149580,95149511,-0.0068480307,-0.006486924,-0.0002640804,0.0,0.0,0.0,0.0,0.0
95153578,95153476,-0.007313419,-0.006556739,-0.00015774166,0.0,0.0,0.0,0.0,0.0
95157552,95157469,-0.0067197485,-0.0065588206,-4.070339e-05,0.0,0.0,0.0,0.0,0.0
95161549,95161469,-0.0064376765,-0.006507745,0.00014227178,0.0,0.0,0.0,0.0,0.0
95165561,95165481,-0.007234209,-0.006299939,0.00022385339,0.0,0.0,0.0,0.0,0.0
95169590,95169514,-0.0072029633,-0.006261443,0.00019852296,0.0,0.0,0.0,0.0,0.0
95173589,95173469,-0.0066427975,-0.0061732796,0.00014206099,0.0,0.0,0.0,0.0,0.0
95176763,95176686,-0.0063343076,-0.006202856,0.00018746094,0.0,0.0,0.0,0.0,0.0
95179990,95179901,-0.006759716,-0.0063506775,0.00019093667,0.0,0.0,0.0,0.0,0.0
95183945,95183869,-0.0071100625,-0.0066761095,0.0001294691,0.0,0.0,0.0,0.0,0.0
95187946,95187869,-0.0070348685,-0.0067796875,6.770515e-05,0.0,0.0,0.0,0.0,0.0
95191990,95191875,-0.006949387,-0.0066608298,1.7925171e-05,0.0,0.0,0.0,0.0,0.0
95195966,95195887,-0.006888859,-0.0063271346,3.4159046e-05,0.0,0.0,0.0,0.0,0.0
95200745,95200669,-0.006945769,-0.0063235317,7.117772e-05,0.0,0.0,0.0,0.0,0.0
95205587,95205469,-0.007054093,-0.005626875,8.603472e-05,0.0,0.0,0.0,0.0,0.0
95209551,95209475,-0.006527044,-0.0056434697,9.921724e-05,0.0,0.0,0.0,0.0,0.0
95213580,95213501,-0.0066656535,-0.006792111,0.00023950094,0.0,0.0,0.0,0.0,0.0
95217545,95217469,-0.006786976,-0.006991921,0.00034356542,0.0,0.0,0.0,0.0,0.0
95221548,95221469,-0.006825551,-0.0066212276,0.00025737516,0.0,0.0,0.0,0.0,0.0
95225575,95225469,-0.006880642,-0.0068135853,0.00010740425,0.0,0.0,0.0,0.0,0.0
95229545,95229469,-0.0066391174,-0.006708895,6.329838e-05,0.0,0.0,0.0,0.0,0.0
95233589,95233512,-0.006860889,-0.006425936,-1.9952422e-05,0.0,0.0,0.0,0.0,0.0
95237571,95237469,-0.0069528995,-0.006127204,-9.377386e-05,0.0,0.0,0.0,0.0,0.0
95241559,95241480,-0.0071750386,-0.006246016,-0.00017859545,0.0,0.0,0.0,0.0,0.0
95245583,95245469,-0.0068746028,-0.006772255,-0.00023995829,0.0,0.0,0.0,0.0,0.0
95249551,95249475,-0.006483586,-0.0065661385,-0.00020525383,0.0,0.0,0.0,0.0,0.0
95253573,95253496,-0.006861767,-0.0061964695,-0.000102214006,0.0,0.0,0.0,0.0,0.0
95257582,95257469,-0.007237539,-0.0060992963,7.573416e-05,0.0,0.0,0.0,0.0,0.0
95261545,95261469,-0.007100546,-0.0059778453,0.00018115669,0.0,0.0,0.0,0.0,0.0
95265572,95265469,-0.007014675,-0.006145575,0.00016778601,0.0,0.0,0.0,0.0,0.0
95269569,95269490,-0.006781811,-0.0063381223,0.00023281419,0.0,0.0,0.0,0.0,0.0
95273574,95273493,-0.006598135,-0.006883861,0.00024532544,0.0,0.0,0.0,0.0,0.0
95277566,95277486,-0.0067742625,-0.0069773863,0.00022194111,0.0,0.0,0.0,0.0,0.0
95281555,95281475,-0.0070159193,-0.007099815,0.0003139021,0.0,0.0,0.0,0.0,0.0
95285549,95285468,-0.007205354,-0.0060070576,0.00028493264,0.0,0.0,0.0,0.0,0.0
95289548,95289469,-0.0071203075,-0.005755084,0.00023613787,0.0,0.0,0.0,0.0,0.0
95293594,95293509,-0.00643601,-0.0058463337,0.00018476543,0.0,0.0,0.0,0.0,0.0
95297601,95297519,-0.006470937,-0.0060007744,0.00012299644,0.0,0.0,0.0,0.0,0.0
95301552,95301475,-0.006856091,-0.006213498,8.9157205e-05,0.0,0.0,0.0,0.0,0.0
95305552,95305469,-0.0072496478,-0.006520269,6.3575803e-06,0.0,0.0,0.0,0.0,0.0
95309545,95309469,-0.007299214,-0.006504769,4.130114e-05,0.0,0.0,0.0,0.0,0.0
95313551,95313475,-0.0071481736,-0.006454498,-5.340189e-07,0.0,0.0,0.0,0.0,0.0
95317545,95317469,-0.006896587,-0.006388479,4.138688e-05,0.0,0.0,0.0,0.0,0.0
95321585,95321483,-0.0070959725,-0.0063976613,0.00012421787,0.0,0.0,0.0,0.0,0.0
95325548,95325469,-0.006974516,-0.0071706786,0.00023315901,0.0,0.0,0.0,0.0,0.0
95329545,95329469,-0.0068848445,-0.0066810944,0.00040322758,0.0,0.0,0.0,0.0,0.0
95333583,95333469,-0.006263917,-0.0057799025,0.0003610557,0.0,0.0,0.0,0.0,0.0
95337545,95337469,-0.0064677503,-0.0058365976,0.0001932723,0.0,0.0,0.0,0.0,0.0
95341588,95341475,-0.0067764358,-0.006647806,8.4279454e-05,0.0,0.0,0.0,0.0,0.0
95345545,95345469,-0.0069465037,-0.0065716184,-2.161666e-05,0.0,0.0,0.0,0.0,0.0
95349545,95349469,-0.007460906,-0.006565593,-9.8913304e-05,0.0,0.0,0.0,0.0,0.0
95353564,95353468,-0.0075874375,-0.0067793136,-0.00010484477,0.0,0.0,0.0,0.0,0.0
95357545,95357469,-0.007452433,-0.006915923,-0.00010668774,0.0,0.0,0.0,0.0,0.0
95361583,95361502,-0.0068934797,-0.006514567,0.00014289092,0.0,0.0,0.0,0.0,0.0
95365545,95365469,-0.006232422,-0.00591745,0.00038350784,0.0,0.0,0.0,0.0,0.0
95369546,95369469,-0.006295107,-0.006101199,0.0004650883,0.0,0.0,0.0,0.0,0.0
95373583,95373469,-0.0068247598,-0.0060889283,0.0002645667,0.0,0.0,0.0,0.0,0.0
95377545,95377469,-0.0066052726,-0.005889896,-4.5114768e-05,0.0,0.0,0.0,0.0,0.0
95381572,95381493,-0.0062370286,-0.0062614116,-0.0001976019,0.0,0.0,0.0,0.0,0.0
95385547,95385468,-0.0063396893,-0.006490394,-0.00026046083,0.0,0.0,0.0,0.0,0.0
95389545,95389469,-0.0068828193,-0.0062023783,-0.00015724139,0.0,0.0,0.0,0.0,0.0
95393572,95393469,-0.0075644325,-0.006047607,4.3828153e-05,0.0,0.0,0.0,0.0,0.0
95397552,95397475,-0.0072962856,-0.0067327498,0.00019481328,0.0,0.0,0.0,0.0,0.0
95401559,95401481,-0.007633458,-0.00659129,0.00022313456,0.0,0.0,0.0,0.0,0.0
95405571,95405469,-0.007741801,-0.0065793977,0.00015469977,0.0,0.0,0.0,0.0,0.0
95409549,95409470,-0.007238787,-0.0067218924,8.942141e-05,0.0,0.0,0.0,0.0,0.0
95413587,95413469,-0.0068498836,-0.006990313,3.509711e-06,0.0,0.0,0.0,0.0,0.0
95417545,95417469,-0.0069378535,-0.00692615,1.1424383e-05,0.0,0.0,0.0,0.0,0.0
95421559,95421490,-0.006433433,-0.0064944397,-3.3098245e-06,0.0,0.0,0.0,0.0,0.0
95425582,95425469,-0.006076165,-0.0065315994,9.2328504e-05,0.0,0.0,0.0,0.0,0.0
95429548,95429468,-0.0067504444,-0.006144102,0.00024484599,0.0,0.0,0.0,0.0,0.0
95433548,95433468,-0.0065946043,-0.005922428,0.00028619645,0.0,0.0,0.0,0.0,0.0
95437551,95437469,-0.006439975,-0.0060890946,0.00014830857,0.0,0.0,0.0,0.0,0.0
95441557,95441481,-0.006869348,-0.0063342107,2.4715937e-05,0.0,0.0,0.0,0.0,0.0
95445562,95445486,-0.0072843055,-0.0063382094,-5.0001963e-05,0.0,0.0,0.0,0.0,0.0
95449582,95449506,-0.006941322,-0.006443188,-9.329366e-05,0.0,0.0,0.0,0.0,0.0
95453545,95453469,-0.006886537,-0.0062536206,-0.00021053365,0.0,0.0,0.0,0.0,0.0
95457545,95457469,-0.00659729,-0.006086047,-0.00024194019,0.0,0.0,0.0,0.0,0.0
95461574,95461498,-0.006868928,-0.0060491837,-0.00011321234,0.0,0.0,0.0,0.0,0.0
95465591,95465512,-0.0068979124,-0.0061383815,7.340324e-05,0.0,0.0,0.0,0.0,0.0
95469572,95469495,-0.0065314723,-0.006577495,1.06826865e-05,0.0,0.0,0.0,0.0,0.0
95473547,95473468,-0.0067180577,-0.0066751423,-0.000160704,0.0,0.0,0.0,0.0,0.0
95477558,95477469,-0.0074183596,-0.0069601904,-0.00015162773,0.0,0.0,0.0,0.0,0.0
95481581,95481469,-0.007208857,-0.0068690977,1.2439597e-05,0.0,0.0,0.0,0.0,0.0
95485545,95485469,-0.0069181374,-0.006726553,0.00012608984,0.0,0.0,0.0,0.0,0.0
95489627,95489512,-0.0064270585,-0.006487206,0.00025709785,0.0,0.0,0.0,0.0,0.0
95493551,95493469,-0.0057272646,-0.006188187,0.0002037759,0.0,0.0,0.0,0.0,0.0
95497550,95497468,-0.006324743,-0.005856723,2.9835131e-05,0.0,0.0,0.0,0.0,0.0
95501586,95501468,-0.006554122,-0.0060519287,-2.8181303e-05,0.0,0.0,0.0,0.0,0.0
95505545,95505469,-0.0070171026,-0.0062254486,-6.237038e-05,0.0,0.0,0.0,0.0,0.0
95509613,95509500,-0.0072128964,-0.006591114,-0.00013364264,0.0,0.0,0.0,0.0,0.0
95513545,95513469,-0.0070433486,-0.006459356,-8.861369e-05,0.0,0.0,0.0,0.0,0.0
95517545,95517469,-0.0069669187,-0.0064803576,2.4076495e-05,0.0,0.0,0.0,0.0,0.0
95521575,95521469,-0.0067864554,-0.006304349,0.00018659027,0.0,0.0,0.0,0.0,0.0
95525545,95525469,-0.0063012,-0.006476685,0.00023246765,0.0,0.0,0.0,0.0,0.0
95529583,95529500,-0.0063752364,-0.006511616,0.00026778862,0.0,0.0,0.0,0.0,0.0
95533545,95533469,-0.0064340187,-0.006430722,0.0002559074,0.0,0.0,0.0,0.0,0.0
95537545,95537469,-0.0069701145,-0.0064838543,3.788684e-05,0.0,0.0,0.0,0.0,0.0
95541587,95541469,-0.0072858687,-0.0065791067,-0.000120194505,0.0,0.0,0.0,0.0,0.0
95545545,95545469,-0.0072945524,-0.00611658,-4.2990712e-05,0.0,0.0,0.0,0.0,0.0
95549560,95549486,-0.0070943884,-0.0061754687,6.441672e-05,0.0,0.0,0.0,0.0,0.0
95553545,95553469,-0.00651718,-0.0062657106,-4.470045e-05,0.0,0.0,0.0,0.0,0.0
95557545,95557469,-0.0066654333,-0.0062344642,-0.00016298715,0.0,0.0,0.0,0.0,0.0
95561572,95561469,-0.007122413,-0.0065158918,-0.00019709142,0.0,0.0,0.0,0.0,0.0
95565549,95565469,-0.00688741,-0.006026381,-8.5055675e-05,0.0,0.0,0.0,0.0,0.0
95569576,95569496,-0.006622499,-0.005991863,0.00013250763,0.0,0.0,0.0,0.0,0.0
95573571,95573469,-0.006689216,-0.006130992,0.00030330833,0.0,0.0,0.0,0.0,0.0
95577553,95577473,-0.0067803697,-0.0062472755,0.00027177538,0.0,0.0,0.0,0.0,0.0
95581545,95581469,-0.0068983184,-0.006246409,0.00020273216,0.0,0.0,0.0,0.0,0.0
95585547,95585468,-0.006782102,-0.0062897755,4.3508266e-05,0.0,0.0,0.0,0.0,0.0
95589600,95589514,-0.00673835,-0.006912597,8.3042745e-05,0.0,0.0,0.0,0.0,0.0
95593599,95593483,-0.006880568,-0.0069269086,0.00018819001,0.0,0.0,0.0,0.0,0.0
95597545,95597469,-0.0065368796,-0.006260873,0.00027567137,0.0,0.0,0.0,0.0,0.0
95601545,95601469,-0.0067865774,-0.0061761886,0.00029600985,0.0,0.0,0.0,0.0,0.0
95605548,95605469,-0.007382086,-0.00612843,0.0002221912,0.0,0.0,0.0,0.0,0.0
95609568,95609491,-0.0071190065,-0.0061233933,0.00017341749,0.0,0.0,0.0,0.0,0.0
95613563,95613486,-0.006775538,-0.0061353287,0.00014806332,0.0,0.0,0.0,0.0,0.0
95617545,95617469,-0.0064423247,-0.0062751235,3.1913685e-05,0.0,0.0,0.0,0.0,0.0
95621545,95621469,-0.0059722215,-0.0065429993,-5.5396117e-06,0.0,0.0,0.0,0.0,0.0
95625553,95625476,-0.0063365675,-0.0067467736,-9.116575e-05,0.0,0.0,0.0,0.0,0.0
95629589,95629475,-0.0069636675,-0.0064353836,-0.0001188055,0.0,0.0,0.0,0.0,0.0
95633598,95633519,-0.007242006,-0.0059759994,-9.0412e-05,0.0,0.0,0.0,0.0,0.0
95637545,95637469,-0.0072303857,-0.0060457075,-3.8166712e-05,0.0,0.0,0.0,0.0,0.0
95641545,95641469,-0.0066976766,-0.006534636,5.3468884e-05,0.0,0.0,0.0,0.0,0.0
95645545,95645469,-0.0070535345,-0.006602001,9.059896e-05,0.0,0.0,0.0,0.0,0.0
95649578,95649475,-0.007015453,-0.0063722255,8.4699015e-05,0.0,0.0,0.0,0.0,0.0
95653545,95653469,-0.006788673,-0.0061391196,-9.429653e-06,0.0,0.0,0.0,0.0,0.0
95657574,95657468,-0.0066769146,-0.0058527314,-6.719765e-05,0.0,0.0,0.0,0.0,0.0
95661548,95661469,-0.006324153,-0.005868042,-0.00011647553,0.0,0.0,0.0,0.0,0.0
95665545,95665469,-0.006877965,-0.005534935,-3.4562418e-05,0.0,0.0,0.0,0.0,0.0
95669593,95669475,-0.0071359193,-0.0057469383,0.00015564916,0.0,0.0,0.0,0.0,0.0
95673545,95673469,-0.0069141923,-0.0056251716,0.0002845929,0.0,0.0,0.0,0.0,0.0
95677614,95677501,-0.006693601,-0.006148028,0.00031565083,0.0,0.0,0.0,0.0,0.0
95681557,95681470,-0.0068373773,-0.0067801666,0.0002484878,0.0,0.0,0.0,0.0,0.0
95685545,95685469,-0.006320831,-0.0069168787,0.00022491223,0.0,0.0,0.0,0.0,0.0
95689596,95689499,-0.0066614067,-0.007301297,0.00016036927,0.0,0.0,0.0,0.0,0.0
95693545,95693469,-0.007307243,-0.0069681494,9.164154e-05,0.0,0.0,0.0,0.0,0.0
95697576,95697495,-0.0068753036,-0.0066013155,7.152469e-05,0.0,0.0,0.0,0.0,0.0
95701545,95701469,-0.0067746905,-0.0057904837,3.3422424e-05,0.0,0.0,0.0,0.0,0.0
95705548,95705468,-0.0072266366,-0.005718678,3.2888056e-06,0.0,0.0,0.0,0.0,0.0
95709586,95709468,-0.0071006315,-0.0057438714,5.132438e-05,0.0,0.0,0.0,0.0,0.0
95713545,95713469,-0.0073384508,-0.0059802015,9.2487615e-05,0.0,0.0,0.0,0.0,0.0
95717573,95717494,-0.007122724,-0.0061649033,0.00012360881,0.0,0.0,0.0,0.0,0.0
95721545,95721469,-0.0068254313,-0.006075168,6.463148e-05,0.0,0.0,0.0,0.0,0.0
95725545,95725469,-0.006629722,-0.006296601,2.8138835e-05,0.0,0.0,0.0,0.0,0.0
95729545,95729469,-0.0067842887,-0.005740083,0.000117534866,0.0,0.0,0.0,0.0,0.0
95733546,95733469,-0.006924093,-0.0056765517,0.00016824735,0.0,0.0,0.0,0.0,0.0
95737583,95737502,-0.007135754,-0.0061898506,0.00020304493,0.0,0.0,0.0,0.0,0.0
95741571,95741469,-0.0069555272,-0.0067677903,0.00019170126,0.0,0.0,0.0,0.0,0.0
95745554,95745472,-0.0066864043,-0.0061925435,4.8070095e-05,0.0,0.0,0.0,0.0,0.0
95749549,95749469,-0.006232049,-0.0061408128,4.1045012e-05,0.0,0.0,0.0,0.0,0.0
95753548,95753468,-0.006365087,-0.0061274064,-3.785871e-05,0.0,0.0,0.0,0.0,0.0
95757587,95757507,-0.0066813026,-0.006877012,-0.00019605202,0.0,0.0,0.0,0.0,0.0
95761585,95761468,-0.006681122,-0.0067175715,-0.00025146126,0.0,0.0,0.0,0.0,0.0
95765548,95765468,-0.0069719707,-0.006180558,-0.00027495364,0.0,0.0,0.0,0.0,0.0
95769548,95769472,-0.007215645,-0.0061653303,-0.00012977199,0.0,0.0,0.0,0.0,0.0
95773548,95773469,-0.0071297977,-0.0063304715,3.3017135e-05,0.0,0.0,0.0,0.0,0.0
95777583,95777476,-0.0070205606,-0.0062163253,8.4638414e-05,0.0,0.0,0.0,0.0,0.0
95781562,95781486,-0.006792186,-0.005902967,8.7528446e-05,0.0,0.0,0.0,0.0,0.0
95785548,95785469,-0.0066013774,-0.0062356796,4.3195745e-05,0.0,0.0,0.0,0.0,0.0
95789545,95789469,-0.0070938724,-0.006173064,8.785586e-05,0.0,0.0,0.0,0.0,0.0
95793545,95793469,-0.0070380163,-0.0061060856,8.577558e-05,0.0,0.0,0.0,0.0,0.0
95797593,95797475,-0.006921074,-0.0059099337,3.8204846e-05,0.0,0.0,0.0,0.0,0.0
95801591,95801512,-0.0065615885,-0.0062271613,7.336744e-06,0.0,0.0,0.0,0.0,0.0
95805545,95805469,-0.006261729,-0.0065600816,3.4061803e-05,0.0,0.0,0.0,0.0,0.0
95809550,95809468,-0.006525696,-0.0060490305,0.00019872561,0.0,0.0,0.0,0.0,0.0
95813545,95813469,-0.0067083254,-0.006151835,0.0002618166,0.0,0.0,0.0,0.0,0.0
95817583,95817475,-0.007336616,-0.0065338565,0.00016459117,0.0,0.0,0.0,0.0,0.0
95821545,95821469,-0.0073687322,-0.0062139085,2.6537002e-05,0.0,0.0,0.0,0.0,0.0
95825595,95825489,-0.007146567,-0.005870963,7.0761103e-06,0.0,0.0,0.0,0.0,0.0
95829563,95829480,-0.0069745383,-0.005559287,8.7391825e-05,0.0,0.0,0.0,0.0,0.0
95833545,95833469,-0.0072629224,-0.0054576765,0.00015064506,0.0,0.0,0.0,0.0,0.0
95837593,95837475,-0.0072208815,-0.0058134417,0.00012835683,0.0,0.0,0.0,0.0,0.0
95841549,95841468,-0.007078914,-0.0063705607,8.919749e-05,0.0,0.0,0.0,0.0,0.0
95845601,95845487,-0.0067796367,-0.006607423,0.00011244398,0.0,0.0,0.0,0.0,0.0
95849548,95849468,-0.0066020587,-0.0062898556,0.00014629443,0.0,0.0,0.0,0.0,0.0
95853553,95853473,-0.0066034747,-0.0058729425,0.00012697546,0.0,0.0,0.0,0.0,0.0
95857585,95857475,-0.0062743104,-0.0061815814,0.00017596153,0.0,0.0,0.0,0.0,0.0
95861548,95861468,-0.0065984125,-0.0061416347,0.00020453586,0.0,0.0,0.0,0.0,0.0
95865582,95865506,-0.006422759,-0.0059864684,9.207464e-05,0.0,0.0,0.0,0.0,0.0
95869545,95869469,-0.0063222013,-0.005957944,1.8776529e-05,0.0,0.0,0.0,0.0,0.0
95873545,95873469,-0.00697581,-0.005765116,6.976116e-05,0.0,0.0,0.0,0.0,0.0
95877552,95877475,-0.0077231964,-0.006193032,8.954763e-06,0.0,0.0,0.0,0.0,0.0
95881545,95881469,-0.00733421,-0.0066800294,-1.090992e-05,0.0,0.0,0.0,0.0,0.0
95885618,95885542,-0.0068962183,-0.0068417485,1.7947086e-05,0.0,0.0,0.0,0.0,0.0
95889545,95889469,-0.0072937137,-0.0061086356,5.3339023e-05,0.0,0.0,0.0,0.0,0.0
95892867,95892712,-0.00720092,-0.006123804,5.8460835e-05,0.0,0.0,0.0,0.0,0.0
95897554,95897475,-0.0066891364,-0.0064379186,9.8845005e-05,0.0,0.0,0.0,0.0,0.0
95901545,95901469,-0.00678582,-0.0060604387,1.8838333e-05,0.0,0.0,0.0,0.0,0.0
95905572,95905469,-0.0065598865,-0.0059630605,-0.00015395104,0.0,0.0,0.0,0.0,0.0
95909582,95909469,-0.006303796,-0.0061591277,-0.0002987816,0.0,0.0,0.0,0.0,0.0
95912843,95912701,-0.006573861,-0.006535508,-0.00032591246,0.0,0.0,0.0,0.0,0.0
95917545,95917469,-0.00724833,-0.0063888202,-0.00010528534,0.0,0.0,0.0,0.0,0.0
95921545,95921469,-0.0069584586,-0.00583501,0.00011643496,0.0,0.0,0.0,0.0,0.0
95925589,95925475,-0.006705013,-0.005969436,0.00011670653,0.0,0.0,0.0,0.0,0.0
95929582,95929469,-0.006675998,-0.006804231,6.358083e-05,0.0,0.0,0.0,0.0,0.0
95932807,95932701,-0.0065370747,-0.0066909553,3.277269e-06,0.0,0.0,0.0,0.0,0.0
95936000,95935924,-0.0064915502,-0.0062977145,-5.548207e-05,0.0,0.0,0.0,0.0,0.0
95940033,95939916,-0.0071374886,-0.005513029,-7.551013e-05,0.0,0.0,0.0,0.0,0.0
95944745,95944669,-0.006981258,-0.0058010835,-7.758344e-05,0.0,0.0,0.0,0.0,0.0
95948745,95948669,-0.0067626433,-0.0060852515,-7.402607e-05,0.0,0.0,0.0,0.0,0.0
95952010,95951887,-0.0067969454,-0.006435956,-7.119235e-06,0.0,0.0,0.0,0.0,0.0
95956752,95956675,-0.006548719,-0.0062745744,2.1439593e-05,0.0,0.0,0.0,0.0,0.0
95960035,95959916,-0.00632419,-0.0061975936,-3.2021112e-06,0.0,0.0,0.0,0.0,0.0
95964745,95964669,-0.0066331984,-0.005907407,-1.5230224e-06,0.0,0.0,0.0,0.0,0.0
95968745,95968669,-0.006845472,-0.006255892,-4.3925495e-05,0.0,0.0,0.0,0.0,0.0
95972823,95972669,-0.006978979,-0.0063173133,-0.00011936601,0.0,0.0,0.0,0.0,0.0
95975984,95975905,-0.0069680028,-0.0060518486,-5.677252e-05,0.0,0.0,0.0,0.0,0.0
95980036,95979913,-0.007661188,-0.006098471,6.677983e-05,0.0,0.0,0.0,0.0,0.0
95984745,95984668,-0.0077541587,-0.0062699667,0.00016205128,0.0,0.0,0.0,0.0,0.0
95988745,95988669,-0.0073932274,-0.0061114584,0.00026477486,0.0,0.0,0.0,0.0,0.0
95992801,95992669,-0.0070550074,-0.006057703,0.00020622088,0.0,0.0,0.0,0.0,0.0
95996788,95996675,-0.006453293,-0.0061853193,4.9503473e-05,0.0,0.0,0.0,0.0,0.0
96000003,95999926,-0.0061232205,-0.006283578,-8.045885e-05,0.0,0.0,0.0,0.0,0.0
96004744,96004668,-0.006822352,-0.0059242323,-0.0001348611,0.0,0.0,0.0,0.0,0.0
96007992,96007913,-0.0068254494,-0.0061189495,3.1257874e-05,0.0,0.0,0.0,0.0,0.0
96012815,96012668,-0.0070359525,-0.006514381,0.00015613883,0.0,0.0,0.0,0.0,0.0
96016758,96016681,-0.0070815827,-0.0065232464,0.00024818635,0.0,0.0,0.0,0.0,0.0
96020016,96019911,-0.006571516,-0.006392802,0.0002514634,0.0,0.0,0.0,0.0,0.0
96024745,96024669,-0.006825268,-0.0058157095,0.000184902,0.0,0.0,0.0,0.0,0.0
96028745,96028669,-0.006874797,-0.0057494943,0.00015739871,0.0,0.0,0.0,0.0,0.0
96032801,96032669,-0.0066924267,-0.006108514,0.00012675274,0.0,0.0,0.0,0.0,0.0
96035995,96035916,-0.0067479196,-0.0061303684,5.3913922e-05,0.0,0.0,0.0,0.0,0.0
96040758,96040682,-0.0065157874,-0.006142943,-6.534784e-05,0.0,0.0,0.0,0.0,0.0
96044751,96044675,-0.006515848,-0.0057312786,-9.816834e-05,0.0,0.0,0.0,0.0,0.0
96048745,96048669,-0.0071377633,-0.0057895053,-5.078661e-05,0.0,0.0,0.0,0.0,0.0
96052812,96052669,-0.0072220657,-0.006478735,2.9172274e-05,0.0,0.0,0.0,0.0,0.0
96056745,96056669,-0.0066536884,-0.006544298,-2.1144155e-05,0.0,0.0,0.0,0.0,0.0
96060829,96060712,-0.0063891322,-0.0063098683,-0.00011585099,0.0,0.0,0.0,0.0,0.0
96064751,96064675,-0.006200927,-0.0061938013,-0.00013144976,0.0,0.0,0.0,0.0,0.0
96068745,96068669,-0.0062861494,-0.0058899745,-6.8851527e-06,0.0,0.0,0.0,0.0,0.0
96072822,96072669,-0.0072013373,-0.0061713224,0.00013698175,0.0,0.0,0.0,0.0,0.0
96076745,96076669,-0.007431274,-0.006215048,0.0001425555,0.0,0.0,0.0,0.0,0.0
96080784,96080671,-0.0074227112,-0.00606232,9.972783e-06,0.0,0.0,0.0,0.0,0.0
96083966,96083890,-0.0070756543,-0.0060932906,-9.787502e-05,0.0,0.0,0.0,0.0,0.0
96087247,96087129,-0.007146677,-0.006101922,-7.898355e-05,0.0,0.0,0.0,0.0,0.0
96091148,96091069,-0.0071127233,-0.0059994482,-1.2294758e-05,0.0,0.0,0.0,0.0,0.0
96095148,96095069,-0.006830512,-0.0064551043,3.5194746e-05,0.0,0.0,0.0,0.0,0.0
96102391,96102308,-0.006942023,-0.0061662793,7.836589e-05,0.0,0.0,0.0,0.0,0.0
96106345,96106269,-0.006409776,-0.006508491,0.00014843371,0.0,0.0,0.0,0.0,0.0
96110347,96110269,-0.006269957,-0.0063655963,0.00019102267,0.0,0.0,0.0,0.0,0.0
96114416,96114293,-0.0063904873,-0.006071716,0.00015697507,0.0,0.0,0.0,0.0,0.0
96118349,96118269,-0.0067492505,-0.00638967,0.0001555099,0.0,0.0,0.0,0.0,0.0
96122349,96122269,-0.006840614,-0.0065470836,0.0001913294,0.0,0.0,0.0,0.0,0.0
96126345,96126268,-0.0066612707,-0.006487713,0.00013651373,0.0,0.0,0.0,0.0,0.0
96130352,96130269,-0.0068448973,-0.006127666,0.00012975158,0.0,0.0,0.0,0.0,0.0
96134403,96134294,-0.0072742472,-0.0060120337,0.000119666525,0.0,0.0,0.0,0.0,0.0
96138345,96138269,-0.0077983774,-0.0060631786,4.9798076e-05,0.0,0.0,0.0,0.0,0.0
96141587,96141507,-0.007223427,-0.0058376603,-2.660221e-05,0.0,0.0,0.0,0.0,0.0
96145546,96145469,-0.00660851,-0.006056023,-3.506312e-05,0.0,0.0,0.0,0.0,0.0
96149546,96149469,-0.006935684,-0.006066806,-9.970785e-06,0.0,0.0,0.0,0.0,0.0
96153552,96153475,-0.007300367,-0.0062309797,0.0001373213,0.0,0.0,0.0,0.0,0.0
96157549,96157472,-0.0073842704,-0.006229459,0.00023817227,0.0,0.0,0.0,0.0,0.0
96161595,96161477,-0.0066671344,-0.0059851967,0.00022756404,0.0,0.0,0.0,0.0,0.0
96165548,96165469,-0.006485134,-0.0055590533,8.114879e-05,0.0,0.0,0.0,0.0,0.0
96169593,96169517,-0.0064071943,-0.0055907047,-3.5558758e-05,0.0,0.0,0.0,0.0,0.0
96173564,96173475,-0.006654176,-0.005873198,-0.00010632619,0.0,0.0,0.0,0.0,0.0
96177547,96177470,-0.0067857443,-0.0060654073,-5.7219888e-05,0.0,0.0,0.0,0.0,0.0
96181599,96181486,-0.006441159,-0.0065143653,2.1888742e-05,0.0,0.0,0.0,0.0,0.0
96185546,96185469,-0.006789601,-0.006347218,4.7462236e-05,0.0,0.0,0.0,0.0,0.0
96188794,96188718,-0.0070485026,-0.005936454,9.2756854e-05,0.0,0.0,0.0,0.0,0.0
96192775,96192669,-0.0068449387,-0.006214763,0.00016180512,0.0,0.0,0.0,0.0,0.0
96196758,96196678,-0.006364147,-0.00656902,0.00023554832,0.0,0.0,0.0,0.0,0.0
96200745,96200669,-0.0065313615,-0.006459193,0.00020850357,0.0,0.0,0.0,0.0,0.0
96204772,96204695,-0.0069044265,-0.005507439,0.00031419026,0.0,0.0,0.0,0.0,0.0
96208816,96208714,-0.0070000784,-0.00534657,0.00043459493,0.0,0.0,0.0,0.0,0.0
96212775,96212669,-0.0071350783,-0.0056791804,0.0003804137,0.0,0.0,0.0,0.0,0.0
96216745,96216669,-0.007114959,-0.0062926374,0.00016550334,0.0,0.0,0.0,0.0,0.0
96220745,96220669,-0.00704226,-0.006773641,7.5739576e-05,0.0,0.0,0.0,0.0,0.0
96224752,96224675,-0.0067506665,-0.006774875,-2.5710528e-05,0.0,0.0,0.0,0.0,0.0
96228803,96228690,-0.0067176064,-0.006567563,-3.1556572e-06,0.0,0.0,0.0,0.0,0.0
96232774,96232668,-0.0072553665,-0.0059003583,5.778405e-05,0.0,0.0,0.0,0.0,0.0
96236746,96236670,-0.007858388,-0.0054442543,9.968483e-05,0.0,0.0,0.0,0.0,0.0
96240748,96240668,-0.0068631363,-0.0056584133,8.8053595e-05,0.0,0.0,0.0,0.0,0.0
96244745,96244669,-0.0065344498,-0.0058119423,0.00010265934,0.0,0.0,0.0,0.0,0.0
96248809,96248669,-0.0064276555,-0.005718793,0.00021890679,0.0,0.0,0.0,0.0,0.0
96252781,96252675,-0.00638016,-0.005635301,0.00023570377,0.0,0.0,0.0,0.0,0.0
96256746,96256669,-0.006774211,-0.005959055,0.00015149791,0.0,0.0,0.0,0.0,0.0
96260745,96260669,-0.007054409,-0.006127896,0.00012623948,0.0,0.0,0.0,0.0,0.0
96264758,96264669,-0.0068148854,-0.006142623,3.070333e-05,0.0,0.0,0.0,0.0,0.0
96268789,96268675,-0.0067905756,-0.006490406,-0.00012882656,0.0,0.0,0.0,0.0,0.0
96272781,96272675,-0.0071631963,-0.006434294,-0.0002383712,0.0,0.0,0.0,0.0,0.0
96276745,96276669,-0.0068460004,-0.006162468,-0.00014624353,0.0,0.0,0.0,0.0,0.0
96280745,96280669,-0.0066884896,-0.006473475,0.00010821691,0.0,0.0,0.0,0.0,0.0
96284745,96284669,-0.0067766225,-0.006507359,0.000301075,0.0,0.0,0.0,0.0,0.0
96288778,96288672,-0.0067864135,-0.006437701,0.00041228445,0.0,0.0,0.0,0.0,0.0
96292781,96292675,-0.006759736,-0.0063149254,0.0004226778,0.0,0.0,0.0,0.0,0.0
96296745,96296669,-0.006751771,-0.006159308,0.00030002467,0.0,0.0,0.0,0.0,0.0
96300745,96300669,-0.006514328,-0.0058181924,9.60766e-05,0.0,0.0,0.0,0.0,0.0
96304745,96304669,-0.0069032265,-0.005945786,-5.688719e-05,0.0,0.0,0.0,0.0,0.0
96308787,96308673,-0.0072289445,-0.0060492964,-6.780467e-05,0.0,0.0,0.0,0.0,0.0
96312817,96312675,-0.006764069,-0.0059787603,4.6733174e-05,0.0,0.0,0.0,0.0,0.0
96316794,96316718,-0.00659085,-0.0059861303,0.000115832176,0.0,0.0,0.0,0.0,0.0
96320745,96320669,-0.006643852,-0.0066090473,0.00011181501,0.0,0.0,0.0,0.0,0.0
96324745,96324669,-0.00684334,-0.006260474,-1.5777647e-05,0.0,0.0,0.0,0.0,0.0
96328784,96328669,-0.0068929056,-0.0059319967,7.264065e-05,0.0,0.0,0.0,0.0,0.0
96332827,96332675,-0.0071465173,-0.0064618946,0.00019095925,0.0,0.0,0.0,0.0,0.0
96336783,96336707,-0.0073304367,-0.00618481,0.00018872552,0.0,0.0,0.0,0.0,0.0
96340745,96340669,-0.007147178,-0.005926069,0.00015620021,0.0,0.0,0.0,0.0,0.0
96344745,96344669,-0.0064760097,-0.0060019353,-2.2335764e-06,0.0,0.0,0.0,0.0,0.0
96348748,96348672,-0.006581716,-0.005987384,9.802495e-06,0.0,0.0,0.0,0.0,0.0
96352789,96352683,-0.0068835,-0.0060146675,5.007938e-05,0.0,0.0,0.0,0.0,0.0
96356751,96356671,-0.00687469,-0.0061633918,4.2945852e-05,0.0,0.0,0.0,0.0,0.0
96360751,96360668,-0.006866476,-0.006243883,3.3080087e-05,0.0,0.0,0.0,0.0,0.0
96364745,96364668,-0.0067894743,-0.0062887548,4.559626e-05,0.0,0.0,0.0,0.0,0.0
96368745,96368668,-0.0072610965,-0.00609842,0.00012627614,0.0,0.0,0.0,0.0,0.0
96372823,96372717,-0.007835613,-0.0051905317,0.0001813826,0.0,0.0,0.0,0.0,0.0
96376757,96376680,-0.0075493515,-0.0053365147,0.00021789571,0.0,0.0,0.0,0.0,0.0
96380745,96380669,-0.006765871,-0.005738884,0.00022490078,0.0,0.0,0.0,0.0,0.0
96384768,96384691,-0.0064386097,-0.006348252,4.9235143e-05,0.0,0.0,0.0,0.0,0.0
96388749,96388669,-0.0063442853,-0.0067938124,5.6441186e-05,0.0,0.0,0.0,0.0,0.0
96392784,96392675,-0.0068416167,-0.0064137243,2.767232e-05,0.0,0.0,0.0,0.0,0.0
96396819,96396669,-0.006688146,-0.005944334,-7.4219555e-05,0.0,0.0,0.0,0.0,0.0
96400745,96400669,-0.006616191,-0.0060292035,-6.8186324e-05,0.0,0.0,0.0,0.0,0.0
96404745,96404669,-0.006979941,-0.006117942,-7.450526e-05,0.0,0.0,0.0,0.0,0.0
96408745,96408669,-0.006947797,-0.00604202,-0.00013687774,0.0,0.0,0.0,0.0,0.0
96412781,96412675,-0.0070520844,-0.0063334377,-0.00023629701,0.0,0.0,0.0,0.0,0.0
96416811,96416668,-0.007061628,-0.006020929,-0.00029446182,0.0,0.0,0.0,0.0,0.0
96420745,96420668,-0.007313773,-0.005811305,-0.00012021574,0.0,0.0,0.0,0.0,0.0
96424745,96424669,-0.0071471934,-0.0060584145,7.004011e-05,0.0,0.0,0.0,0.0,0.0
96428745,96428669,-0.007187444,-0.006384069,0.00012314935,0.0,0.0,0.0,0.0,0.0
96432781,96432675,-0.00723615,-0.006223576,2.750752e-05,0.0,0.0,0.0,0.0,0.0
96436807,96436689,-0.0068209977,-0.006166453,4.3327796e-05,0.0,0.0,0.0,0.0,0.0
96440745,96440669,-0.0063943155,-0.005630696,0.00013708578,0.0,0.0,0.0,0.0,0.0
96444791,96444715,-0.006422203,-0.0057439804,0.000119467535,0.0,0.0,0.0,0.0,0.0
96448745,96448669,-0.0066622915,-0.005945759,0.0001018167,0.0,0.0,0.0,0.0,0.0
96452781,96452675,-0.006334023,-0.00646503,0.00016986302,0.0,0.0,0.0,0.0,0.0
96455976,96455897,-0.0062591066,-0.006583678,0.00018624116,0.0,0.0,0.0,0.0,0.0
96460753,96460669,-0.0071547707,-0.0063335975,0.00020463298,0.0,0.0,0.0,0.0,0.0
96464777,96464701,-0.0073327725,-0.0061873826,0.00017804363,0.0,0.0,0.0,0.0,0.0
96468745,96468669,-0.0071204766,-0.0061866846,0.0001694903,0.0,0.0,0.0,0.0,0.0
96472775,96472669,-0.006369241,-0.0057573337,0.00020562041,0.0,0.0,0.0,0.0,0.0
96476783,96476669,-0.006278774,-0.0055811564,0.00016362153,0.0,0.0,0.0,0.0,0.0
96480788,96480675,-0.006553461,-0.005855615,0.0001886502,0.0,0.0,0.0,0.0,0.0
96484788,96484712,-0.0065881726,-0.0063283793,0.00011125713,0.0,0.0,0.0,0.0,0.0
96488745,96488669,-0.006821014,-0.0061315265,1.5283404e-05,0.0,0.0,0.0,0.0,0.0
96492775,96492669,-0.0069990116,-0.0057830936,-0.0001125748,0.0,0.0,0.0,0.0,0.0
96496745,96496669,-0.0069212797,-0.0060531143,-0.00015198842,0.0,0.0,0.0,0.0,0.0
96500788,96500675,-0.006764801,-0.0057042977,-8.1319566e-05,0.0,0.0,0.0,0.0,0.0
96504793,96504717,-0.006774195,-0.0059746234,1.2526356e-05,0.0,0.0,0.0,0.0,0.0
96508745,96508669,-0.006694256,-0.0066680512,0.00014318823,0.0,0.0,0.0,0.0,0.0
96512775,96512669,-0.0066684107,-0.006489033,0.00019005545,0.0,0.0,0.0,0.0,0.0
96516745,96516669,-0.006464821,-0.0058522807,0.00024880868,0.0,0.0,0.0,0.0,0.0
96520776,96520696,-0.00686414,-0.00568458,0.00022691421,0.0,0.0,0.0,0.0,0.0
96524776,96524696,-0.0072719795,-0.0060780286,0.0002494206,0.0,0.0,0.0,0.0,0.0
96528745,96528669,-0.0074564316,-0.0064308546,0.0002144554,0.0,0.0,0.0,0.0,0.0
96532787,96532669,-0.007525178,-0.006146927,0.00015813194,0.0,0.0,0.0,0.0,0.0
