timestamp,noutputs,output[0],output[1],output[2],output[3],output[4],output[5],output[6],output[7],output[8],output[9],output[10],output[11],output[12],output[13],output[14],output[15]
93446169,8,1075.0,1075.0,1075.0,1075.0,1075.0,1075.0,0.0,0.0,0.0,0.0,0.0,0.0,0.0,0.0,0.0,0.0
93533730,8,1075.0,1075.0,1075.0,1075.0,1075.0,1075.0,0.0,0.0,0.0,0.0,0.0,0.0,0.0,0.0,0.0,0.0
93645986,8,1075.0,1075.0,1075.0,1075.0,1075.0,1075.0,0.0,0.0,0.0,0.0,0.0,0.0,0.0,0.0,0.0,0.0
93728956,8,1075.0,1075.0,1075.0,1075.0,1075.0,1075.0,0.0,0.0,0.0,0.0,0.0,0.0,0.0,0.0,0.0,0.0
93841515,8,1075.0,1075.0,1075.0,1075.0,1075.0,1075.0,0.0,0.0,0.0,0.0,0.0,0.0,0.0,0.0,0.0,0.0
93949373,8,1075.0,1075.0,1075.0,1075.0,1075.0,1075.0,0.0,0.0,0.0,0.0,0.0,0.0,0.0,0.0,0.0,0.0
94041186,8,1075.0,1075.0,1075.0,1075.0,1075.0,1075.0,0.0,0.0,0.0,0.0,0.0,0.0,0.0,0.0,0.0,0.0
94133003,8,1075.0,1075.0,1075.0,1075.0,1075.0,1075.0,0.0,0.0,0.0,0.0,0.0,0.0,0.0,0.0,0.0,0.0
94245147,8,1075.0,1075.0,1075.0,1075.0,1075.0,1075.0,0.0,0.0,0.0,0.0,0.0,0.0,0.0,0.0,0.0,0.0
94349111,8,1075.0,1075.0,1075.0,1075.0,1075.0,1075.0,0.0,0.0,0.0,0.0,0.0,0.0,0.0,0.0,0.0,0.0
94456169,8,1075.0,1075.0,1075.0,1075.0,1075.0,1075.0,0.0,0.0,0.0,0.0,0.0,0.0,0.0,0.0,0.0,0.0
94564332,8,1075.0,1075.0,1075.0,1075.0,1075.0,1075.0,0.0,0.0,0.0,0.0,0.0,0.0,0.0,0.0,0.0,0.0
94660165,8,1075.0,1075.0,1075.0,1075.0,1075.0,1075.0,0.0,0.0,0.0,0.0,0.0,0.0,0.0,0.0,0.0,0.0
94752188,8,1075.0,1075.0,1075.0,1075.0,1075.0,1075.0,0.0,0.0,0.0,0.0,0.0,0.0,0.0,0.0,0.0,0.0
94860209,8,1075.0,1075.0,1075.0,1075.0,1075.0,1075.0,0.0,0.0,0.0,0.0,0.0,0.0,0.0,0.0,0.0,0.0
94952250,8,1075.0,1075.0,1075.0,1075.0,1075.0,1075.0,0.0,0.0,0.0,0.0,0.0,0.0,0.0,0.0,0.0,0.0
95064549,8,1075.0,1075.0,1075.0,1075.0,1075.0,1075.0,0.0,0.0,0.0,0.0,0.0,0.0,0.0,0.0,0.0,0.0
95171747,8,1075.0,1075.0,1075.0,1075.0,1075.0,1075.0,0.0,0.0,0.0,0.0,0.0,0.0,0.0,0.0,0.0,0.0
95259368,8,1075.0,1075.0,1075.0,1075.0,1075.0,1075.0,0.0,0.0,0.0,0.0,0.0,0.0,0.0,0.0,0.0,0.0
95371370,8,1075.0,1075.0,1075.0,1075.0,1075.0,1075.0,0.0,0.0,0.0,0.0,0.0,0.0,0.0,0.0,0.0,0.0
95463343,8,1075.0,1075.0,1075.0,1075.0,1075.0,1075.0,0.0,0.0,0.0,0.0,0.0,0.0,0.0,0.0,0.0,0.0
95567757,8,1075.0,1075.0,1075.0,1075.0,1075.0,1075.0,0.0,0.0,0.0,0.0,0.0,0.0,0.0,0.0,0.0,0.0
95679630,8,1075.0,1075.0,1075.0,1075.0,1075.0,1075.0,0.0,0.0,0.0,0.0,0.0,0.0,0.0,0.0,0.0,0.0
95771575,8,1075.0,1075.0,1075.0,1075.0,1075.0,1075.0,0.0,0.0,0.0,0.0,0.0,0.0,0.0,0.0,0.0,0.0
95887575,8,1075.0,1075.0,1075.0,1075.0,1075.0,1075.0,0.0,0.0,0.0,0.0,0.0,0.0,0.0,0.0,0.0,0.0
95981894,8,1075.0,1075.0,1075.0,1075.0,1075.0,1075.0,0.0,0.0,0.0,0.0,0.0,0.0,0.0,0.0,0.0,0.0
96089155,8,1075.0,1075.0,1075.0,1075.0,1075.0,1075.0,0.0,0.0,0.0,0.0,0.0,0.0,0.0,0.0,0.0,0.0
96175782,8,1075.0,1075.0,1075.0,1075.0,1075.0,1075.0,0.0,0.0,0.0,0.0,0.0,0.0,0.0,0.0,0.0,0.0
96290558,8,1075.0,1075.0,1075.0,1075.0,1075.0,1075.0,0.0,0.0,0.0,0.0,0.0,0.0,0.0,0.0,0.0,0.0
96378807,8,1075.0,1075.0,1075.0,1075.0,1075.0,1075.0,0.0,0.0,0.0,0.0,0.0,0.0,0.0,0.0,0.0,0.0
96490573,8,1075.0,1075.0,1075.0,1075.0,1075.0,1075.0,0.0,0.0,0.0,0.0,0.0,0.0,0.0,0.0,0.0,0.0
96590550,8,1075.0,1075.0,1075.0,1075.0,1075.0,1075.0,0.0,0.0,0.0,0.0,0.0,0.0,0.0,0.0,0.0,0.0
96699324,8,1075.0,1075.0,1075.0,1075.0,1075.0,1075.0,0.0,0.0,0.0,0.0,0.0,0.0,0.0,0.0,0.0,0.0
96789927,8,1075.0,1075.0,1075.0,1075.0,1075.0,1075.0,0.0,0.0,0.0,0.0,0.0,0.0,0.0,0.0,0.0,0.0
96901911,8,1075.0,1075.0,1075.0,1075.0,1075.0,1075.0,0.0,0.0,0.0,0.0,0.0,0.0,0.0,0.0,0.0,0.0
96985721,8,1075.0,1075.0,1075.0,1075.0,1075.0,1075.0,0.0,0.0,0.0,0.0,0.0,0.0,0.0,0.0,0.0,0.0
97098004,8,1075.0,1075.0,1075.0,1075.0,1075.0,1075.0,0.0,0.0,0.0,0.0,0.0,0.0,0.0,0.0,0.0,0.0
97185880,8,1075.0,1075.0,1075.0,1075.0,1075.0,1075.0,0.0,0.0,0.0,0.0,0.0,0.0,0.0,0.0,0.0,0.0
97297964,8,1075.0,1075.0,1075.0,1075.0,1075.0,1075.0,0.0,0.0,0.0,0.0,0.0,0.0,0.0,0.0,0.0,0.0
97409881,8,1075.0,1075.0,1075.0,1075.0,1075.0,1075.0,0.0,0.0,0.0,0.0,0.0,0.0,0.0,0.0,0.0,0.0
97496272,8,1075.0,1075.0,1075.0,1075.0,1075.0,1075.0,0.0,0.0,0.0,0.0,0.0,0.0,0.0,0.0,0.0,0.0
97597200,8,1075.0,1075.0,1075.0,1075.0,1075.0,1075.0,0.0,0.0,0.0,0.0,0.0,0.0,0.0,0.0,0.0,0.0
97709147,8,1075.0,1075.0,1075.0,1075.0,1075.0,1075.0,0.0,0.0,0.0,0.0,0.0,0.0,0.0,0.0,0.0,0.0
97797100,8,1075.0,1075.0,1075.0,1075.0,1075.0,1075.0,0.0,0.0,0.0,0.0,0.0,0.0,0.0,0.0,0.0,0.0
97909115,8,1075.0,1075.0,1075.0,1075.0,1075.0,1075.0,0.0,0.0,0.0,0.0,0.0,0.0,0.0,0.0,0.0,0.0
98001179,8,1075.0,1075.0,1075.0,1075.0,1075.0,1075.0,0.0,0.0,0.0,0.0,0.0,0.0,0.0,0.0,0.0,0.0
98112967,8,1075.0,1075.0,1075.0,1075.0,1075.0,1075.0,0.0,0.0,0.0,0.0,0.0,0.0,0.0,0.0,0.0,0.0
98221137,8,1075.0,1075.0,1075.0,1075.0,1075.0,1075.0,0.0,0.0,0.0,0.0,0.0,0.0,0.0,0.0,0.0,0.0
98312122,8,1075.0,1075.0,1075.0,1075.0,1075.0,1075.0,0.0,0.0,0.0,0.0,0.0,0.0,0.0,0.0,0.0,0.0
98424414,8,1075.0,1075.0,1075.0,1075.0,1075.0,1075.0,0.0,0.0,0.0,0.0,0.0,0.0,0.0,0.0,0.0,0.0
98520145,8,1075.0,1075.0,1075.0,1075.0,1075.0,1075.0,0.0,0.0,0.0,0.0,0.0,0.0,0.0,0.0,0.0,0.0
98612289,8,1075.0,1075.0,1075.0,1075.0,1075.0,1075.0,0.0,0.0,0.0,0.0,0.0,0.0,0.0,0.0,0.0,0.0
98728548,8,1075.0,1075.0,1075.0,1075.0,1075.0,1075.0,0.0,0.0,0.0,0.0,0.0,0.0,0.0,0.0,0.0,0.0
98816134,8,1075.0,1075.0,1075.0,1075.0,1075.0,1075.0,0.0,0.0,0.0,0.0,0.0,0.0,0.0,0.0,0.0,0.0
98928320,8,1075.0,1075.0,1075.0,1075.0,1075.0,1075.0,0.0,0.0,0.0,0.0,0.0,0.0,0.0,0.0,0.0,0.0
99023491,8,1075.0,1075.0,1075.0,1075.0,1075.0,1075.0,0.0,0.0,0.0,0.0,0.0,0.0,0.0,0.0,0.0,0.0
99135375,8,1075.0,1075.0,1075.0,1075.0,1075.0,1075.0,0.0,0.0,0.0,0.0,0.0,0.0,0.0,0.0,0.0,0.0
99231809,8,1075.0,1075.0,1075.0,1075.0,1075.0,1075.0,0.0,0.0,0.0,0.0,0.0,0.0,0.0,0.0,0.0,0.0
99323349,8,1075.0,1075.0,1075.0,1075.0,1075.0,1075.0,0.0,0.0,0.0,0.0,0.0,0.0,0.0,0.0,0.0,0.0
99427561,8,1075.0,1075.0,1075.0,1075.0,1075.0,1075.0,0.0,0.0,0.0,0.0,0.0,0.0,0.0,0.0,0.0,0.0
99539323,8,1075.0,1075.0,1075.0,1075.0,1075.0,1075.0,0.0,0.0,0.0,0.0,0.0,0.0,0.0,0.0,0.0,0.0
99627788,8,1075.0,1075.0,1075.0,1075.0,1075.0,1075.0,0.0,0.0,0.0,0.0,0.0,0.0,0.0,0.0,0.0,0.0
99735818,8,1075.0,1075.0,1075.0,1075.0,1075.0,1075.0,0.0,0.0,0.0,0.0,0.0,0.0,0.0,0.0,0.0,0.0
99845946,8,1075.0,1075.0,1075.0,1075.0,1075.0,1075.0,0.0,0.0,0.0,0.0,0.0,0.0,0.0,0.0,0.0,0.0
99934590,8,1075.0,1075.0,1075.0,1075.0,1075.0,1075.0,0.0,0.0,0.0,0.0,0.0,0.0,0.0,0.0,0.0,0.0
100054741,8,1075.0,1075.0,1075.0,1075.0,1075.0,1075.0,0.0,0.0,0.0,0.0,0.0,0.0,0.0,0.0,0.0,0.0
100142580,8,1075.0,1075.0,1075.0,1075.0,1075.0,1075.0,0.0,0.0,0.0,0.0,0.0,0.0,0.0,0.0,0.0,0.0
100246712,8,1075.0,1075.0,1075.0,1075.0,1075.0,1075.0,0.0,0.0,0.0,0.0,0.0,0.0,0.0,0.0,0.0,0.0
100354721,8,1075.0,1075.0,1075.0,1075.0,1075.0,1075.0,0.0,0.0,0.0,0.0,0.0,0.0,0.0,0.0,0.0,0.0
100446523,8,1075.0,1075.0,1075.0,1075.0,1075.0,1075.0,0.0,0.0,0.0,0.0,0.0,0.0,0.0,0.0,0.0,0.0
100557755,8,1075.0,1075.0,1075.0,1075.0,1075.0,1075.0,0.0,0.0,0.0,0.0,0.0,0.0,0.0,0.0,0.0,0.0
100645954,8,1075.0,1075.0,1075.0,1075.0,1075.0,1075.0,0.0,0.0,0.0,0.0,0.0,0.0,0.0,0.0,0.0,0.0
100761981,8,1075.0,1075.0,1075.0,1075.0,1075.0,1075.0,0.0,0.0,0.0,0.0,0.0,0.0,0.0,0.0,0.0,0.0
100854011,8,1075.0,1075.0,1075.0,1075.0,1075.0,1075.0,0.0,0.0,0.0,0.0,0.0,0.0,0.0,0.0,0.0,0.0
100961967,8,1075.0,1075.0,1075.0,1075.0,1075.0,1075.0,0.0,0.0,0.0,0.0,0.0,0.0,0.0,0.0,0.0,0.0
101057718,8,1075.0,1075.0,1075.0,1075.0,1075.0,1075.0,0.0,0.0,0.0,0.0,0.0,0.0,0.0,0.0,0.0,0.0
101169948,8,1075.0,1075.0,1075.0,1075.0,1075.0,1075.0,0.0,0.0,0.0,0.0,0.0,0.0,0.0,0.0,0.0,0.0
101257991,8,1075.0,1075.0,1075.0,1075.0,1075.0,1075.0,0.0,0.0,0.0,0.0,0.0,0.0,0.0,0.0,0.0,0.0
101372156,8,1075.0,1075.0,1075.0,1075.0,1075.0,1075.0,0.0,0.0,0.0,0.0,0.0,0.0,0.0,0.0,0.0,0.0
101456947,8,1075.0,1075.0,1075.0,1075.0,1075.0,1075.0,0.0,0.0,0.0,0.0,0.0,0.0,0.0,0.0,0.0,0.0
101569403,8,1075.0,1075.0,1075.0,1075.0,1075.0,1075.0,0.0,0.0,0.0,0.0,0.0,0.0,0.0,0.0,0.0,0.0
101657139,8,1075.0,1075.0,1075.0,1075.0,1075.0,1075.0,0.0,0.0,0.0,0.0,0.0,0.0,0.0,0.0,0.0,0.0
101765111,8,1075.0,1075.0,1075.0,1075.0,1075.0,1075.0,0.0,0.0,0.0,0.0,0.0,0.0,0.0,0.0,0.0,0.0
101877115,8,1075.0,1075.0,1075.0,1075.0,1075.0,1075.0,0.0,0.0,0.0,0.0,0.0,0.0,0.0,0.0,0.0,0.0
101965327,8,1075.0,1075.0,1075.0,1075.0,1075.0,1075.0,0.0,0.0,0.0,0.0,0.0,0.0,0.0,0.0,0.0,0.0
102068913,8,1075.0,1075.0,1075.0,1075.0,1075.0,1075.0,0.0,0.0,0.0,0.0,0.0,0.0,0.0,0.0,0.0,0.0
102180568,8,1075.0,1075.0,1075.0,1075.0,1075.0,1075.0,0.0,0.0,0.0,0.0,0.0,0.0,0.0,0.0,0.0,0.0
102268351,8,1075.0,1075.0,1075.0,1075.0,1075.0,1075.0,0.0,0.0,0.0,0.0,0.0,0.0,0.0,0.0,0.0,0.0
102376323,8,1075.0,1075.0,1075.0,1075.0,1075.0,1075.0,0.0,0.0,0.0,0.0,0.0,0.0,0.0,0.0,0.0,0.0
102488405,8,1075.0,1075.0,1075.0,1075.0,1075.0,1075.0,0.0,0.0,0.0,0.0,0.0,0.0,0.0,0.0,0.0,0.0
102576547,8,1075.0,1075.0,1075.0,1075.0,1075.0,1075.0,0.0,0.0,0.0,0.0,0.0,0.0,0.0,0.0,0.0,0.0
102692121,8,1075.0,1075.0,1075.0,1075.0,1075.0,1075.0,0.0,0.0,0.0,0.0,0.0,0.0,0.0,0.0,0.0,0.0
102776131,8,1075.0,1075.0,1075.0,1075.0,1075.0,1075.0,0.0,0.0,0.0,0.0,0.0,0.0,0.0,0.0,0.0,0.0
102891500,8,1075.0,1075.0,1075.0,1075.0,1075.0,1075.0,0.0,0.0,0.0,0.0,0.0,0.0,0.0,0.0,0.0,0.0
102983341,8,1075.0,1075.0,1075.0,1075.0,1075.0,1075.0,0.0,0.0,0.0,0.0,0.0,0.0,0.0,0.0,0.0,0.0
103095335,8,1075.0,1075.0,1075.0,1075.0,1075.0,1075.0,0.0,0.0,0.0,0.0,0.0,0.0,0.0,0.0,0.0,0.0
103187794,8,1075.0,1075.0,1075.0,1075.0,1075.0,1075.0,0.0,0.0,0.0,0.0,0.0,0.0,0.0,0.0,0.0,0.0
103279348,8,1075.0,1075.0,1075.0,1075.0,1075.0,1075.0,0.0,0.0,0.0,0.0,0.0,0.0,0.0,0.0,0.0,0.0
103387601,8,1075.0,1075.0,1075.0,1075.0,1075.0,1075.0,0.0,0.0,0.0,0.0,0.0,0.0,0.0,0.0,0.0,0.0
103499626,8,1075.0,1075.0,1075.0,1075.0,1075.0,1075.0,0.0,0.0,0.0,0.0,0.0,0.0,0.0,0.0,0.0,0.0
103595348,8,1075.0,1075.0,1075.0,1075.0,1075.0,1075.0,0.0,0.0,0.0,0.0,0.0,0.0,0.0,0.0,0.0,0.0
103686671,8,1075.0,1075.0,1075.0,1075.0,1075.0,1075.0,0.0,0.0,0.0,0.0,0.0,0.0,0.0,0.0,0.0,0.0
103798831,8,1075.0,1075.0,1075.0,1075.0,1075.0,1075.0,0.0,0.0,0.0,0.0,0.0,0.0,0.0,0.0,0.0,0.0
103890539,8,1075.0,1075.0,1075.0,1075.0,1075.0,1075.0,0.0,0.0,0.0,0.0,0.0,0.0,0.0,0.0,0.0,0.0
104002761,8,1075.0,1075.0,1075.0,1075.0,1075.0,1075.0,0.0,0.0,0.0,0.0,0.0,0.0,0.0,0.0,0.0,0.0
104110611,8,1075.0,1075.0,1075.0,1075.0,1075.0,1075.0,0.0,0.0,0.0,0.0,0.0,0.0,0.0,0.0,0.0,0.0
104214584,8,1075.0,1075.0,1075.0,1075.0,1075.0,1075.0,0.0,0.0,0.0,0.0,0.0,0.0,0.0,0.0,0.0,0.0
104306717,8,1075.0,1075.0,1075.0,1075.0,1075.0,1075.0,0.0,0.0,0.0,0.0,0.0,0.0,0.0,0.0,0.0,0.0
104397765,8,1075.0,1075.0,1075.0,1075.0,1075.0,1075.0,0.0,0.0,0.0,0.0,0.0,0.0,0.0,0.0,0.0,0.0
104501772,8,1075.0,1075.0,1075.0,1075.0,1075.0,1075.0,0.0,0.0,0.0,0.0,0.0,0.0,0.0,0.0,0.0,0.0
104605866,8,1075.0,1075.0,1075.0,1075.0,1075.0,1075.0,0.0,0.0,0.0,0.0,0.0,0.0,0.0,0.0,0.0,0.0
104713716,8,1075.0,1075.0,1075.0,1075.0,1075.0,1075.0,0.0,0.0,0.0,0.0,0.0,0.0,0.0,0.0,0.0,0.0
104801939,8,1075.0,1075.0,1075.0,1075.0,1075.0,1075.0,0.0,0.0,0.0,0.0,0.0,0.0,0.0,0.0,0.0,0.0
104914157,8,1075.0,1075.0,1075.0,1075.0,1075.0,1075.0,0.0,0.0,0.0,0.0,0.0,0.0,0.0,0.0,0.0,0.0
105025932,8,1075.0,1075.0,1075.0,1075.0,1075.0,1075.0,0.0,0.0,0.0,0.0,0.0,0.0,0.0,0.0,0.0,0.0
105117922,8,1075.0,1075.0,1075.0,1075.0,1075.0,1075.0,0.0,0.0,0.0,0.0,0.0,0.0,0.0,0.0,0.0,0.0
105228971,8,1075.0,1075.0,1075.0,1075.0,1075.0,1075.0,0.0,0.0,0.0,0.0,0.0,0.0,0.0,0.0,0.0,0.0
105316955,8,1075.0,1075.0,1075.0,1075.0,1075.0,1075.0,0.0,0.0,0.0,0.0,0.0,0.0,0.0,0.0,0.0,0.0
105428965,8,1075.0,1075.0,1075.0,1075.0,1075.0,1075.0,0.0,0.0,0.0,0.0,0.0,0.0,0.0,0.0,0.0,0.0
105513073,8,1075.0,1075.0,1075.0,1075.0,1075.0,1075.0,0.0,0.0,0.0,0.0,0.0,0.0,0.0,0.0,0.0,0.0
105625230,8,1075.0,1075.0,1075.0,1075.0,1075.0,1075.0,0.0,0.0,0.0,0.0,0.0,0.0,0.0,0.0,0.0,0.0
105733185,8,1075.0,1075.0,1075.0,1075.0,1075.0,1075.0,0.0,0.0,0.0,0.0,0.0,0.0,0.0,0.0,0.0,0.0
105824959,8,1075.0,1075.0,1075.0,1075.0,1075.0,1075.0,0.0,0.0,0.0,0.0,0.0,0.0,0.0,0.0,0.0,0.0
105936944,8,1075.0,1075.0,1075.0,1075.0,1075.0,1075.0,0.0,0.0,0.0,0.0,0.0,0.0,0.0,0.0,0.0,0.0
106028583,8,1075.0,1075.0,1075.0,1075.0,1075.0,1075.0,0.0,0.0,0.0,0.0,0.0,0.0,0.0,0.0,0.0,0.0
106144153,8,1075.0,1075.0,1075.0,1075.0,1075.0,1075.0,0.0,0.0,0.0,0.0,0.0,0.0,0.0,0.0,0.0,0.0
106229867,8,1075.0,1075.0,1075.0,1075.0,1075.0,1075.0,0.0,0.0,0.0,0.0,0.0,0.0,0.0,0.0,0.0,0.0
106344557,8,1075.0,1075.0,1075.0,1075.0,1075.0,1075.0,0.0,0.0,0.0,0.0,0.0,0.0,0.0,0.0,0.0,0.0
106735360,8,1075.0,1075.0,1075.0,1075.0,1075.0,1075.0,0.0,0.0,0.0,0.0,0.0,0.0,0.0,0.0,0.0,0.0
107670715,8,1075.0,1075.0,1075.0,1075.0,1075.0,1075.0,0.0,0.0,0.0,0.0,0.0,0.0,0.0,0.0,0.0,0.0
107758753,8,1075.0,1075.0,1075.0,1075.0,1075.0,1075.0,0.0,0.0,0.0,0.0,0.0,0.0,0.0,0.0,0.0,0.0
107866554,8,1075.0,1075.0,1075.0,1075.0,1075.0,1075.0,0.0,0.0,0.0,0.0,0.0,0.0,0.0,0.0,0.0,0.0
107970760,8,1075.0,1075.0,1075.0,1075.0,1075.0,1075.0,0.0,0.0,0.0,0.0,0.0,0.0,0.0,0.0,0.0,0.0
108074979,8,1075.0,1075.0,1075.0,1075.0,1075.0,1075.0,0.0,0.0,0.0,0.0,0.0,0.0,0.0,0.0,0.0,0.0
108166519,8,1075.0,1075.0,1075.0,1075.0,1075.0,1075.0,0.0,0.0,0.0,0.0,0.0,0.0,0.0,0.0,0.0,0.0
108273753,8,1075.0,1075.0,1075.0,1075.0,1075.0,1075.0,0.0,0.0,0.0,0.0,0.0,0.0,0.0,0.0,0.0,0.0
108369917,8,1185.0,1173.0,1171.0,1187.0,1177.0,1181.0,0.0,0.0,0.0,0.0,0.0,0.0,0.0,0.0,0.0,0.0
108477967,8,1183.0,1175.0,1173.0,1185.0,1177.0,1181.0,0.0,0.0,0.0,0.0,0.0,0.0,0.0,0.0,0.0,0.0
108565859,8,1184.0,1174.0,1169.0,1189.0,1175.0,1183.0,0.0,0.0,0.0,0.0,0.0,0.0,0.0,0.0,0.0,0.0
108673953,8,1204.0,1193.0,1189.0,1208.0,1198.0,1199.0,0.0,0.0,0.0,0.0,0.0,0.0,0.0,0.0,0.0,0.0
108785719,8,1236.0,1232.0,1231.0,1238.0,1229.0,1240.0,0.0,0.0,0.0,0.0,0.0,0.0,0.0,0.0,0.0,0.0
108873950,8,1267.0,1249.0,1249.0,1266.0,1260.0,1255.0,0.0,0.0,0.0,0.0,0.0,0.0,0.0,0.0,0.0,0.0
108984292,8,1333.0,1252.0,1258.0,1327.0,1299.0,1286.0,0.0,0.0,0.0,0.0,0.0,0.0,0.0,0.0,0.0,0.0
109092962,8,1357.0,1288.0,1303.0,1342.0,1339.0,1307.0,0.0,0.0,0.0,0.0,0.0,0.0,0.0,0.0,0.0,0.0
109177146,8,1310.0,1383.0,1382.0,1312.0,1344.0,1349.0,0.0,0.0,0.0,0.0,0.0,0.0,0.0,0.0,0.0,0.0
109288917,8,1341.0,1419.0,1356.0,1405.0,1315.0,1446.0,0.0,0.0,0.0,0.0,0.0,0.0,0.0,0.0,0.0,0.0
109396941,8,1460.0,1365.0,1431.0,1394.0,1487.0,1338.0,0.0,0.0,0.0,0.0,0.0,0.0,0.0,0.0,0.0,0.0
109484935,8,1396.0,1486.0,1394.0,1489.0,1358.0,1524.0,0.0,0.0,0.0,0.0,0.0,0.0,0.0,0.0,0.0,0.0
109601193,8,1414.0,1486.0,1557.0,1343.0,1517.0,1383.0,0.0,0.0,0.0,0.0,0.0,0.0,0.0,0.0,0.0,0.0
109688326,8,1417.0,1388.0,1486.0,1318.0,1502.0,1302.0,0.0,0.0,0.0,0.0,0.0,0.0,0.0,0.0,0.0,0.0
109804203,8,1504.0,1319.0,1459.0,1369.0,1530.0,1298.0,0.0,0.0,0.0,0.0,0.0,0.0,0.0,0.0,0.0,0.0
109896147,8,1462.0,1438.0,1433.0,1468.0,1440.0,1460.0,0.0,0.0,0.0,0.0,0.0,0.0,0.0,0.0,0.0,0.0
110008327,8,1547.0,1419.0,1400.0,1565.0,1462.0,1504.0,0.0,0.0,0.0,0.0,0.0,0.0,0.0,0.0,0.0,0.0
110100316,8,1411.0,1547.0,1492.0,1467.0,1395.0,1564.0,0.0,0.0,0.0,0.0,0.0,0.0,0.0,0.0,0.0,0.0
110208343,8,1401.0,1552.0,1484.0,1469.0,1388.0,1565.0,0.0,0.0,0.0,0.0,0.0,0.0,0.0,0.0,0.0,0.0
110304547,8,1441.0,1506.0,1528.0,1419.0,1473.0,1473.0,0.0,0.0,0.0,0.0,0.0,0.0,0.0,0.0,0.0,0.0
110415571,8,1509.0,1437.0,1440.0,1506.0,1441.0,1506.0,0.0,0.0,0.0,0.0,0.0,0.0,0.0,0.0,0.0,0.0
110504357,8,1428.0,1498.0,1397.0,1530.0,1328.0,1599.0,0.0,0.0,0.0,0.0,0.0,0.0,0.0,0.0,0.0,0.0
110615361,8,1536.0,1394.0,1444.0,1486.0,1477.0,1453.0,0.0,0.0,0.0,0.0,0.0,0.0,0.0,0.0,0.0,0.0
110703390,8,1498.0,1431.0,1473.0,1455.0,1464.0,1465.0,0.0,0.0,0.0,0.0,0.0,0.0,0.0,0.0,0.0,0.0
110815408,8,1420.0,1475.0,1503.0,1392.0,1433.0,1462.0,0.0,0.0,0.0,0.0,0.0,0.0,0.0,0.0,0.0,0.0
110903548,8,1494.0,1494.0,1545.0,1443.0,1509.0,1479.0,0.0,0.0,0.0,0.0,0.0,0.0,0.0,0.0,0.0,0.0
111019329,8,1455.0,1527.0,1532.0,1451.0,1453.0,1529.0,0.0,0.0,0.0,0.0,0.0,0.0,0.0,0.0,0.0,0.0
111111320,8,1410.0,1572.0,1481.0,1500.0,1361.0,1621.0,0.0,0.0,0.0,0.0,0.0,0.0,0.0,0.0,0.0,0.0
111220917,8,1503.0,1511.0,1544.0,1469.0,1518.0,1494.0,0.0,0.0,0.0,0.0,0.0,0.0,0.0,0.0,0.0,0.0
111311366,8,1415.0,1563.0,1508.0,1470.0,1427.0,1551.0,0.0,0.0,0.0,0.0,0.0,0.0,0.0,0.0,0.0,0.0
111418821,8,1490.0,1425.0,1402.0,1513.0,1416.0,1500.0,0.0,0.0,0.0,0.0,0.0,0.0,0.0,0.0,0.0,0.0
111522947,8,1454.0,1477.0,1406.0,1525.0,1380.0,1550.0,0.0,0.0,0.0,0.0,0.0,0.0,0.0,0.0,0.0,0.0
111630950,8,1426.0,1504.0,1531.0,1399.0,1461.0,1469.0,0.0,0.0,0.0,0.0,0.0,0.0,0.0,0.0,0.0,0.0
111722564,8,1384.0,1570.0,1517.0,1437.0,1401.0,1553.0,0.0,0.0,0.0,0.0,0.0,0.0,0.0,0.0,0.0,0.0
111818769,8,1525.0,1438.0,1402.0,1561.0,1431.0,1532.0,0.0,0.0,0.0,0.0,0.0,0.0,0.0,0.0,0.0,0.0
111922789,8,1514.0,1458.0,1431.0,1541.0,1460.0,1512.0,0.0,0.0,0.0,0.0,0.0,0.0,0.0,0.0,0.0,0.0
112037855,8,1458.0,1508.0,1488.0,1478.0,1457.0,1508.0,0.0,0.0,0.0,0.0,0.0,0.0,0.0,0.0,0.0,0.0
112129764,8,1408.0,1646.0,1597.0,1457.0,1462.0,1592.0,0.0,0.0,0.0,0.0,0.0,0.0,0.0,0.0,0.0,0.0
112237759,8,1587.0,1485.0,1482.0,1590.0,1499.0,1573.0,0.0,0.0,0.0,0.0,0.0,0.0,0.0,0.0,0.0,0.0
112329748,8,1480.0,1520.0,1522.0,1479.0,1468.0,1533.0,0.0,0.0,0.0,0.0,0.0,0.0,0.0,0.0,0.0,0.0
112429724,8,1391.0,1576.0,1614.0,1353.0,1481.0,1485.0,0.0,0.0,0.0,0.0,0.0,0.0,0.0,0.0,0.0,0.0
112537797,8,1440.0,1569.0,1567.0,1442.0,1458.0,1551.0,0.0,0.0,0.0,0.0,0.0,0.0,0.0,0.0,0.0,0.0
112641952,8,1537.0,1469.0,1552.0,1454.0,1540.0,1466.0,0.0,0.0,0.0,0.0,0.0,0.0,0.0,0.0,0.0,0.0
112737194,8,1556.0,1436.0,1517.0,1475.0,1528.0,1465.0,0.0,0.0,0.0,0.0,0.0,0.0,0.0,0.0,0.0,0.0
112841180,8,1571.0,1449.0,1523.0,1498.0,1549.0,1471.0,0.0,0.0,0.0,0.0,0.0,0.0,0.0,0.0,0.0,0.0
112933231,8,1497.0,1575.0,1496.0,1575.0,1421.0,1651.0,0.0,0.0,0.0,0.0,0.0,0.0,0.0,0.0,0.0,0.0
113044964,8,1547.0,1494.0,1476.0,1565.0,1470.0,1571.0,0.0,0.0,0.0,0.0,0.0,0.0,0.0,0.0,0.0,0.0
113157123,8,1491.0,1521.0,1503.0,1509.0,1464.0,1548.0,0.0,0.0,0.0,0.0,0.0,0.0,0.0,0.0,0.0,0.0
113249430,8,1510.0,1482.0,1481.0,1511.0,1471.0,1521.0,0.0,0.0,0.0,0.0,0.0,0.0,0.0,0.0,0.0,0.0
113341134,8,1521.0,1454.0,1466.0,1509.0,1475.0,1499.0,0.0,0.0,0.0,0.0,0.0,0.0,0.0,0.0,0.0,0.0
113452999,8,1527.0,1464.0,1509.0,1482.0,1514.0,1478.0,0.0,0.0,0.0,0.0,0.0,0.0,0.0,0.0,0.0,0.0
113544320,8,1483.0,1498.0,1512.0,1469.0,1478.0,1503.0,0.0,0.0,0.0,0.0,0.0,0.0,0.0,0.0,0.0,0.0
113660398,8,1422.0,1400.0,1466.0,1518.0,1533.0,1451.0,0.0,0.0,0.0,0.0,0.0,0.0,0.0,0.0,0.0,0.0
113748174,8,1506.0,1487.0,1560.0,1433.0,1545.0,1448.0,0.0,0.0,0.0,0.0,0.0,0.0,0.0,0.0,0.0,0.0
113852136,8,1428.0,1617.0,1600.0,1445.0,1486.0,1559.0,0.0,0.0,0.0,0.0,0.0,0.0,0.0,0.0,0.0,0.0
113948331,8,1608.0,1481.0,1561.0,1528.0,1607.0,1482.0,0.0,0.0,0.0,0.0,0.0,0.0,0.0,0.0,0.0,0.0
114060114,8,1509.0,1591.0,1570.0,1530.0,1512.0,1589.0,0.0,0.0,0.0,0.0,0.0,0.0,0.0,0.0,0.0,0.0
114164190,8,1555.0,1458.0,1534.0,1479.0,1549.0,1464.0,0.0,0.0,0.0,0.0,0.0,0.0,0.0,0.0,0.0,0.0
114254187,8,1492.0,1524.0,1519.0,1497.0,1478.0,1539.0,0.0,0.0,0.0,0.0,0.0,0.0,0.0,0.0,0.0,0.0
114371528,8,1456.0,1441.0,1462.0,1435.0,1443.0,1454.0,0.0,0.0,0.0,0.0,0.0,0.0,0.0,0.0,0.0,0.0
114475507,8,1420.0,1406.0,1365.0,1462.0,1353.0,1473.0,0.0,0.0,0.0,0.0,0.0,0.0,0.0,0.0,0.0,0.0
114567490,8,1474.0,1458.0,1510.0,1422.0,1499.0,1432.0,0.0,0.0,0.0,0.0,0.0,0.0,0.0,0.0,0.0,0.0
114679370,8,1594.0,1447.0,1551.0,1490.0,1591.0,1450.0,0.0,0.0,0.0,0.0,0.0,0.0,0.0,0.0,0.0,0.0
114763378,8,1665.0,1399.0,1461.0,1603.0,1565.0,1499.0,0.0,0.0,0.0,0.0,0.0,0.0,0.0,0.0,0.0,0.0
114875534,8,1513.0,1528.0,1503.0,1538.0,1471.0,1570.0,0.0,0.0,0.0,0.0,0.0,0.0,0.0,0.0,0.0,0.0
114967375,8,1555.0,1463.0,1543.0,1475.0,1570.0,1448.0,0.0,0.0,0.0,0.0,0.0,0.0,0.0,0.0,0.0,0.0
115074766,8,1499.0,1515.0,1619.0,1395.0,1593.0,1421.0,0.0,0.0,0.0,0.0,0.0,0.0,0.0,0.0,0.0,0.0
115182597,8,1521.0,1513.0,1470.0,1564.0,1448.0,1586.0,0.0,0.0,0.0,0.0,0.0,0.0,0.0,0.0,0.0,0.0
115270745,8,1486.0,1544.0,1459.0,1571.0,1514.0,1516.0,0.0,0.0,0.0,0.0,0.0,0.0,0.0,0.0,0.0,0.0
115386520,8,1503.0,1516.0,1517.0,1502.0,1493.0,1527.0,0.0,0.0,0.0,0.0,0.0,0.0,0.0,0.0,0.0,0.0
115475020,8,1560.0,1456.0,1428.0,1587.0,1461.0,1554.0,0.0,0.0,0.0,0.0,0.0,0.0,0.0,0.0,0.0,0.0
115586584,8,1399.0,1628.0,1556.0,1471.0,1416.0,1611.0,0.0,0.0,0.0,0.0,0.0,0.0,0.0,0.0,0.0,0.0
115678729,8,1519.0,1523.0,1601.0,1441.0,1567.0,1475.0,0.0,0.0,0.0,0.0,0.0,0.0,0.0,0.0,0.0,0.0
115789783,8,1522.0,1518.0,1466.0,1575.0,1440.0,1600.0,0.0,0.0,0.0,0.0,0.0,0.0,0.0,0.0,0.0,0.0
115897962,8,1518.0,1531.0,1568.0,1481.0,1538.0,1511.0,0.0,0.0,0.0,0.0,0.0,0.0,0.0,0.0,0.0,0.0
115981985,8,1494.0,1545.0,1528.0,1511.0,1480.0,1559.0,0.0,0.0,0.0,0.0,0.0,0.0,0.0,0.0,0.0,0.0
116089773,8,1466.0,1542.0,1520.0,1489.0,1459.0,1549.0,0.0,0.0,0.0,0.0,0.0,0.0,0.0,0.0,0.0,0.0
116197882,8,1483.0,1524.0,1522.0,1485.0,1474.0,1532.0,0.0,0.0,0.0,0.0,0.0,0.0,0.0,0.0,0.0,0.0
116285736,8,1538.0,1479.0,1479.0,1537.0,1489.0,1527.0,0.0,0.0,0.0,0.0,0.0,0.0,0.0,0.0,0.0,0.0
116397953,8,1549.0,1465.0,1469.0,1545.0,1492.0,1522.0,0.0,0.0,0.0,0.0,0.0,0.0,0.0,0.0,0.0,0.0
116505136,8,1636.0,1394.0,1413.0,1617.0,1515.0,1515.0,0.0,0.0,0.0,0.0,0.0,0.0,0.0,0.0,0.0,0.0
116593155,8,1457.0,1577.0,1620.0,1414.0,1532.0,1503.0,0.0,0.0,0.0,0.0,0.0,0.0,0.0,0.0,0.0,0.0
116704950,8,1606.0,1428.0,1502.0,1531.0,1570.0,1464.0,0.0,0.0,0.0,0.0,0.0,0.0,0.0,0.0,0.0,0.0
116792922,8,1535.0,1502.0,1464.0,1573.0,1454.0,1583.0,0.0,0.0,0.0,0.0,0.0,0.0,0.0,0.0,0.0,0.0
116901122,8,1470.0,1557.0,1550.0,1477.0,1489.0,1538.0,0.0,0.0,0.0,0.0,0.0,0.0,0.0,0.0,0.0,0.0
117008962,8,1606.0,1409.0,1445.0,1570.0,1523.0,1492.0,0.0,0.0,0.0,0.0,0.0,0.0,0.0,0.0,0.0,0.0
117101141,8,1537.0,1489.0,1533.0,1493.0,1533.0,1493.0,0.0,0.0,0.0,0.0,0.0,0.0,0.0,0.0,0.0,0.0
117216965,8,1419.0,1610.0,1563.0,1466.0,1444.0,1584.0,0.0,0.0,0.0,0.0,0.0,0.0,0.0,0.0,0.0,0.0
117306946,8,1498.0,1523.0,1598.0,1422.0,1556.0,1464.0,0.0,0.0,0.0,0.0,0.0,0.0,0.0,0.0,0.0,0.0
117416151,8,1528.0,1490.0,1433.0,1585.0,1427.0,1591.0,0.0,0.0,0.0,0.0,0.0,0.0,0.0,0.0,0.0,0.0
117504124,8,1530.0,1492.0,1562.0,1459.0,1566.0,1456.0,0.0,0.0,0.0,0.0,0.0,0.0,0.0,0.0,0.0,0.0
117616379,8,1504.0,1545.0,1546.0,1502.0,1509.0,1540.0,0.0,0.0,0.0,0.0,0.0,0.0,0.0,0.0,0.0,0.0
117708157,8,1508.0,1555.0,1487.0,1577.0,1438.0,1626.0,0.0,0.0,0.0,0.0,0.0,0.0,0.0,0.0,0.0,0.0
117812368,8,1493.0,1554.0,1514.0,1533.0,1468.0,1579.0,0.0,0.0,0.0,0.0,0.0,0.0,0.0,0.0,0.0,0.0
117924140,8,1536.0,1480.0,1508.0,1507.0,1515.0,1501.0,0.0,0.0,0.0,0.0,0.0,0.0,0.0,0.0,0.0,0.0
118031351,8,1424.0,1576.0,1558.0,1442.0,1461.0,1539.0,0.0,0.0,0.0,0.0,0.0,0.0,0.0,0.0,0.0,0.0
118135475,8,1522.0,1505.0,1424.0,1603.0,1422.0,1606.0,0.0,0.0,0.0,0.0,0.0,0.0,0.0,0.0,0.0,0.0
118223371,8,1464.0,1577.0,1536.0,1505.0,1454.0,1586.0,0.0,0.0,0.0,0.0,0.0,0.0,0.0,0.0,0.0,0.0
118327341,8,1565.0,1480.0,1590.0,1455.0,1597.0,1448.0,0.0,0.0,0.0,0.0,0.0,0.0,0.0,0.0,0.0,0.0
118435351,8,1437.0,1598.0,1512.0,1523.0,1416.0,1618.0,0.0,0.0,0.0,0.0,0.0,0.0,0.0,0.0,0.0,0.0
118523391,8,1490.0,1532.0,1492.0,1530.0,1454.0,1569.0,0.0,0.0,0.0,0.0,0.0,0.0,0.0,0.0,0.0,0.0
118627363,8,1435.0,1574.0,1539.0,1470.0,1455.0,1554.0,0.0,0.0,0.0,0.0,0.0,0.0,0.0,0.0,0.0,0.0
118743748,8,1441.0,1588.0,1539.0,1490.0,1457.0,1573.0,0.0,0.0,0.0,0.0,0.0,0.0,0.0,0.0,0.0,0.0
118830668,8,1511.0,1540.0,1600.0,1451.0,1558.0,1493.0,0.0,0.0,0.0,0.0,0.0,0.0,0.0,0.0,0.0,0.0
118938553,8,1537.0,1500.0,1488.0,1549.0,1490.0,1547.0,0.0,0.0,0.0,0.0,0.0,0.0,0.0,0.0,0.0,0.0
119046539,8,1496.0,1515.0,1537.0,1474.0,1501.0,1510.0,0.0,0.0,0.0,0.0,0.0,0.0,0.0,0.0,0.0,0.0
119138932,8,1501.0,1513.0,1503.0,1510.0,1477.0,1537.0,0.0,0.0,0.0,0.0,0.0,0.0,0.0,0.0,0.0,0.0
119230715,8,1422.0,1595.0,1546.0,1471.0,1430.0,1587.0,0.0,0.0,0.0,0.0,0.0,0.0,0.0,0.0,0.0,0.0
119338813,8,1516.0,1503.0,1468.0,1551.0,1454.0,1565.0,0.0,0.0,0.0,0.0,0.0,0.0,0.0,0.0,0.0,0.0
119430590,8,1544.0,1474.0,1448.0,1570.0,1468.0,1549.0,0.0,0.0,0.0,0.0,0.0,0.0,0.0,0.0,0.0,0.0
119538789,8,1460.0,1566.0,1547.0,1480.0,1474.0,1552.0,0.0,0.0,0.0,0.0,0.0,0.0,0.0,0.0,0.0,0.0
119649968,8,1582.0,1449.0,1445.0,1586.0,1488.0,1543.0,0.0,0.0,0.0,0.0,0.0,0.0,0.0,0.0,0.0,0.0
119754020,8,1562.0,1474.0,1443.0,1592.0,1458.0,1578.0,0.0,0.0,0.0,0.0,0.0,0.0,0.0,0.0,0.0,0.0
119841755,8,1465.0,1570.0,1617.0,1417.0,1531.0,1503.0,0.0,0.0,0.0,0.0,0.0,0.0,0.0,0.0,0.0,0.0
119945773,8,1390.0,1642.0,1608.0,1425.0,1452.0,1581.0,0.0,0.0,0.0,0.0,0.0,0.0,0.0,0.0,0.0,0.0
120049892,8,1571.0,1454.0,1407.0,1487.0,1473.0,1556.0,0.0,0.0,0.0,0.0,0.0,0.0,0.0,0.0,0.0,0.0
120161737,8,1503.0,1530.0,1586.0,1446.0,1539.0,1493.0,0.0,0.0,0.0,0.0,0.0,0.0,0.0,0.0,0.0,0.0
120249794,8,1568.0,1457.0,1487.0,1538.0,1514.0,1511.0,0.0,0.0,0.0,0.0,0.0,0.0,0.0,0.0,0.0,0.0
120361352,8,1540.0,1491.0,1429.0,1601.0,1434.0,1596.0,0.0,0.0,0.0,0.0,0.0,0.0,0.0,0.0,0.0,0.0
120449117,8,1459.0,1572.0,1646.0,1385.0,1554.0,1476.0,0.0,0.0,0.0,0.0,0.0,0.0,0.0,0.0,0.0,0.0
120561111,8,1568.0,1468.0,1497.0,1539.0,1514.0,1522.0,0.0,0.0,0.0,0.0,0.0,0.0,0.0,0.0,0.0,0.0
120661131,8,1548.0,1473.0,1467.0,1555.0,1481.0,1541.0,0.0,0.0,0.0,0.0,0.0,0.0,0.0,0.0,0.0,0.0
120773188,8,1540.0,1480.0,1462.0,1558.0,1465.0,1555.0,0.0,0.0,0.0,0.0,0.0,0.0,0.0,0.0,0.0,0.0
120861133,8,1464.0,1553.0,1561.0,1456.0,1492.0,1525.0,0.0,0.0,0.0,0.0,0.0,0.0,0.0,0.0,0.0,0.0
120969094,8,1581.0,1429.0,1454.0,1556.0,1506.0,1504.0,0.0,0.0,0.0,0.0,0.0,0.0,0.0,0.0,0.0,0.0
121060111,8,1569.0,1454.0,1400.0,1623.0,1435.0,1588.0,0.0,0.0,0.0,0.0,0.0,0.0,0.0,0.0,0.0,0.0
121172117,8,1430.0,1604.0,1537.0,1497.0,1416.0,1617.0,0.0,0.0,0.0,0.0,0.0,0.0,0.0,0.0,0.0,0.0
121260563,8,1513.0,1519.0,1567.0,1465.0,1545.0,1487.0,0.0,0.0,0.0,0.0,0.0,0.0,0.0,0.0,0.0,0.0
121368540,8,1480.0,1540.0,1501.0,1519.0,1444.0,1577.0,0.0,0.0,0.0,0.0,0.0,0.0,0.0,0.0,0.0,0.0
121480310,8,1480.0,1533.0,1569.0,1444.0,1508.0,1505.0,0.0,0.0,0.0,0.0,0.0,0.0,0.0,0.0,0.0,0.0
121568163,8,1458.0,1552.0,1524.0,1486.0,1448.0,1562.0,0.0,0.0,0.0,0.0,0.0,0.0,0.0,0.0,0.0,0.0
121680185,8,1592.0,1432.0,1438.0,1586.0,1491.0,1533.0,0.0,0.0,0.0,0.0,0.0,0.0,0.0,0.0,0.0,0.0
121771479,8,1592.0,1436.0,1540.0,1488.0,1576.0,1451.0,0.0,0.0,0.0,0.0,0.0,0.0,0.0,0.0,0.0,0.0
121883396,8,1563.0,1475.0,1456.0,1581.0,1470.0,1567.0,0.0,0.0,0.0,0.0,0.0,0.0,0.0,0.0,0.0,0.0
121975349,8,1513.0,1524.0,1516.0,1521.0,1486.0,1552.0,0.0,0.0,0.0,0.0,0.0,0.0,0.0,0.0,0.0,0.0
122079481,8,1488.0,1536.0,1535.0,1489.0,1478.0,1546.0,0.0,0.0,0.0,0.0,0.0,0.0,0.0,0.0,0.0,0.0
122183575,8,1505.0,1504.0,1532.0,1477.0,1504.0,1504.0,0.0,0.0,0.0,0.0,0.0,0.0,0.0,0.0,0.0,0.0
122295336,8,1474.0,1536.0,1571.0,1439.0,1504.0,1507.0,0.0,0.0,0.0,0.0,0.0,0.0,0.0,0.0,0.0,0.0
122383352,8,1569.0,1444.0,1461.0,1552.0,1499.0,1514.0,0.0,0.0,0.0,0.0,0.0,0.0,0.0,0.0,0.0,0.0
122499323,8,1515.0,1500.0,1501.0,1513.0,1483.0,1532.0,0.0,0.0,0.0,0.0,0.0,0.0,0.0,0.0,0.0,0.0
122583565,8,1446.0,1569.0,1596.0,1419.0,1497.0,1517.0,0.0,0.0,0.0,0.0,0.0,0.0,0.0,0.0,0.0,0.0
122694674,8,1584.0,1441.0,1494.0,1531.0,1533.0,1492.0,0.0,0.0,0.0,0.0,0.0,0.0,0.0,0.0,0.0,0.0
122798678,8,1480.0,1554.0,1480.0,1554.0,1418.0,1616.0,0.0,0.0,0.0,0.0,0.0,0.0,0.0,0.0,0.0,0.0
122882534,8,1531.0,1498.0,1537.0,1493.0,1524.0,1506.0,0.0,0.0,0.0,0.0,0.0,0.0,0.0,0.0,0.0,0.0
122990553,8,1517.0,1515.0,1605.0,1427.0,1572.0,1460.0,0.0,0.0,0.0,0.0,0.0,0.0,0.0,0.0,0.0,0.0
123098518,8,1466.0,1565.0,1511.0,1519.0,1437.0,1594.0,0.0,0.0,0.0,0.0,0.0,0.0,0.0,0.0,0.0,0.0
123206550,8,1577.0,1452.0,1476.0,1553.0,1513.0,1515.0,0.0,0.0,0.0,0.0,0.0,0.0,0.0,0.0,0.0,0.0
123310179,8,1531.0,1488.0,1501.0,1518.0,1496.0,1523.0,0.0,0.0,0.0,0.0,0.0,0.0,0.0,0.0,0.0,0.0
123401727,8,1534.0,1494.0,1506.0,1522.0,1501.0,1528.0,0.0,0.0,0.0,0.0,0.0,0.0,0.0,0.0,0.0,0.0
123513932,8,1554.0,1466.0,1543.0,1476.0,1560.0,1459.0,0.0,0.0,0.0,0.0,0.0,0.0,0.0,0.0,0.0,0.0
123601910,8,1482.0,1532.0,1555.0,1460.0,1506.0,1509.0,0.0,0.0,0.0,0.0,0.0,0.0,0.0,0.0,0.0,0.0
123709786,8,1552.0,1476.0,1440.0,1588.0,1452.0,1576.0,0.0,0.0,0.0,0.0,0.0,0.0,0.0,0.0,0.0,0.0
123797737,8,1556.0,1483.0,1509.0,1530.0,1509.0,1530.0,0.0,0.0,0.0,0.0,0.0,0.0,0.0,0.0,0.0,0.0
123913945,8,1582.0,1460.0,1492.0,1550.0,1525.0,1517.0,0.0,0.0,0.0,0.0,0.0,0.0,0.0,0.0,0.0,0.0
124021108,8,1548.0,1475.0,1550.0,1472.0,1550.0,1472.0,0.0,0.0,0.0,0.0,0.0,0.0,0.0,0.0,0.0,0.0
124110188,8,1503.0,1506.0,1579.0,1430.0,1537.0,1471.0,0.0,0.0,0.0,0.0,0.0,0.0,0.0,0.0,0.0,0.0
124201157,8,1570.0,1445.0,1423.0,1592.0,1452.0,1522.0,0.0,0.0,0.0,0.0,0.0,0.0,0.0,0.0,0.0,0.0
124317381,8,1501.0,1528.0,1548.0,1481.0,1488.0,1541.0,0.0,0.0,0.0,0.0,0.0,0.0,0.0,0.0,0.0,0.0
124408959,8,1529.0,1508.0,1561.0,1477.0,1535.0,1502.0,0.0,0.0,0.0,0.0,0.0,0.0,0.0,0.0,0.0,0.0
124517154,8,1579.0,1461.0,1448.0,1591.0,1462.0,1577.0,0.0,0.0,0.0,0.0,0.0,0.0,0.0,0.0,0.0,0.0
124609352,8,1547.0,1492.0,1498.0,1541.0,1490.0,1549.0,0.0,0.0,0.0,0.0,0.0,0.0,0.0,0.0,0.0,0.0
124717117,8,1574.0,1464.0,1464.0,1574.0,1480.0,1558.0,0.0,0.0,0.0,0.0,0.0,0.0,0.0,0.0,0.0,0.0
124824193,8,1521.0,1502.0,1528.0,1495.0,1496.0,1527.0,0.0,0.0,0.0,0.0,0.0,0.0,0.0,0.0,0.0,0.0
124912310,8,1456.0,1561.0,1514.0,1503.0,1418.0,1600.0,0.0,0.0,0.0,0.0,0.0,0.0,0.0,0.0,0.0,0.0
125024342,8,1525.0,1518.0,1466.0,1576.0,1433.0,1609.0,0.0,0.0,0.0,0.0,0.0,0.0,0.0,0.0,0.0,0.0
125136316,8,1604.0,1442.0,1458.0,1587.0,1494.0,1552.0,0.0,0.0,0.0,0.0,0.0,0.0,0.0,0.0,0.0,0.0
125228348,8,1583.0,1461.0,1466.0,1578.0,1492.0,1553.0,0.0,0.0,0.0,0.0,0.0,0.0,0.0,0.0,0.0,0.0
125336194,8,1472.0,1569.0,1584.0,1458.0,1501.0,1541.0,0.0,0.0,0.0,0.0,0.0,0.0,0.0,0.0,0.0,0.0
125428216,8,1417.0,1613.0,1542.0,1487.0,1411.0,1619.0,0.0,0.0,0.0,0.0,0.0,0.0,0.0,0.0,0.0,0.0
125543571,8,1558.0,1474.0,1445.0,1587.0,1470.0,1562.0,0.0,0.0,0.0,0.0,0.0,0.0,0.0,0.0,0.0,0.0
125639472,8,1495.0,1541.0,1511.0,1524.0,1462.0,1573.0,0.0,0.0,0.0,0.0,0.0,0.0,0.0,0.0,0.0,0.0
125731528,8,1485.0,1546.0,1558.0,1472.0,1496.0,1535.0,0.0,0.0,0.0,0.0,0.0,0.0,0.0,0.0,0.0,0.0
125839489,8,1503.0,1526.0,1544.0,1484.0,1504.0,1525.0,0.0,0.0,0.0,0.0,0.0,0.0,0.0,0.0,0.0,0.0
125951355,8,1531.0,1491.0,1495.0,1528.0,1480.0,1543.0,0.0,0.0,0.0,0.0,0.0,0.0,0.0,0.0,0.0,0.0
126039342,8,1472.0,1541.0,1596.0,1416.0,1525.0,1487.0,0.0,0.0,0.0,0.0,0.0,0.0,0.0,0.0,0.0,0.0
126143516,8,1504.0,1517.0,1506.0,1515.0,1468.0,1553.0,0.0,0.0,0.0,0.0,0.0,0.0,0.0,0.0,0.0,0.0
126237851,8,1524.0,1493.0,1407.0,1610.0,1400.0,1617.0,0.0,0.0,0.0,0.0,0.0,0.0,0.0,0.0,0.0,0.0
126350580,8,1468.0,1573.0,1506.0,1534.0,1426.0,1614.0,0.0,0.0,0.0,0.0,0.0,0.0,0.0,0.0,0.0,0.0
126438706,8,1528.0,1521.0,1571.0,1477.0,1550.0,1498.0,0.0,0.0,0.0,0.0,0.0,0.0,0.0,0.0,0.0,0.0
126546540,8,1559.0,1481.0,1520.0,1521.0,1524.0,1517.0,0.0,0.0,0.0,0.0,0.0,0.0,0.0,0.0,0.0,0.0
126651013,8,1474.0,1547.0,1498.0,1522.0,1437.0,1583.0,0.0,0.0,0.0,0.0,0.0,0.0,0.0,0.0,0.0,0.0
126758982,8,1522.0,1498.0,1492.0,1528.0,1472.0,1548.0,0.0,0.0,0.0,0.0,0.0,0.0,0.0,0.0,0.0,0.0
126854782,8,1584.0,1440.0,1485.0,1539.0,1530.0,1494.0,0.0,0.0,0.0,0.0,0.0,0.0,0.0,0.0,0.0,0.0
126962758,8,1495.0,1520.0,1603.0,1412.0,1561.0,1455.0,0.0,0.0,0.0,0.0,0.0,0.0,0.0,0.0,0.0,0.0
127049894,8,1511.0,1507.0,1501.0,1518.0,1477.0,1542.0,0.0,0.0,0.0,0.0,0.0,0.0,0.0,0.0,0.0,0.0
127157870,8,1478.0,1547.0,1607.0,1418.0,1548.0,1477.0,0.0,0.0,0.0,0.0,0.0,0.0,0.0,0.0,0.0,0.0
127269914,8,1451.0,1572.0,1537.0,1485.0,1456.0,1566.0,0.0,0.0,0.0,0.0,0.0,0.0,0.0,0.0,0.0,0.0
127357759,8,1548.0,1483.0,1428.0,1602.0,1441.0,1590.0,0.0,0.0,0.0,0.0,0.0,0.0,0.0,0.0,0.0,0.0
127469883,8,1379.0,1663.0,1595.0,1447.0,1424.0,1618.0,0.0,0.0,0.0,0.0,0.0,0.0,0.0,0.0,0.0,0.0
127553727,8,1554.0,1493.0,1441.0,1606.0,1445.0,1602.0,0.0,0.0,0.0,0.0,0.0,0.0,0.0,0.0,0.0,0.0
127665804,8,1527.0,1507.0,1519.0,1515.0,1502.0,1532.0,0.0,0.0,0.0,0.0,0.0,0.0,0.0,0.0,0.0,0.0
127772955,8,1498.0,1520.0,1487.0,1531.0,1449.0,1569.0,0.0,0.0,0.0,0.0,0.0,0.0,0.0,0.0,0.0,0.0
127865076,8,1509.0,1497.0,1553.0,1452.0,1540.0,1465.0,0.0,0.0,0.0,0.0,0.0,0.0,0.0,0.0,0.0,0.0
127969133,8,1461.0,1552.0,1555.0,1458.0,1492.0,1520.0,0.0,0.0,0.0,0.0,0.0,0.0,0.0,0.0,0.0,0.0
128081201,8,1527.0,1508.0,1486.0,1549.0,1472.0,1563.0,0.0,0.0,0.0,0.0,0.0,0.0,0.0,0.0,0.0,0.0
128172939,8,1472.0,1568.0,1557.0,1483.0,1495.0,1544.0,0.0,0.0,0.0,0.0,0.0,0.0,0.0,0.0,0.0,0.0
128265078,8,1570.0,1450.0,1518.0,1502.0,1561.0,1459.0,0.0,0.0,0.0,0.0,0.0,0.0,0.0,0.0,0.0,0.0
128373143,8,1585.0,1436.0,1518.0,1502.0,1564.0,1457.0,0.0,0.0,0.0,0.0,0.0,0.0,0.0,0.0,0.0,0.0
128479536,8,1459.0,1556.0,1611.0,1404.0,1439.0,1574.0,0.0,0.0,0.0,0.0,0.0,0.0,0.0,0.0,0.0,0.0
128569802,8,1529.0,1491.0,1422.0,1598.0,1423.0,1597.0,0.0,0.0,0.0,0.0,0.0,0.0,0.0,0.0,0.0,0.0
128680298,8,1467.0,1561.0,1578.0,1450.0,1499.0,1529.0,0.0,0.0,0.0,0.0,0.0,0.0,0.0,0.0,0.0,0.0
128772306,8,1506.0,1520.0,1555.0,1470.0,1536.0,1489.0,0.0,0.0,0.0,0.0,0.0,0.0,0.0,0.0,0.0,0.0
128880344,8,1513.0,1513.0,1485.0,1541.0,1469.0,1558.0,0.0,0.0,0.0,0.0,0.0,0.0,0.0,0.0,0.0,0.0
128988151,8,1607.0,1432.0,1443.0,1591.0,1510.0,1524.0,0.0,0.0,0.0,0.0,0.0,0.0,0.0,0.0,0.0,0.0
129096406,8,1572.0,1463.0,1468.0,1567.0,1495.0,1540.0,0.0,0.0,0.0,0.0,0.0,0.0,0.0,0.0,0.0,0.0
129184440,8,1549.0,1492.0,1513.0,1528.0,1518.0,1523.0,0.0,0.0,0.0,0.0,0.0,0.0,0.0,0.0,0.0,0.0
129295362,8,1573.0,1473.0,1449.0,1598.0,1464.0,1582.0,0.0,0.0,0.0,0.0,0.0,0.0,0.0,0.0,0.0,0.0
129387509,8,1532.0,1510.0,1481.0,1561.0,1459.0,1583.0,0.0,0.0,0.0,0.0,0.0,0.0,0.0,0.0,0.0,0.0
129491488,8,1534.0,1502.0,1577.0,1459.0,1565.0,1470.0,0.0,0.0,0.0,0.0,0.0,0.0,0.0,0.0,0.0,0.0
129595752,8,1586.0,1443.0,1432.0,1597.0,1477.0,1551.0,0.0,0.0,0.0,0.0,0.0,0.0,0.0,0.0,0.0,0.0
129703756,8,1502.0,1516.0,1592.0,1426.0,1550.0,1468.0,0.0,0.0,0.0,0.0,0.0,0.0,0.0,0.0,0.0,0.0
129791595,8,1541.0,1477.0,1457.0,1561.0,1470.0,1548.0,0.0,0.0,0.0,0.0,0.0,0.0,0.0,0.0,0.0,0.0
129903557,8,1493.0,1531.0,1534.0,1491.0,1487.0,1538.0,0.0,0.0,0.0,0.0,0.0,0.0,0.0,0.0,0.0,0.0
129998681,8,1544.0,1480.0,1454.0,1571.0,1471.0,1553.0,0.0,0.0,0.0,0.0,0.0,0.0,0.0,0.0,0.0,0.0
130106793,8,1502.0,1527.0,1492.0,1537.0,1464.0,1565.0,0.0,0.0,0.0,0.0,0.0,0.0,0.0,0.0,0.0,0.0
130214786,8,1446.0,1583.0,1598.0,1432.0,1507.0,1522.0,0.0,0.0,0.0,0.0,0.0,0.0,0.0,0.0,0.0,0.0
130302704,8,1494.0,1532.0,1580.0,1446.0,1540.0,1486.0,0.0,0.0,0.0,0.0,0.0,0.0,0.0,0.0,0.0,0.0
130414735,8,1434.0,1587.0,1584.0,1437.0,1485.0,1536.0,0.0,0.0,0.0,0.0,0.0,0.0,0.0,0.0,0.0,0.0
130506533,8,1466.0,1550.0,1556.0,1461.0,1492.0,1524.0,0.0,0.0,0.0,0.0,0.0,0.0,0.0,0.0,0.0,0.0
130614809,8,1471.0,1543.0,1570.0,1444.0,1515.0,1499.0,0.0,0.0,0.0,0.0,0.0,0.0,0.0,0.0,0.0,0.0
130718678,8,1634.0,1377.0,1445.0,1565.0,1556.0,1454.0,0.0,0.0,0.0,0.0,0.0,0.0,0.0,0.0,0.0,0.0
130806573,8,1509.0,1519.0,1531.0,1496.0,1507.0,1520.0,0.0,0.0,0.0,0.0,0.0,0.0,0.0,0.0,0.0,0.0
130913803,8,1565.0,1474.0,1479.0,1559.0,1513.0,1525.0,0.0,0.0,0.0,0.0,0.0,0.0,0.0,0.0,0.0,0.0
131021861,8,1463.0,1579.0,1548.0,1495.0,1463.0,1580.0,0.0,0.0,0.0,0.0,0.0,0.0,0.0,0.0,0.0,0.0
131113773,8,1537.0,1489.0,1532.0,1494.0,1531.0,1495.0,0.0,0.0,0.0,0.0,0.0,0.0,0.0,0.0,0.0,0.0
131221954,8,1588.0,1414.0,1406.0,1596.0,1474.0,1528.0,0.0,0.0,0.0,0.0,0.0,0.0,0.0,0.0,0.0,0.0
131313928,8,1440.0,1564.0,1607.0,1397.0,1515.0,1489.0,0.0,0.0,0.0,0.0,0.0,0.0,0.0,0.0,0.0,0.0
131425810,8,1577.0,1450.0,1464.0,1563.0,1508.0,1519.0,0.0,0.0,0.0,0.0,0.0,0.0,0.0,0.0,0.0,0.0
131516935,8,1558.0,1469.0,1435.0,1592.0,1456.0,1571.0,0.0,0.0,0.0,0.0,0.0,0.0,0.0,0.0,0.0,0.0
131628947,8,1466.0,1566.0,1519.0,1513.0,1441.0,1590.0,0.0,0.0,0.0,0.0,0.0,0.0,0.0,0.0,0.0,0.0
131721208,8,1490.0,1532.0,1545.0,1478.0,1491.0,1532.0,0.0,0.0,0.0,0.0,0.0,0.0,0.0,0.0,0.0,0.0
131825328,8,1530.0,1470.0,1444.0,1557.0,1449.0,1552.0,0.0,0.0,0.0,0.0,0.0,0.0,0.0,0.0,0.0,0.0
131937133,8,1505.0,1491.0,1485.0,1511.0,1465.0,1531.0,0.0,0.0,0.0,0.0,0.0,0.0,0.0,0.0,0.0,0.0
132025130,8,1496.0,1507.0,1493.0,1510.0,1461.0,1543.0,0.0,0.0,0.0,0.0,0.0,0.0,0.0,0.0,0.0,0.0
132128969,8,1588.0,1445.0,1432.0,1602.0,1482.0,1551.0,0.0,0.0,0.0,0.0,0.0,0.0,0.0,0.0,0.0,0.0
132236921,8,1531.0,1514.0,1453.0,1592.0,1429.0,1616.0,0.0,0.0,0.0,0.0,0.0,0.0,0.0,0.0,0.0,0.0
132348301,8,1637.0,1423.0,1644.0,1416.0,1572.0,1488.0,0.0,0.0,0.0,0.0,0.0,0.0,0.0,0.0,0.0,0.0
132436127,8,1473.0,1589.0,1530.0,1531.0,1454.0,1608.0,0.0,0.0,0.0,0.0,0.0,0.0,0.0,0.0,0.0,0.0
132544123,8,1459.0,1591.0,1535.0,1516.0,1442.0,1609.0,0.0,0.0,0.0,0.0,0.0,0.0,0.0,0.0,0.0,0.0
132648547,8,1433.0,1584.0,1520.0,1498.0,1420.0,1598.0,0.0,0.0,0.0,0.0,0.0,0.0,0.0,0.0,0.0,0.0
132736269,8,1534.0,1479.0,1443.0,1570.0,1440.0,1573.0,0.0,0.0,0.0,0.0,0.0,0.0,0.0,0.0,0.0,0.0
132844366,8,1457.0,1563.0,1540.0,1480.0,1474.0,1545.0,0.0,0.0,0.0,0.0,0.0,0.0,0.0,0.0,0.0,0.0
132955527,8,1499.0,1544.0,1610.0,1432.0,1552.0,1491.0,0.0,0.0,0.0,0.0,0.0,0.0,0.0,0.0,0.0,0.0
133043725,8,1548.0,1492.0,1499.0,1541.0,1503.0,1537.0,0.0,0.0,0.0,0.0,0.0,0.0,0.0,0.0,0.0,0.0
133159544,8,1455.0,1570.0,1525.0,1500.0,1446.0,1579.0,0.0,0.0,0.0,0.0,0.0,0.0,0.0,0.0,0.0,0.0
133251323,8,1511.0,1497.0,1538.0,1469.0,1519.0,1488.0,0.0,0.0,0.0,0.0,0.0,0.0,0.0,0.0,0.0,0.0
133339544,8,1462.0,1539.0,1565.0,1436.0,1502.0,1499.0,0.0,0.0,0.0,0.0,0.0,0.0,0.0,0.0,0.0,0.0
133455333,8,1448.0,1560.0,1586.0,1421.0,1504.0,1504.0,0.0,0.0,0.0,0.0,0.0,0.0,0.0,0.0,0.0,0.0
133563544,8,1519.0,1492.0,1478.0,1533.0,1472.0,1539.0,0.0,0.0,0.0,0.0,0.0,0.0,0.0,0.0,0.0,0.0
133655750,8,1489.0,1579.0,1585.0,1483.0,1517.0,1551.0,0.0,0.0,0.0,0.0,0.0,0.0,0.0,0.0,0.0,0.0
133762947,8,1570.0,1559.0,1549.0,1579.0,1532.0,1597.0,0.0,0.0,0.0,0.0,0.0,0.0,0.0,0.0,0.0,0.0
133850554,8,1552.0,1560.0,1524.0,1588.0,1496.0,1616.0,0.0,0.0,0.0,0.0,0.0,0.0,0.0,0.0,0.0,0.0
133966743,8,1578.0,1512.0,1587.0,1503.0,1591.0,1499.0,0.0,0.0,0.0,0.0,0.0,0.0,0.0,0.0,0.0,0.0
134054742,8,1463.0,1606.0,1587.0,1482.0,1489.0,1567.0,0.0,0.0,0.0,0.0,0.0,0.0,0.0,0.0,0.0,0.0
134174765,8,1439.0,1499.0,1535.0,1403.0,1477.0,1461.0,0.0,0.0,0.0,0.0,0.0,0.0,0.0,0.0,0.0,0.0
134266925,8,1379.0,1388.0,1346.0,1421.0,1316.0,1451.0,0.0,0.0,0.0,0.0,0.0,0.0,0.0,0.0,0.0,0.0
134374990,8,1392.0,1471.0,1517.0,1347.0,1441.0,1422.0,0.0,0.0,0.0,0.0,0.0,0.0,0.0,0.0,0.0,0.0
134482954,8,1565.0,1435.0,1418.0,1583.0,1457.0,1543.0,0.0,0.0,0.0,0.0,0.0,0.0,0.0,0.0,0.0,0.0
134569736,8,1493.0,1580.0,1536.0,1536.0,1472.0,1601.0,0.0,0.0,0.0,0.0,0.0,0.0,0.0,0.0,0.0,0.0
134673717,8,1552.0,1502.0,1486.0,1568.0,1484.0,1570.0,0.0,0.0,0.0,0.0,0.0,0.0,0.0,0.0,0.0,0.0
134785742,8,1490.0,1517.0,1450.0,1564.0,1497.0,1518.0,0.0,0.0,0.0,0.0,0.0,0.0,0.0,0.0,0.0,0.0
134873887,8,1465.0,1539.0,1559.0,1445.0,1502.0,1502.0,0.0,0.0,0.0,0.0,0.0,0.0,0.0,0.0,0.0,0.0
134989759,8,1508.0,1499.0,1572.0,1435.0,1565.0,1442.0,0.0,0.0,0.0,0.0,0.0,0.0,0.0,0.0,0.0,0.0
135069905,8,1445.0,1577.0,1543.0,1480.0,1471.0,1552.0,0.0,0.0,0.0,0.0,0.0,0.0,0.0,0.0,0.0,0.0
135189017,8,1451.0,1580.0,1587.0,1444.0,1512.0,1519.0,0.0,0.0,0.0,0.0,0.0,0.0,0.0,0.0,0.0,0.0
135281170,8,1502.0,1525.0,1506.0,1521.0,1475.0,1553.0,0.0,0.0,0.0,0.0,0.0,0.0,0.0,0.0,0.0,0.0
135396947,8,1537.0,1505.0,1474.0,1568.0,1447.0,1595.0,0.0,0.0,0.0,0.0,0.0,0.0,0.0,0.0,0.0,0.0
135485126,8,1505.0,1597.0,1646.0,1456.0,1563.0,1540.0,0.0,0.0,0.0,0.0,0.0,0.0,0.0,0.0,0.0,0.0
135597367,8,1528.0,1528.0,1545.0,1510.0,1511.0,1545.0,0.0,0.0,0.0,0.0,0.0,0.0,0.0,0.0,0.0,0.0
135701138,8,1541.0,1433.0,1404.0,1570.0,1426.0,1548.0,0.0,0.0,0.0,0.0,0.0,0.0,0.0,0.0,0.0,0.0
135793217,8,1550.0,1395.0,1409.0,1536.0,1449.0,1495.0,0.0,0.0,0.0,0.0,0.0,0.0,0.0,0.0,0.0,0.0
135904988,8,1527.0,1470.0,1510.0,1487.0,1506.0,1492.0,0.0,0.0,0.0,0.0,0.0,0.0,0.0,0.0,0.0,0.0
136000201,8,1623.0,1460.0,1502.0,1581.0,1543.0,1540.0,0.0,0.0,0.0,0.0,0.0,0.0,0.0,0.0,0.0,0.0
136092147,8,1496.0,1547.0,1507.0,1537.0,1456.0,1588.0,0.0,0.0,0.0,0.0,0.0,0.0,0.0,0.0,0.0,0.0
136200187,8,1573.0,1438.0,1397.0,1614.0,1435.0,1577.0,0.0,0.0,0.0,0.0,0.0,0.0,0.0,0.0,0.0,0.0
136312355,8,1407.0,1606.0,1589.0,1424.0,1457.0,1555.0,0.0,0.0,0.0,0.0,0.0,0.0,0.0,0.0,0.0,0.0
136404328,8,1489.0,1535.0,1591.0,1433.0,1534.0,1490.0,0.0,0.0,0.0,0.0,0.0,0.0,0.0,0.0,0.0,0.0
136496525,8,1554.0,1491.0,1551.0,1494.0,1551.0,1494.0,0.0,0.0,0.0,0.0,0.0,0.0,0.0,0.0,0.0,0.0
136608177,8,1557.0,1469.0,1518.0,1509.0,1532.0,1494.0,0.0,0.0,0.0,0.0,0.0,0.0,0.0,0.0,0.0,0.0
136700336,8,1446.0,1568.0,1570.0,1444.0,1476.0,1537.0,0.0,0.0,0.0,0.0,0.0,0.0,0.0,0.0,0.0,0.0
136811477,8,1479.0,1523.0,1497.0,1506.0,1445.0,1557.0,0.0,0.0,0.0,0.0,0.0,0.0,0.0,0.0,0.0,0.0
136919372,8,1533.0,1482.0,1535.0,1481.0,1444.0,1571.0,0.0,0.0,0.0,0.0,0.0,0.0,0.0,0.0,0.0,0.0
137007530,8,1546.0,1473.0,1550.0,1469.0,1425.0,1594.0,0.0,0.0,0.0,0.0,0.0,0.0,0.0,0.0,0.0,0.0
137119393,8,1532.0,1488.0,1564.0,1456.0,1470.0,1550.0,0.0,0.0,0.0,0.0,0.0,0.0,0.0,0.0,0.0,0.0
137231533,8,1570.0,1437.0,1540.0,1468.0,1489.0,1519.0,0.0,0.0,0.0,0.0,0.0,0.0,0.0,0.0,0.0,0.0
137323779,8,1445.0,1561.0,1558.0,1448.0,1431.0,1575.0,0.0,0.0,0.0,0.0,0.0,0.0,0.0,0.0,0.0,0.0
137435549,8,1541.0,1481.0,1492.0,1530.0,1458.0,1564.0,0.0,0.0,0.0,0.0,0.0,0.0,0.0,0.0,0.0,0.0
137522795,8,1599.0,1437.0,1557.0,1479.0,1585.0,1451.0,0.0,0.0,0.0,0.0,0.0,0.0,0.0,0.0,0.0,0.0
137627339,8,1461.0,1587.0,1576.0,1472.0,1474.0,1575.0,0.0,0.0,0.0,0.0,0.0,0.0,0.0,0.0,0.0,0.0
137742517,8,1458.0,1588.0,1513.0,1534.0,1408.0,1638.0,0.0,0.0,0.0,0.0,0.0,0.0,0.0,0.0,0.0,0.0
137830714,8,1445.0,1595.0,1573.0,1466.0,1460.0,1580.0,0.0,0.0,0.0,0.0,0.0,0.0,0.0,0.0,0.0,0.0
137926726,8,1480.0,1546.0,1571.0,1456.0,1495.0,1532.0,0.0,0.0,0.0,0.0,0.0,0.0,0.0,0.0,0.0,0.0
138038746,8,1609.0,1414.0,1524.0,1499.0,1553.0,1470.0,0.0,0.0,0.0,0.0,0.0,0.0,0.0,0.0,0.0,0.0
138134683,8,1561.0,1472.0,1536.0,1497.0,1480.0,1553.0,0.0,0.0,0.0,0.0,0.0,0.0,0.0,0.0,0.0,0.0
138245717,8,1582.0,1439.0,1556.0,1465.0,1543.0,1478.0,0.0,0.0,0.0,0.0,0.0,0.0,0.0,0.0,0.0,0.0
138349954,8,1568.0,1449.0,1570.0,1447.0,1449.0,1569.0,0.0,0.0,0.0,0.0,0.0,0.0,0.0,0.0,0.0,0.0
138441729,8,1607.0,1419.0,1474.0,1551.0,1479.0,1546.0,0.0,0.0,0.0,0.0,0.0,0.0,0.0,0.0,0.0,0.0
138553737,8,1605.0,1429.0,1541.0,1494.0,1521.0,1514.0,0.0,0.0,0.0,0.0,0.0,0.0,0.0,0.0,0.0,0.0
138641738,8,1496.0,1536.0,1622.0,1410.0,1509.0,1522.0,0.0,0.0,0.0,0.0,0.0,0.0,0.0,0.0,0.0,0.0
138733805,8,1577.0,1455.0,1514.0,1518.0,1481.0,1551.0,0.0,0.0,0.0,0.0,0.0,0.0,0.0,0.0,0.0,0.0
138845750,8,1537.0,1496.0,1627.0,1406.0,1557.0,1476.0,0.0,0.0,0.0,0.0,0.0,0.0,0.0,0.0,0.0,0.0
138957707,8,1464.0,1576.0,1541.0,1497.0,1400.0,1640.0,0.0,0.0,0.0,0.0,0.0,0.0,0.0,0.0,0.0,0.0
139045231,8,1480.0,1562.0,1556.0,1486.0,1444.0,1598.0,0.0,0.0,0.0,0.0,0.0,0.0,0.0,0.0,0.0,0.0
139161111,8,1578.0,1452.0,1571.0,1459.0,1554.0,1476.0,0.0,0.0,0.0,0.0,0.0,0.0,0.0,0.0,0.0,0.0
139248928,8,1499.0,1525.0,1478.0,1545.0,1406.0,1617.0,0.0,0.0,0.0,0.0,0.0,0.0,0.0,0.0,0.0,0.0
139356955,8,1526.0,1498.0,1459.0,1565.0,1402.0,1622.0,0.0,0.0,0.0,0.0,0.0,0.0,0.0,0.0,0.0,0.0
139461141,8,1581.0,1451.0,1518.0,1513.0,1513.0,1518.0,0.0,0.0,0.0,0.0,0.0,0.0,0.0,0.0,0.0,0.0
139568962,8,1507.0,1519.0,1514.0,1512.0,1465.0,1561.0,0.0,0.0,0.0,0.0,0.0,0.0,0.0,0.0,0.0,0.0
139652955,8,1459.0,1557.0,1548.0,1469.0,1438.0,1579.0,0.0,0.0,0.0,0.0,0.0,0.0,0.0,0.0,0.0,0.0
139763750,8,1501.0,1525.0,1505.0,1521.0,1438.0,1588.0,0.0,0.0,0.0,0.0,0.0,0.0,0.0,0.0,0.0,0.0
139868113,8,1494.0,1526.0,1571.0,1450.0,1498.0,1522.0,0.0,0.0,0.0,0.0,0.0,0.0,0.0,0.0,0.0,0.0
139960138,8,1556.0,1465.0,1493.0,1529.0,1473.0,1549.0,0.0,0.0,0.0,0.0,0.0,0.0,0.0,0.0,0.0,0.0
140072373,8,1433.0,1578.0,1494.0,1518.0,1385.0,1626.0,0.0,0.0,0.0,0.0,0.0,0.0,0.0,0.0,0.0,0.0
140164137,8,1502.0,1514.0,1543.0,1473.0,1479.0,1537.0,0.0,0.0,0.0,0.0,0.0,0.0,0.0,0.0,0.0,0.0
140280313,8,1539.0,1491.0,1513.0,1518.0,1477.0,1553.0,0.0,0.0,0.0,0.0,0.0,0.0,0.0,0.0,0.0,0.0
140374150,8,1485.0,1423.0,1506.0,1526.0,1526.0,1506.0,0.0,0.0,0.0,0.0,0.0,0.0,0.0,0.0,0.0,0.0
140483371,8,1478.0,1558.0,1581.0,1455.0,1486.0,1550.0,0.0,0.0,0.0,0.0,0.0,0.0,0.0,0.0,0.0,0.0
140575325,8,1576.0,1467.0,1543.0,1501.0,1533.0,1511.0,0.0,0.0,0.0,0.0,0.0,0.0,0.0,0.0,0.0,0.0
140687345,8,1436.0,1603.0,1538.0,1502.0,1406.0,1634.0,0.0,0.0,0.0,0.0,0.0,0.0,0.0,0.0,0.0,0.0
140775399,8,1598.0,1440.0,1587.0,1451.0,1606.0,1433.0,0.0,0.0,0.0,0.0,0.0,0.0,0.0,0.0,0.0,0.0
140883343,8,1582.0,1469.0,1591.0,1460.0,1583.0,1468.0,0.0,0.0,0.0,0.0,0.0,0.0,0.0,0.0,0.0,0.0
140987569,8,1540.0,1504.0,1572.0,1472.0,1541.0,1503.0,0.0,0.0,0.0,0.0,0.0,0.0,0.0,0.0,0.0,0.0
141075329,8,1452.0,1575.0,1535.0,1492.0,1425.0,1602.0,0.0,0.0,0.0,0.0,0.0,0.0,0.0,0.0,0.0,0.0
141182550,8,1495.0,1527.0,1550.0,1473.0,1481.0,1541.0,0.0,0.0,0.0,0.0,0.0,0.0,0.0,0.0,0.0,0.0
141290572,8,1601.0,1426.0,1499.0,1529.0,1534.0,1493.0,0.0,0.0,0.0,0.0,0.0,0.0,0.0,0.0,0.0,0.0
141382518,8,1525.0,1516.0,1525.0,1515.0,1482.0,1558.0,0.0,0.0,0.0,0.0,0.0,0.0,0.0,0.0,0.0,0.0
141494698,8,1482.0,1560.0,1531.0,1511.0,1465.0,1577.0,0.0,0.0,0.0,0.0,0.0,0.0,0.0,0.0,0.0,0.0
141602569,8,1510.0,1517.0,1458.0,1569.0,1399.0,1628.0,0.0,0.0,0.0,0.0,0.0,0.0,0.0,0.0,0.0,0.0
141686981,8,1502.0,1520.0,1560.0,1486.0,1454.0,1568.0,0.0,0.0,0.0,0.0,0.0,0.0,0.0,0.0,0.0,0.0
141794781,8,1494.0,1537.0,1496.0,1535.0,1445.0,1586.0,0.0,0.0,0.0,0.0,0.0,0.0,0.0,0.0,0.0,0.0
141910000,8,1532.0,1496.0,1477.0,1551.0,1457.0,1570.0,0.0,0.0,0.0,0.0,0.0,0.0,0.0,0.0,0.0,0.0
141993758,8,1547.0,1481.0,1569.0,1459.0,1574.0,1455.0,0.0,0.0,0.0,0.0,0.0,0.0,0.0,0.0,0.0,0.0
142098182,8,1537.0,1501.0,1488.0,1550.0,1466.0,1572.0,0.0,0.0,0.0,0.0,0.0,0.0,0.0,0.0,0.0,0.0
142209913,8,1530.0,1494.0,1513.0,1510.0,1478.0,1545.0,0.0,0.0,0.0,0.0,0.0,0.0,0.0,0.0,0.0,0.0
142297739,8,1530.0,1479.0,1593.0,1416.0,1545.0,1464.0,0.0,0.0,0.0,0.0,0.0,0.0,0.0,0.0,0.0,0.0
142413911,8,1483.0,1534.0,1526.0,1490.0,1461.0,1556.0,0.0,0.0,0.0,0.0,0.0,0.0,0.0,0.0,0.0,0.0
142501865,8,1467.0,1558.0,1502.0,1522.0,1421.0,1604.0,0.0,0.0,0.0,0.0,0.0,0.0,0.0,0.0,0.0,0.0
142613718,8,1580.0,1465.0,1591.0,1454.0,1615.0,1430.0,0.0,0.0,0.0,0.0,0.0,0.0,0.0,0.0,0.0,0.0
142704951,8,1619.0,1438.0,1514.0,1543.0,1560.0,1497.0,0.0,0.0,0.0,0.0,0.0,0.0,0.0,0.0,0.0,0.0
142817421,8,1546.0,1505.0,1553.0,1498.0,1507.0,1544.0,0.0,0.0,0.0,0.0,0.0,0.0,0.0,0.0,0.0,0.0
142905176,8,1570.0,1462.0,1498.0,1535.0,1501.0,1531.0,0.0,0.0,0.0,0.0,0.0,0.0,0.0,0.0,0.0,0.0
143021144,8,1513.0,1510.0,1473.0,1550.0,1416.0,1608.0,0.0,0.0,0.0,0.0,0.0,0.0,0.0,0.0,0.0,0.0
143128982,8,1481.0,1542.0,1542.0,1481.0,1475.0,1548.0,0.0,0.0,0.0,0.0,0.0,0.0,0.0,0.0,0.0,0.0
143217059,8,1479.0,1561.0,1629.0,1411.0,1544.0,1495.0,0.0,0.0,0.0,0.0,0.0,0.0,0.0,0.0,0.0,0.0
143327334,8,1540.0,1506.0,1480.0,1565.0,1474.0,1572.0,0.0,0.0,0.0,0.0,0.0,0.0,0.0,0.0,0.0,0.0
143416574,8,1552.0,1489.0,1454.0,1588.0,1466.0,1575.0,0.0,0.0,0.0,0.0,0.0,0.0,0.0,0.0,0.0,0.0
143528161,8,1594.0,1429.0,1523.0,1500.0,1583.0,1440.0,0.0,0.0,0.0,0.0,0.0,0.0,0.0,0.0,0.0,0.0
143640326,8,1436.0,1573.0,1460.0,1549.0,1634.0,1375.0,0.0,0.0,0.0,0.0,0.0,0.0,0.0,0.0,0.0,0.0
143732203,8,1391.0,1590.0,1463.0,1518.0,1526.0,1455.0,0.0,0.0,0.0,0.0,0.0,0.0,0.0,0.0,0.0,0.0
143836383,8,1480.0,1516.0,1380.0,1617.0,1470.0,1526.0,0.0,0.0,0.0,0.0,0.0,0.0,0.0,0.0,0.0,0.0
143928212,8,1468.0,1538.0,1423.0,1583.0,1470.0,1536.0,0.0,0.0,0.0,0.0,0.0,0.0,0.0,0.0,0.0,0.0
144040572,8,1469.0,1565.0,1547.0,1487.0,1539.0,1495.0,0.0,0.0,0.0,0.0,0.0,0.0,0.0,0.0,0.0,0.0
144124357,8,1389.0,1656.0,1595.0,1450.0,1477.0,1568.0,0.0,0.0,0.0,0.0,0.0,0.0,0.0,0.0,0.0,0.0
144239358,8,1661.0,1390.0,1404.0,1648.0,1529.0,1522.0,0.0,0.0,0.0,0.0,0.0,0.0,0.0,0.0,0.0,0.0
144339491,8,1373.0,1681.0,1659.0,1395.0,1484.0,1570.0,0.0,0.0,0.0,0.0,0.0,0.0,0.0,0.0,0.0,0.0
144443338,8,1558.0,1477.0,1564.0,1472.0,1564.0,1472.0,0.0,0.0,0.0,0.0,0.0,0.0,0.0,0.0,0.0,0.0
144535487,8,1618.0,1407.0,1449.0,1576.0,1511.0,1513.0,0.0,0.0,0.0,0.0,0.0,0.0,0.0,0.0,0.0,0.0
144647769,8,1497.0,1538.0,1484.0,1551.0,1425.0,1611.0,0.0,0.0,0.0,0.0,0.0,0.0,0.0,0.0,0.0,0.0
144759342,8,1488.0,1550.0,1598.0,1440.0,1530.0,1508.0,0.0,0.0,0.0,0.0,0.0,0.0,0.0,0.0,0.0,0.0
144844391,8,1601.0,1431.0,1435.0,1596.0,1486.0,1545.0,0.0,0.0,0.0,0.0,0.0,0.0,0.0,0.0,0.0,0.0
144954653,8,1473.0,1561.0,1639.0,1395.0,1557.0,1477.0,0.0,0.0,0.0,0.0,0.0,0.0,0.0,0.0,0.0,0.0
145062558,8,1550.0,1473.0,1506.0,1517.0,1519.0,1505.0,0.0,0.0,0.0,0.0,0.0,0.0,0.0,0.0,0.0,0.0
145150569,8,1527.0,1493.0,1557.0,1462.0,1545.0,1474.0,0.0,0.0,0.0,0.0,0.0,0.0,0.0,0.0,0.0,0.0
145258760,8,1511.0,1505.0,1487.0,1528.0,1460.0,1555.0,0.0,0.0,0.0,0.0,0.0,0.0,0.0,0.0,0.0,0.0
145350575,8,1526.0,1481.0,1559.0,1448.0,1557.0,1450.0,0.0,0.0,0.0,0.0,0.0,0.0,0.0,0.0,0.0,0.0
145458558,8,1632.0,1404.0,1429.0,1608.0,1517.0,1519.0,0.0,0.0,0.0,0.0,0.0,0.0,0.0,0.0,0.0,0.0
145566805,8,1505.0,1577.0,1632.0,1450.0,1562.0,1519.0,0.0,0.0,0.0,0.0,0.0,0.0,0.0,0.0,0.0,0.0
145657797,8,1503.0,1583.0,1600.0,1486.0,1528.0,1558.0,0.0,0.0,0.0,0.0,0.0,0.0,0.0,0.0,0.0,0.0
145773801,8,1481.0,1533.0,1607.0,1406.0,1552.0,1461.0,0.0,0.0,0.0,0.0,0.0,0.0,0.0,0.0,0.0,0.0
145861742,8,1534.0,1459.0,1491.0,1502.0,1504.0,1488.0,0.0,0.0,0.0,0.0,0.0,0.0,0.0,0.0,0.0,0.0
145969792,8,1526.0,1486.0,1531.0,1482.0,1525.0,1488.0,0.0,0.0,0.0,0.0,0.0,0.0,0.0,0.0,0.0,0.0
146073865,8,1534.0,1496.0,1484.0,1546.0,1493.0,1537.0,0.0,0.0,0.0,0.0,0.0,0.0,0.0,0.0,0.0,0.0
146165741,8,1491.0,1538.0,1547.0,1482.0,1498.0,1531.0,0.0,0.0,0.0,0.0,0.0,0.0,0.0,0.0,0.0,0.0
146277955,8,1517.0,1500.0,1555.0,1461.0,1539.0,1477.0,0.0,0.0,0.0,0.0,0.0,0.0,0.0,0.0,0.0,0.0
146365220,8,1578.0,1442.0,1446.0,1575.0,1492.0,1528.0,0.0,0.0,0.0,0.0,0.0,0.0,0.0,0.0,0.0,0.0
146480922,8,1574.0,1463.0,1424.0,1614.0,1457.0,1581.0,0.0,0.0,0.0,0.0,0.0,0.0,0.0,0.0,0.0,0.0
146568954,8,1544.0,1494.0,1585.0,1453.0,1577.0,1461.0,0.0,0.0,0.0,0.0,0.0,0.0,0.0,0.0,0.0,0.0
146681210,8,1477.0,1551.0,1585.0,1444.0,1516.0,1512.0,0.0,0.0,0.0,0.0,0.0,0.0,0.0,0.0,0.0,0.0
146788945,8,1542.0,1482.0,1497.0,1527.0,1511.0,1513.0,0.0,0.0,0.0,0.0,0.0,0.0,0.0,0.0,0.0,0.0
146876973,8,1470.0,1553.0,1534.0,1489.0,1468.0,1555.0,0.0,0.0,0.0,0.0,0.0,0.0,0.0,0.0,0.0,0.0
146992288,8,1583.0,1443.0,1449.0,1577.0,1500.0,1526.0,0.0,0.0,0.0,0.0,0.0,0.0,0.0,0.0,0.0,0.0
147084363,8,1500.0,1531.0,1532.0,1498.0,1490.0,1541.0,0.0,0.0,0.0,0.0,0.0,0.0,0.0,0.0,0.0,0.0
147196547,8,1549.0,1490.0,1538.0,1502.0,1540.0,1500.0,0.0,0.0,0.0,0.0,0.0,0.0,0.0,0.0,0.0,0.0
147280381,8,1416.0,1630.0,1606.0,1440.0,1465.0,1581.0,0.0,0.0,0.0,0.0,0.0,0.0,0.0,0.0,0.0,0.0
147396193,8,1514.0,1528.0,1555.0,1487.0,1509.0,1533.0,0.0,0.0,0.0,0.0,0.0,0.0,0.0,0.0,0.0,0.0
147484581,8,1482.0,1567.0,1545.0,1504.0,1464.0,1586.0,0.0,0.0,0.0,0.0,0.0,0.0,0.0,0.0,0.0,0.0
147592550,8,1561.0,1481.0,1439.0,1602.0,1454.0,1588.0,0.0,0.0,0.0,0.0,0.0,0.0,0.0,0.0,0.0,0.0
147700547,8,1501.0,1529.0,1551.0,1479.0,1499.0,1531.0,0.0,0.0,0.0,0.0,0.0,0.0,0.0,0.0,0.0,0.0
147788913,8,1456.0,1574.0,1549.0,1481.0,1451.0,1578.0,0.0,0.0,0.0,0.0,0.0,0.0,0.0,0.0,0.0,0.0
147895327,8,1451.0,1587.0,1625.0,1413.0,1517.0,1521.0,0.0,0.0,0.0,0.0,0.0,0.0,0.0,0.0,0.0,0.0
147999409,8,1526.0,1517.0,1515.0,1528.0,1479.0,1564.0,0.0,0.0,0.0,0.0,0.0,0.0,0.0,0.0,0.0,0.0
148095525,8,1540.0,1491.0,1480.0,1550.0,1462.0,1569.0,0.0,0.0,0.0,0.0,0.0,0.0,0.0,0.0,0.0,0.0
148207617,8,1507.0,1521.0,1546.0,1483.0,1504.0,1525.0,0.0,0.0,0.0,0.0,0.0,0.0,0.0,0.0,0.0,0.0
148295352,8,1540.0,1488.0,1451.0,1578.0,1436.0,1592.0,0.0,0.0,0.0,0.0,0.0,0.0,0.0,0.0,0.0,0.0
148407313,8,1420.0,1597.0,1541.0,1476.0,1421.0,1597.0,0.0,0.0,0.0,0.0,0.0,0.0,0.0,0.0,0.0,0.0
148499325,8,1585.0,1442.0,1526.0,1501.0,1552.0,1475.0,0.0,0.0,0.0,0.0,0.0,0.0,0.0,0.0,0.0,0.0
148610555,8,1570.0,1475.0,1444.0,1601.0,1445.0,1600.0,0.0,0.0,0.0,0.0,0.0,0.0,0.0,0.0,0.0,0.0
148714560,8,1520.0,1516.0,1498.0,1538.0,1455.0,1581.0,0.0,0.0,0.0,0.0,0.0,0.0,0.0,0.0,0.0,0.0
148806806,8,1496.0,1546.0,1459.0,1584.0,1396.0,1646.0,0.0,0.0,0.0,0.0,0.0,0.0,0.0,0.0,0.0,0.0
148922548,8,1585.0,1451.0,1485.0,1550.0,1507.0,1528.0,0.0,0.0,0.0,0.0,0.0,0.0,0.0,0.0,0.0,0.0
149006550,8,1576.0,1463.0,1468.0,1572.0,1470.0,1569.0,0.0,0.0,0.0,0.0,0.0,0.0,0.0,0.0,0.0,0.0
149118534,8,1474.0,1585.0,1469.0,1591.0,1383.0,1677.0,0.0,0.0,0.0,0.0,0.0,0.0,0.0,0.0,0.0,0.0
149213730,8,1579.0,1486.0,1564.0,1501.0,1569.0,1495.0,0.0,0.0,0.0,0.0,0.0,0.0,0.0,0.0,0.0,0.0
149321915,8,1562.0,1488.0,1509.0,1541.0,1513.0,1537.0,0.0,0.0,0.0,0.0,0.0,0.0,0.0,0.0,0.0,0.0
149429762,8,1528.0,1499.0,1474.0,1553.0,1462.0,1565.0,0.0,0.0,0.0,0.0,0.0,0.0,0.0,0.0,0.0,0.0
149513869,8,1472.0,1547.0,1636.0,1383.0,1573.0,1446.0,0.0,0.0,0.0,0.0,0.0,0.0,0.0,0.0,0.0,0.0
149629857,8,1436.0,1612.0,1587.0,1461.0,1473.0,1574.0,0.0,0.0,0.0,0.0,0.0,0.0,0.0,0.0,0.0,0.0
149722037,8,1460.0,1582.0,1558.0,1483.0,1480.0,1561.0,0.0,0.0,0.0,0.0,0.0,0.0,0.0,0.0,0.0,0.0
149833755,8,1478.0,1565.0,1637.0,1405.0,1567.0,1476.0,0.0,0.0,0.0,0.0,0.0,0.0,0.0,0.0,0.0,0.0
149921730,8,1510.0,1628.0,1713.0,1425.0,1618.0,1520.0,0.0,0.0,0.0,0.0,0.0,0.0,0.0,0.0,0.0,0.0
150033386,8,1470.0,1627.0,1577.0,1519.0,1474.0,1622.0,0.0,0.0,0.0,0.0,0.0,0.0,0.0,0.0,0.0,0.0
150125144,8,1503.0,1521.0,1579.0,1445.0,1542.0,1482.0,0.0,0.0,0.0,0.0,0.0,0.0,0.0,0.0,0.0,0.0
150236958,8,1487.0,1520.0,1491.0,1515.0,1452.0,1554.0,0.0,0.0,0.0,0.0,0.0,0.0,0.0,0.0,0.0,0.0
150344943,8,1523.0,1506.0,1459.0,1570.0,1448.0,1581.0,0.0,0.0,0.0,0.0,0.0,0.0,0.0,0.0,0.0,0.0
150441134,8,1513.0,1513.0,1607.0,1419.0,1575.0,1452.0,0.0,0.0,0.0,0.0,0.0,0.0,0.0,0.0,0.0,0.0
150525094,8,1537.0,1396.0,1392.0,1542.0,1424.0,1510.0,0.0,0.0,0.0,0.0,0.0,0.0,0.0,0.0,0.0,0.0
150640962,8,1504.0,1479.0,1500.0,1483.0,1482.0,1501.0,0.0,0.0,0.0,0.0,0.0,0.0,0.0,0.0,0.0,0.0
150732202,8,1502.0,1538.0,1466.0,1575.0,1411.0,1629.0,0.0,0.0,0.0,0.0,0.0,0.0,0.0,0.0,0.0,0.0
150844156,8,1549.0,1515.0,1614.0,1450.0,1593.0,1471.0,0.0,0.0,0.0,0.0,0.0,0.0,0.0,0.0,0.0,0.0
150952124,8,1598.0,1456.0,1526.0,1528.0,1560.0,1495.0,0.0,0.0,0.0,0.0,0.0,0.0,0.0,0.0,0.0,0.0
151044144,8,1551.0,1489.0,1519.0,1520.0,1521.0,1519.0,0.0,0.0,0.0,0.0,0.0,0.0,0.0,0.0,0.0,0.0
151152250,8,1521.0,1499.0,1554.0,1466.0,1537.0,1483.0,0.0,0.0,0.0,0.0,0.0,0.0,0.0,0.0,0.0,0.0
151248162,8,1434.0,1592.0,1531.0,1494.0,1431.0,1595.0,0.0,0.0,0.0,0.0,0.0,0.0,0.0,0.0,0.0,0.0
151360146,8,1543.0,1508.0,1487.0,1564.0,1480.0,1571.0,0.0,0.0,0.0,0.0,0.0,0.0,0.0,0.0,0.0,0.0
151451557,8,1534.0,1540.0,1567.0,1507.0,1545.0,1529.0,0.0,0.0,0.0,0.0,0.0,0.0,0.0,0.0,0.0,0.0
151539774,8,1576.0,1470.0,1486.0,1559.0,1506.0,1539.0,0.0,0.0,0.0,0.0,0.0,0.0,0.0,0.0,0.0,0.0
151647797,8,1577.0,1421.0,1439.0,1560.0,1486.0,1512.0,0.0,0.0,0.0,0.0,0.0,0.0,0.0,0.0,0.0,0.0
151755753,8,1459.0,1571.0,1513.0,1516.0,1440.0,1590.0,0.0,0.0,0.0,0.0,0.0,0.0,0.0,0.0,0.0,0.0
151867488,8,1499.0,1555.0,1560.0,1492.0,1520.0,1535.0,0.0,0.0,0.0,0.0,0.0,0.0,0.0,0.0,0.0,0.0
151951374,8,1454.0,1599.0,1556.0,1496.0,1463.0,1590.0,0.0,0.0,0.0,0.0,0.0,0.0,0.0,0.0,0.0,0.0
152063569,8,1566.0,1473.0,1501.0,1538.0,1523.0,1516.0,0.0,0.0,0.0,0.0,0.0,0.0,0.0,0.0,0.0,0.0
152155358,8,1443.0,1586.0,1568.0,1460.0,1473.0,1555.0,0.0,0.0,0.0,0.0,0.0,0.0,0.0,0.0,0.0,0.0
152270710,8,1557.0,1465.0,1507.0,1515.0,1526.0,1496.0,0.0,0.0,0.0,0.0,0.0,0.0,0.0,0.0,0.0,0.0
152358550,8,1399.0,1629.0,1583.0,1446.0,1437.0,1592.0,0.0,0.0,0.0,0.0,0.0,0.0,0.0,0.0,0.0,0.0
152466765,8,1515.0,1549.0,1610.0,1454.0,1566.0,1499.0,0.0,0.0,0.0,0.0,0.0,0.0,0.0,0.0,0.0,0.0
152574789,8,1430.0,1646.0,1538.0,1538.0,1404.0,1672.0,0.0,0.0,0.0,0.0,0.0,0.0,0.0,0.0,0.0,0.0
152662759,8,1534.0,1596.0,1570.0,1560.0,1509.0,1621.0,0.0,0.0,0.0,0.0,0.0,0.0,0.0,0.0,0.0,0.0
152774548,8,1587.0,1533.0,1550.0,1570.0,1537.0,1583.0,0.0,0.0,0.0,0.0,0.0,0.0,0.0,0.0,0.0,0.0
152881743,8,1552.0,1499.0,1528.0,1522.0,1524.0,1526.0,0.0,0.0,0.0,0.0,0.0,0.0,0.0,0.0,0.0,0.0
152970957,8,1589.0,1445.0,1452.0,1583.0,1496.0,1538.0,0.0,0.0,0.0,0.0,0.0,0.0,0.0,0.0,0.0,0.0
153081766,8,1457.0,1535.0,1609.0,1383.0,1546.0,1445.0,0.0,0.0,0.0,0.0,0.0,0.0,0.0,0.0,0.0,0.0
153169723,8,1441.0,1489.0,1483.0,1447.0,1442.0,1488.0,0.0,0.0,0.0,0.0,0.0,0.0,0.0,0.0,0.0,0.0
153277800,8,1501.0,1464.0,1510.0,1455.0,1514.0,1451.0,0.0,0.0,0.0,0.0,0.0,0.0,0.0,0.0,0.0,0.0
153385755,8,1541.0,1517.0,1485.0,1574.0,1474.0,1585.0,0.0,0.0,0.0,0.0,0.0,0.0,0.0,0.0,0.0,0.0
153474153,8,1519.0,1543.0,1539.0,1524.0,1500.0,1562.0,0.0,0.0,0.0,0.0,0.0,0.0,0.0,0.0,0.0,0.0
153585963,8,1519.0,1545.0,1494.0,1570.0,1454.0,1610.0,0.0,0.0,0.0,0.0,0.0,0.0,0.0,0.0,0.0,0.0
153676126,8,1543.0,1512.0,1602.0,1453.0,1590.0,1465.0,0.0,0.0,0.0,0.0,0.0,0.0,0.0,0.0,0.0,0.0
153781177,8,1527.0,1530.0,1561.0,1495.0,1536.0,1520.0,0.0,0.0,0.0,0.0,0.0,0.0,0.0,0.0,0.0,0.0
153892937,8,1535.0,1507.0,1575.0,1467.0,1560.0,1482.0,0.0,0.0,0.0,0.0,0.0,0.0,0.0,0.0,0.0,0.0
153984934,8,1490.0,1555.0,1523.0,1523.0,1469.0,1577.0,0.0,0.0,0.0,0.0,0.0,0.0,0.0,0.0,0.0,0.0
154092949,8,1552.0,1492.0,1598.0,1446.0,1603.0,1441.0,0.0,0.0,0.0,0.0,0.0,0.0,0.0,0.0,0.0,0.0
154204980,8,1571.0,1486.0,1513.0,1544.0,1526.0,1531.0,0.0,0.0,0.0,0.0,0.0,0.0,0.0,0.0,0.0,0.0
154289014,8,1507.0,1545.0,1518.0,1535.0,1460.0,1592.0,0.0,0.0,0.0,0.0,0.0,0.0,0.0,0.0,0.0,0.0
154396928,8,1467.0,1565.0,1583.0,1449.0,1498.0,1534.0,0.0,0.0,0.0,0.0,0.0,0.0,0.0,0.0,0.0,0.0
154508153,8,1496.0,1518.0,1546.0,1468.0,1492.0,1523.0,0.0,0.0,0.0,0.0,0.0,0.0,0.0,0.0,0.0,0.0
154592124,8,1513.0,1492.0,1473.0,1533.0,1439.0,1567.0,0.0,0.0,0.0,0.0,0.0,0.0,0.0,0.0,0.0,0.0
154700133,8,1539.0,1481.0,1507.0,1513.0,1485.0,1535.0,0.0,0.0,0.0,0.0,0.0,0.0,0.0,0.0,0.0,0.0
154792328,8,1538.0,1477.0,1505.0,1510.0,1490.0,1526.0,0.0,0.0,0.0,0.0,0.0,0.0,0.0,0.0,0.0,0.0
154900332,8,1551.0,1456.0,1549.0,1457.0,1542.0,1464.0,0.0,0.0,0.0,0.0,0.0,0.0,0.0,0.0,0.0,0.0
155012250,8,1448.0,1552.0,1523.0,1477.0,1442.0,1558.0,0.0,0.0,0.0,0.0,0.0,0.0,0.0,0.0,0.0,0.0
155096133,8,1475.0,1537.0,1555.0,1457.0,1500.0,1512.0,0.0,0.0,0.0,0.0,0.0,0.0,0.0,0.0,0.0,0.0
155211361,8,1427.0,1585.0,1599.0,1414.0,1489.0,1523.0,0.0,0.0,0.0,0.0,0.0,0.0,0.0,0.0,0.0,0.0
155299510,8,1553.0,1463.0,1544.0,1473.0,1554.0,1463.0,0.0,0.0,0.0,0.0,0.0,0.0,0.0,0.0,0.0,0.0
155411363,8,1464.0,1563.0,1557.0,1470.0,1506.0,1521.0,0.0,0.0,0.0,0.0,0.0,0.0,0.0,0.0,0.0,0.0
155523747,8,1534.0,1492.0,1543.0,1483.0,1548.0,1477.0,0.0,0.0,0.0,0.0,0.0,0.0,0.0,0.0,0.0,0.0
155607356,8,1532.0,1478.0,1574.0,1437.0,1577.0,1434.0,0.0,0.0,0.0,0.0,0.0,0.0,0.0,0.0,0.0,0.0
155719523,8,1533.0,1477.0,1525.0,1484.0,1538.0,1472.0,0.0,0.0,0.0,0.0,0.0,0.0,0.0,0.0,0.0,0.0
155826551,8,1504.0,1510.0,1453.0,1561.0,1454.0,1560.0,0.0,0.0,0.0,0.0,0.0,0.0,0.0,0.0,0.0,0.0
155914750,8,1639.0,1399.0,1540.0,1498.0,1650.0,1388.0,0.0,0.0,0.0,0.0,0.0,0.0,0.0,0.0,0.0,0.0
156026989,8,1527.0,1523.0,1538.0,1513.0,1538.0,1512.0,0.0,0.0,0.0,0.0,0.0,0.0,0.0,0.0,0.0,0.0
156110545,8,1443.0,1603.0,1500.0,1545.0,1448.0,1597.0,0.0,0.0,0.0,0.0,0.0,0.0,0.0,0.0,0.0,0.0
156218586,8,1414.0,1618.0,1542.0,1490.0,1471.0,1562.0,0.0,0.0,0.0,0.0,0.0,0.0,0.0,0.0,0.0,0.0
156330672,8,1475.0,1548.0,1601.0,1422.0,1583.0,1440.0,0.0,0.0,0.0,0.0,0.0,0.0,0.0,0.0,0.0,0.0
156422960,8,1639.0,1391.0,1514.0,1516.0,1655.0,1375.0,0.0,0.0,0.0,0.0,0.0,0.0,0.0,0.0,0.0,0.0
156534623,8,1618.0,1442.0,1497.0,1563.0,1612.0,1447.0,0.0,0.0,0.0,0.0,0.0,0.0,0.0,0.0,0.0,0.0
157149767,8,1609.0,1425.0,1434.0,1600.0,1500.0,1534.0,0.0,0.0,0.0,0.0,0.0,0.0,0.0,0.0,0.0,0.0
157241747,8,1499.0,1558.0,1548.0,1509.0,1493.0,1564.0,0.0,0.0,0.0,0.0,0.0,0.0,0.0,0.0,0.0,0.0
157348986,8,1482.0,1588.0,1500.0,1570.0,1423.0,1647.0,0.0,0.0,0.0,0.0,0.0,0.0,0.0,0.0,0.0,0.0
157441233,8,1580.0,1475.0,1537.0,1518.0,1550.0,1505.0,0.0,0.0,0.0,0.0,0.0,0.0,0.0,0.0,0.0,0.0
157552965,8,1460.0,1571.0,1535.0,1496.0,1454.0,1577.0,0.0,0.0,0.0,0.0,0.0,0.0,0.0,0.0,0.0,0.0
157656947,8,1517.0,1494.0,1514.0,1497.0,1495.0,1516.0,0.0,0.0,0.0,0.0,0.0,0.0,0.0,0.0,0.0,0.0
157749132,8,1454.0,1560.0,1544.0,1471.0,1465.0,1549.0,0.0,0.0,0.0,0.0,0.0,0.0,0.0,0.0,0.0,0.0
157857161,8,1506.0,1539.0,1606.0,1439.0,1566.0,1479.0,0.0,0.0,0.0,0.0,0.0,0.0,0.0,0.0,0.0,0.0
157948950,8,1472.0,1615.0,1593.0,1495.0,1496.0,1591.0,0.0,0.0,0.0,0.0,0.0,0.0,0.0,0.0,0.0,0.0
158060252,8,1607.0,1478.0,1580.0,1505.0,1606.0,1479.0,0.0,0.0,0.0,0.0,0.0,0.0,0.0,0.0,0.0,0.0
158148585,8,1530.0,1525.0,1545.0,1510.0,1510.0,1544.0,0.0,0.0,0.0,0.0,0.0,0.0,0.0,0.0,0.0,0.0
158260117,8,1444.0,1568.0,1563.0,1449.0,1473.0,1539.0,0.0,0.0,0.0,0.0,0.0,0.0,0.0,0.0,0.0,0.0
158368159,8,1463.0,1555.0,1521.0,1498.0,1450.0,1568.0,0.0,0.0,0.0,0.0,0.0,0.0,0.0,0.0,0.0,0.0
158456181,8,1545.0,1488.0,1493.0,1540.0,1498.0,1536.0,0.0,0.0,0.0,0.0,0.0,0.0,0.0,0.0,0.0,0.0
158568134,8,1556.0,1475.0,1458.0,1573.0,1474.0,1556.0,0.0,0.0,0.0,0.0,0.0,0.0,0.0,0.0,0.0,0.0
158676304,8,1517.0,1513.0,1466.0,1564.0,1452.0,1578.0,0.0,0.0,0.0,0.0,0.0,0.0,0.0,0.0,0.0,0.0
158768166,8,1559.0,1474.0,1420.0,1613.0,1460.0,1573.0,0.0,0.0,0.0,0.0,0.0,0.0,0.0,0.0,0.0,0.0
158875540,8,1591.0,1453.0,1430.0,1614.0,1507.0,1538.0,0.0,0.0,0.0,0.0,0.0,0.0,0.0,0.0,0.0,0.0
158967380,8,1579.0,1458.0,1535.0,1503.0,1614.0,1423.0,0.0,0.0,0.0,0.0,0.0,0.0,0.0,0.0,0.0,0.0
159079485,8,1507.0,1529.0,1534.0,1502.0,1529.0,1507.0,0.0,0.0,0.0,0.0,0.0,0.0,0.0,0.0,0.0,0.0
159163469,8,1566.0,1469.0,1495.0,1540.0,1544.0,1491.0,0.0,0.0,0.0,0.0,0.0,0.0,0.0,0.0,0.0,0.0
159271560,8,1462.0,1575.0,1562.0,1475.0,1494.0,1543.0,0.0,0.0,0.0,0.0,0.0,0.0,0.0,0.0,0.0,0.0
159383343,8,1483.0,1545.0,1498.0,1530.0,1455.0,1573.0,0.0,0.0,0.0,0.0,0.0,0.0,0.0,0.0,0.0,0.0
159475352,8,1504.0,1529.0,1580.0,1453.0,1543.0,1490.0,0.0,0.0,0.0,0.0,0.0,0.0,0.0,0.0,0.0,0.0
159590560,8,1492.0,1552.0,1537.0,1507.0,1481.0,1563.0,0.0,0.0,0.0,0.0,0.0,0.0,0.0,0.0,0.0,0.0
159678558,8,1625.0,1422.0,1425.0,1622.0,1501.0,1546.0,0.0,0.0,0.0,0.0,0.0,0.0,0.0,0.0,0.0,0.0
