timestamp,timestamp_last_signal,channel_count,rssi,rc_lost_frame_count,rc_total_frame_count,rc_ppm_frame_length,values[0],values[1],values[2],values[3],values[4],values[5],values[6],values[7],values[8],values[9],values[10],values[11],values[12],values[13],values[14],values[15],values[16],values[17],rc_failsafe,rc_lost,input_source
93445516,93445516,12,45,0,0,30004,1500,1508,1508,1505,1505,1257,1105,1106,1505,1105,1505,1257,0,0,0,0,0,0,0,0,2
93645394,93645394,12,45,0,0,30003,1500,1508,1508,1505,1505,1257,1105,1105,1505,1105,1506,1257,0,0,0,0,0,0,0,0,2
93840810,93840810,12,45,0,0,30003,1499,1508,1508,1504,1506,1257,1105,1105,1505,1105,1505,1258,0,0,0,0,0,0,0,0,2
94040588,94040588,12,45,0,0,30004,1499,1509,1508,1504,1505,1257,1105,1105,1506,1105,1505,1257,0,0,0,0,0,0,0,0,2
94244566,94244566,12,45,0,0,30004,1500,1508,1509,1504,1505,1257,1105,1105,1505,1106,1505,1257,0,0,0,0,0,0,0,0,2
94455558,94455558,12,45,0,0,30003,1500,1508,1508,1506,1505,1257,1105,1105,1505,1105,1506,1257,0,0,0,0,0,0,0,0,2
94659583,94659583,12,45,0,0,30003,1500,1508,1508,1504,1505,1258,1105,1105,1505,1105,1505,1257,0,0,0,0,0,0,0,0,2
94859562,94859562,12,45,0,0,30003,1500,1508,1508,1505,1505,1257,1106,1105,1505,1105,1505,1257,0,0,0,0,0,0,0,0,2
95063958,95063958,12,45,0,0,30003,1499,1509,1508,1505,1505,1257,1105,1105,1506,1105,1505,1257,0,0,0,0,0,0,0,0,2
95258768,95258768,12,45,0,0,30003,1500,1508,1508,1504,1506,1257,1105,1105,1505,1105,1505,1258,0,0,0,0,0,0,0,0,2
95462762,95462762,12,45,0,0,30003,1500,1508,1508,1504,1505,1258,1105,1105,1505,1105,1505,1257,0,0,0,0,0,0,0,0,2
95658807,95658807,12,45,0,0,30003,1500,1508,1509,1505,1505,1257,1105,1105,1506,1105,1505,1257,0,0,0,0,0,0,0,0,2
95862757,95862757,12,45,0,0,30003,1500,1508,1508,1505,1505,1257,1105,1105,1505,1105,1506,1257,0,0,0,0,0,0,0,0,2
96065936,96065936,12,45,0,0,30003,1500,1508,1508,1505,1506,1257,1105,1105,1505,1105,1505,1258,0,0,0,0,0,0,0,0,2
96265944,96265944,12,45,0,0,30003,1500,1508,1508,1504,1505,1258,1105,1105,1505,1105,1505,1257,0,0,0,0,0,0,0,0,2
96469973,96469973,12,45,0,0,30004,1500,1508,1509,1504,1505,1257,1105,1105,1505,1106,1505,1257,0,0,0,0,0,0,0,0,2
96679137,96679137,12,45,0,0,30003,1500,1508,1508,1505,1506,1257,1105,1105,1505,1105,1505,1258,0,0,0,0,0,0,0,0,2
96877182,96877182,12,45,0,0,30004,1500,1508,1508,1505,1505,1257,1106,1105,1505,1105,1505,1257,0,0,0,0,0,0,0,0,2
97073616,97073616,12,45,0,0,30003,1500,1508,1508,1505,1505,1257,1105,1105,1505,1105,1506,1257,0,0,0,0,0,0,0,0,2
97297347,97297347,12,45,0,0,30003,1500,1508,1508,1505,1505,1257,1105,1105,1505,1105,1506,1257,0,0,0,0,0,0,0,0,2
97495575,97495575,12,45,0,0,30003,1500,1508,1508,1504,1505,1258,1105,1105,1505,1105,1505,1257,0,0,0,0,0,0,0,0,2
97688554,97688554,12,45,0,0,30003,1500,1508,1509,1505,1505,1257,1105,1105,1505,1106,1505,1257,0,0,0,0,0,0,0,0,2
97888366,97888366,12,45,0,0,30003,1500,1508,1508,1504,1506,1257,1105,1105,1505,1105,1505,1258,0,0,0,0,0,0,0,0,2
98092375,98092375,12,45,0,0,30003,1499,1509,1508,1504,1505,1257,1105,1105,1506,1105,1505,1257,0,0,0,0,0,0,0,0,2
98287575,98287575,12,45,0,0,30003,1500,1508,1508,1506,1505,1257,1105,1105,1505,1105,1506,1257,0,0,0,0,0,0,0,0,2
98495571,98495571,12,45,0,0,30003,1500,1508,1508,1505,1506,1257,1105,1105,1505,1105,1505,1257,0,0,0,0,0,0,0,0,2
98703543,98703543,12,45,0,0,30003,1500,1508,1508,1505,1505,1257,1106,1105,1505,1105,1505,1257,0,0,0,0,0,0,0,0,2
98903532,98903532,12,45,0,0,30003,1500,1508,1508,1506,1505,1257,1105,1105,1505,1105,1506,1257,0,0,0,0,0,0,0,0,2
99114751,99114751,12,45,0,0,30003,1500,1508,1508,1505,1505,1257,1105,1105,1505,1105,1506,1257,0,0,0,0,0,0,0,0,2
99298747,99298747,12,45,0,0,30003,1500,1507,1508,1505,1505,1257,1105,1106,1505,1105,1505,1257,0,0,0,0,0,0,0,0,2
99514878,99514878,12,45,0,0,30004,1500,1508,1509,1504,1505,1257,1105,1105,1505,1106,1505,1257,0,0,0,0,0,0,0,0,2
99714770,99714770,12,45,0,0,30003,1500,1508,1508,1505,1505,1257,1105,1105,1505,1105,1506,1257,0,0,0,0,0,0,0,0,2
99909969,99909969,12,45,0,0,30003,1500,1509,1508,1505,1505,1257,1105,1106,1505,1105,1505,1257,0,0,0,0,0,0,0,0,2
100121934,100121934,12,45,0,0,30004,1500,1508,1509,1505,1505,1257,1105,1105,1505,1106,1505,1257,0,0,0,0,0,0,0,0,2
100329939,100329939,12,45,0,0,30003,1500,1508,1508,1505,1505,1257,1105,1105,1505,1105,1505,1258,0,0,0,0,0,0,0,0,2
100534157,100534157,12,45,0,0,30003,1500,1508,1508,1504,1505,1258,1105,1105,1505,1105,1505,1257,0,0,0,0,0,0,0,0,2
100737361,100737361,12,45,0,0,30003,1500,1508,1508,1504,1505,1257,1105,1106,1505,1105,1505,1257,0,0,0,0,0,0,0,0,2
100941352,100941352,12,45,0,0,30003,1500,1508,1508,1505,1505,1257,1105,1105,1505,1105,1506,1257,0,0,0,0,0,0,0,0,2
101145342,101145342,12,45,0,0,30003,1500,1508,1508,1504,1505,1258,1105,1105,1505,1105,1505,1257,0,0,0,0,0,0,0,0,2
101348585,101348585,12,45,0,0,30003,1500,1508,1508,1504,1505,1257,1105,1106,1505,1105,1505,1257,0,0,0,0,0,0,0,0,2
101544343,101544343,12,45,0,0,30004,1500,1508,1509,1504,1505,1257,1105,1105,1505,1106,1505,1257,0,0,0,0,0,0,0,0,2
101744346,101744346,12,45,0,0,30003,1500,1508,1508,1504,1505,1258,1105,1105,1505,1105,1505,1257,0,0,0,0,0,0,0,0,2
101944367,101944367,12,45,0,0,30003,1475,1508,1508,1479,1505,1257,1105,1106,1505,1105,1505,1257,0,0,0,0,0,0,0,0,2
102158786,102158786,12,45,0,0,30004,1345,1509,1508,1374,1505,1257,1105,1105,1506,1105,1505,1257,0,0,0,0,0,0,0,0,2
102355539,102355539,12,45,0,0,30003,1263,1508,1508,1290,1505,1257,1105,1105,1505,1105,1506,1257,0,0,0,0,0,0,0,0,2
102555610,102555610,12,45,0,0,30003,1231,1508,1508,1241,1505,1238,1106,1105,1505,1105,1505,1257,0,0,0,0,0,0,0,0,2
102755829,102755829,12,45,0,0,30004,1097,1509,1508,1105,1505,1105,1105,1105,1506,1105,1505,1257,0,0,0,0,0,0,0,0,2
102962759,102962759,12,45,0,0,30004,1098,1508,1508,1106,1505,1105,1105,1105,1505,1105,1506,1257,0,0,0,0,0,0,0,0,2
103162733,103162733,12,45,0,0,30003,1098,1508,1508,1105,1505,1105,1106,1105,1505,1105,1505,1257,0,0,0,0,0,0,0,0,2
103367124,103367124,12,45,0,0,30003,1097,1509,1508,1105,1505,1105,1105,1105,1506,1105,1505,1257,0,0,0,0,0,0,0,0,2
103570948,103570948,12,45,0,0,30004,1098,1508,1509,1105,1505,1105,1105,1105,1505,1106,1505,1257,0,0,0,0,0,0,0,0,2
103774157,103774157,12,45,0,0,30003,1098,1508,1508,1106,1505,1105,1105,1105,1505,1105,1505,1258,0,0,0,0,0,0,0,0,2
103978319,103978319,12,45,0,0,30003,1098,1508,1508,1105,1505,1106,1105,1105,1505,1105,1505,1257,0,0,0,0,0,0,0,0,2
104170184,104170184,12,45,0,0,30003,1097,1509,1508,1105,1505,1105,1105,1105,1506,1105,1505,1257,0,0,0,0,0,0,0,0,2
104373517,104373517,12,45,0,0,30004,1098,1508,1509,1105,1505,1105,1105,1105,1505,1105,1506,1257,0,0,0,0,0,0,0,0,2
104585140,104585140,12,45,0,0,30003,1098,1508,1508,1105,1506,1105,1105,1105,1505,1105,1505,1258,0,0,0,0,0,0,0,0,2
104777204,104777204,12,45,0,0,30003,1098,1508,1508,1105,1505,1105,1105,1106,1505,1105,1505,1257,0,0,0,0,0,0,0,0,2
104981151,104981151,12,45,0,0,30004,1098,1509,1508,1105,1505,1105,1105,1105,1505,1106,1505,1257,0,0,0,0,0,0,0,0,2
105180488,105180488,12,45,0,0,30003,1098,1508,1508,1106,1505,1105,1105,1105,1505,1105,1505,1258,0,0,0,0,0,0,0,0,2
105380738,105380738,12,45,0,0,30004,1098,1508,1508,1105,1505,1105,1105,1106,1505,1105,1505,1257,0,0,0,0,0,0,0,0,2
105604480,105604480,12,45,0,0,30003,1098,1508,1508,1105,1505,1105,1105,1105,1506,1105,1505,1257,0,0,0,0,0,0,0,0,2
105800589,105800589,12,45,0,0,30003,1098,1508,1508,1105,1506,1105,1105,1105,1505,1105,1505,1258,0,0,0,0,0,0,0,0,2
106003736,106003736,12,45,0,0,30003,1098,1508,1508,1105,1505,1105,1106,1105,1505,1105,1505,1257,0,0,0,0,0,0,0,0,2
106206319,106206319,12,45,0,0,30004,1097,1509,1508,1120,1505,1110,1105,1105,1506,1105,1505,1257,0,0,0,0,0,0,0,0,2
106407744,106407744,12,45,0,0,30004,1500,1508,1509,1505,1505,1257,1105,1105,1505,1105,1506,1257,0,0,0,0,0,0,0,0,2
107625942,107625942,12,45,0,0,30003,1563,1508,1508,1503,1505,1257,1105,1105,1505,1105,1506,1257,0,0,0,0,0,0,0,0,2
107822315,107822315,12,45,0,0,30003,1552,1508,1508,1504,1505,1258,1105,1105,1505,1105,1505,1257,0,0,0,0,0,0,0,0,2
108034158,108034158,12,45,0,0,30004,1500,1508,1508,1504,1505,1257,1105,1106,1505,1105,1505,1257,0,0,0,0,0,0,0,0,2
108233131,108233131,12,45,0,0,30003,1619,1508,1508,1505,1505,1257,1105,1105,1505,1105,1506,1257,0,0,0,0,0,0,0,0,2
108413337,108413337,12,45,0,0,30003,1500,1508,1508,1505,1505,1257,1105,1106,1505,1105,1505,1257,0,0,0,0,0,0,0,0,2
108633182,108633182,12,45,0,0,30004,1303,1508,1508,1504,1505,1257,1105,1106,1505,1105,1505,1257,0,0,0,0,0,0,0,0,2
108829530,108829530,12,45,0,0,30003,1498,1508,1508,1506,1505,1257,1105,1105,1505,1105,1506,1257,0,0,0,0,0,0,0,0,2
109024372,109024372,12,45,0,0,30003,1499,1508,1508,1504,1505,1258,1105,1105,1505,1105,1505,1257,0,0,0,0,0,0,0,0,2
109244622,109244622,12,45,0,0,30004,1499,1508,1508,1504,1505,1257,1106,1105,1505,1105,1505,1257,0,0,0,0,0,0,0,0,2
109440716,109440716,12,45,0,0,30004,1434,1509,1508,1504,1505,1257,1105,1105,1506,1105,1505,1257,0,0,0,0,0,0,0,0,2
109644392,109644392,12,45,0,0,30003,1306,1508,1508,1503,1506,1257,1105,1105,1505,1105,1506,1257,0,0,0,0,0,0,0,0,2
109847715,109847715,12,45,0,0,30004,1400,1508,1508,1504,1505,1257,1106,1105,1505,1105,1505,1257,0,0,0,0,0,0,0,0,2
110055533,110055533,12,45,0,0,30003,1496,1509,1508,1504,1505,1257,1105,1105,1506,1105,1505,1257,0,0,0,0,0,0,0,0,2
110255593,110255593,12,45,0,0,30004,1498,1508,1509,1504,1505,1257,1105,1105,1505,1106,1505,1257,0,0,0,0,0,0,0,0,2
110458760,110458760,12,45,0,0,30003,1498,1508,1508,1504,1506,1257,1105,1105,1505,1105,1505,1258,0,0,0,0,0,0,0,0,2
110658782,110658782,12,45,0,0,30003,1523,1508,1508,1503,1505,1257,1105,1106,1505,1105,1505,1257,0,0,0,0,0,0,0,0,2
110854747,110854747,12,45,0,0,30004,1557,1508,1509,1504,1505,1257,1105,1105,1505,1106,1505,1257,0,0,0,0,0,0,0,0,2
111062787,111062787,12,45,0,0,30003,1572,1508,1508,1505,1505,1257,1105,1105,1505,1105,1506,1257,0,0,0,0,0,0,0,0,2
111262828,111262828,12,45,0,0,30003,1581,1508,1508,1504,1505,1257,1106,1105,1505,1105,1505,1257,0,0,0,0,0,0,0,0,2
111461930,111461930,12,45,0,0,30003,1555,1509,1508,1504,1505,1257,1105,1105,1506,1105,1505,1257,0,0,0,0,0,0,0,0,2
111677933,111677933,12,45,0,0,30004,1533,1508,1510,1504,1505,1257,1105,1105,1505,1106,1505,1257,0,0,0,0,0,0,0,0,2
111877964,111877964,12,45,0,0,30003,1501,1508,1508,1504,1506,1257,1105,1105,1505,1105,1505,1258,0,0,0,0,0,0,0,0,2
112081344,112081344,12,45,0,0,30003,1566,1508,1508,1504,1505,1258,1105,1105,1505,1105,1505,1257,0,0,0,0,0,0,0,0,2
112285367,112285367,12,45,0,0,30003,1585,1508,1508,1504,1505,1257,1106,1105,1505,1105,1505,1257,0,0,0,0,0,0,0,0,2
112489294,112489294,12,45,0,0,30003,1598,1508,1508,1505,1505,1257,1105,1105,1505,1105,1506,1257,0,0,0,0,0,0,0,0,2
112689281,112689281,12,45,0,0,30003,1591,1508,1508,1504,1505,1258,1105,1105,1505,1105,1505,1257,0,0,0,0,0,0,0,0,2
112884590,112884590,12,45,0,0,30003,1606,1508,1509,1504,1505,1257,1105,1105,1505,1105,1505,1257,0,0,0,0,0,0,0,0,2
113088364,113088364,12,45,0,0,30003,1617,1508,1508,1504,1506,1257,1105,1105,1505,1105,1505,1258,0,0,0,0,0,0,0,0,2
113296417,113296417,12,45,0,0,30003,1605,1508,1508,1504,1505,1257,1106,1105,1505,1105,1505,1257,0,0,0,0,0,0,0,0,2
113496561,113496561,12,45,0,0,30004,1590,1508,1509,1504,1505,1257,1105,1105,1506,1105,1505,1257,0,0,0,0,0,0,0,0,2
113703549,113703549,12,45,0,0,30003,1576,1508,1508,1505,1505,1257,1105,1105,1505,1105,1506,1257,0,0,0,0,0,0,0,0,2
113899539,113899539,12,45,0,0,30003,1588,1508,1508,1504,1505,1257,1105,1106,1505,1105,1505,1257,0,0,0,0,0,0,0,0,2
114103588,114103588,12,45,0,0,30004,1604,1509,1509,1504,1505,1257,1105,1105,1505,1106,1505,1257,0,0,0,0,0,0,0,0,2
114299561,114299561,12,45,0,0,30003,1587,1508,1508,1504,1506,1257,1105,1105,1505,1105,1505,1258,0,0,0,0,0,0,0,0,2
114498766,114498766,12,45,0,0,30003,1499,1509,1508,1504,1505,1257,1105,1105,1506,1105,1505,1257,0,0,0,0,0,0,0,0,2
114719112,114719112,12,45,0,0,30003,1500,1509,1508,1504,1505,1257,1105,1105,1506,1105,1505,1257,0,0,0,0,0,0,0,0,2
114899130,114899130,12,45,0,0,30003,1500,1508,1508,1505,1506,1257,1105,1105,1505,1105,1505,1257,0,0,0,0,0,0,0,0,2
115117968,115117968,12,45,0,0,30003,1500,1508,1508,1504,1505,1257,1106,1105,1505,1105,1505,1257,0,0,0,0,0,0,0,0,2
115317968,115317968,12,45,0,0,30004,1500,1509,1508,1504,1505,1257,1105,1105,1506,1105,1505,1257,0,0,0,0,0,0,0,0,2
115517967,115517967,12,45,0,0,30003,1500,1508,1508,1504,1505,1258,1105,1105,1505,1105,1505,1257,0,0,0,0,0,0,0,0,2
115718009,115718009,12,45,0,0,30003,1501,1508,1508,1504,1505,1257,1105,1106,1505,1105,1505,1257,0,0,0,0,0,0,0,0,2
115917356,115917356,12,45,0,0,30004,1500,1508,1509,1504,1505,1257,1105,1105,1506,1105,1505,1257,0,0,0,0,0,0,0,0,2
116129162,116129162,12,45,0,0,30003,1500,1508,1508,1505,1505,1257,1105,1105,1505,1105,1506,1257,0,0,0,0,0,0,0,0,2
116333142,116333142,12,45,0,0,30004,1500,1508,1508,1504,1505,1257,1105,1106,1505,1105,1505,1257,0,0,0,0,0,0,0,0,2
116524547,116524547,12,45,0,0,30004,1500,1508,1509,1504,1505,1257,1105,1105,1506,1105,1505,1257,0,0,0,0,0,0,0,0,2
116748554,116748554,12,45,0,0,30003,1500,1508,1508,1505,1505,1257,1105,1105,1505,1105,1506,1257,0,0,0,0,0,0,0,0,2
116944514,116944514,12,45,0,0,30003,1500,1508,1508,1505,1505,1258,1105,1105,1505,1105,1505,1257,0,0,0,0,0,0,0,0,2
117144402,117144402,12,45,0,0,30004,1500,1510,1508,1504,1505,1257,1105,1105,1506,1105,1505,1257,0,0,0,0,0,0,0,0,2
117348336,117348336,12,45,0,0,30003,1500,1508,1508,1505,1505,1257,1105,1105,1505,1105,1506,1257,0,0,0,0,0,0,0,0,2
117547747,117547747,12,45,0,0,30003,1500,1508,1508,1504,1506,1257,1105,1105,1505,1105,1505,1257,0,0,0,0,0,0,0,0,2
117747747,117747747,12,45,0,0,30004,1500,1508,1508,1504,1505,1257,1106,1105,1505,1105,1505,1257,0,0,0,0,0,0,0,0,2
117967558,117967558,12,45,0,0,30003,1499,1509,1508,1504,1505,1257,1105,1105,1506,1105,1505,1257,0,0,0,0,0,0,0,0,2
118154926,118154926,12,45,0,0,30003,1500,1508,1508,1504,1506,1257,1105,1105,1505,1105,1505,1258,0,0,0,0,0,0,0,0,2
118370943,118370943,12,45,0,0,30003,1500,1508,1508,1504,1505,1258,1105,1105,1505,1105,1505,1257,0,0,0,0,0,0,0,0,2
118563150,118563150,12,45,0,0,30004,1499,1509,1508,1504,1505,1257,1105,1106,1505,1105,1505,1257,0,0,0,0,0,0,0,0,2
118762856,118762856,12,45,0,0,30003,1500,1508,1508,1505,1505,1257,1105,1105,1505,1105,1506,1257,0,0,0,0,0,0,0,0,2
118962004,118962004,12,45,0,0,30003,1500,1508,1508,1504,1505,1258,1105,1105,1505,1105,1505,1257,0,0,0,0,0,0,0,0,2
119185962,119185962,12,45,0,0,30003,1500,1508,1508,1504,1506,1257,1105,1105,1505,1105,1505,1257,0,0,0,0,0,0,0,0,2
119381968,119381968,12,45,0,0,30004,1500,1509,1508,1504,1505,1257,1105,1105,1506,1105,1505,1257,0,0,0,0,0,0,0,0,2
119585349,119585349,12,45,0,0,30004,1500,1508,1509,1504,1505,1257,1105,1105,1505,1106,1505,1257,0,0,0,0,0,0,0,0,2
119777196,119777196,12,45,0,0,30003,1500,1508,1508,1504,1505,1258,1105,1105,1505,1105,1505,1257,0,0,0,0,0,0,0,0,2
119985360,119985360,12,45,0,0,30003,1500,1509,1508,1504,1505,1257,1105,1105,1506,1105,1505,1257,0,0,0,0,0,0,0,0,2
120181515,120181515,12,45,0,0,30003,1500,1508,1508,1505,1505,1257,1105,1105,1505,1105,1506,1257,0,0,0,0,0,0,0,0,2
120384538,120384538,12,45,0,0,30004,1500,1508,1508,1504,1505,1257,1105,1106,1505,1105,1505,1257,0,0,0,0,0,0,0,0,2
120600567,120600567,12,45,0,0,30003,1499,1509,1508,1504,1505,1257,1105,1106,1505,1105,1505,1257,0,0,0,0,0,0,0,0,2
120796332,120796332,12,45,0,0,30003,1500,1508,1508,1504,1506,1257,1105,1105,1505,1105,1505,1258,0,0,0,0,0,0,0,0,2
120991559,120991559,12,45,0,0,30003,1500,1508,1508,1504,1505,1257,1106,1105,1505,1105,1505,1257,0,0,0,0,0,0,0,0,2
121191748,121191748,12,45,0,0,30003,1500,1508,1508,1505,1505,1257,1105,1105,1505,1105,1506,1257,0,0,0,0,0,0,0,0,2
121411610,121411610,12,45,0,0,30003,1500,1509,1508,1505,1505,1257,1105,1105,1505,1105,1506,1257,0,0,0,0,0,0,0,0,2
121611727,121611727,12,45,0,0,30004,1500,1508,1508,1504,1505,1257,1105,1106,1505,1105,1505,1257,0,0,0,0,0,0,0,0,2
121818748,121818748,12,45,0,0,30004,1500,1508,1509,1504,1505,1257,1105,1105,1505,1106,1505,1257,0,0,0,0,0,0,0,0,2
122015165,122015165,12,45,0,0,30003,1500,1508,1508,1504,1506,1257,1105,1105,1505,1105,1505,1258,0,0,0,0,0,0,0,0,2
122206760,122206760,12,45,0,0,30004,1500,1509,1508,1504,1505,1257,1105,1105,1506,1105,1505,1257,0,0,0,0,0,0,0,0,2
122402757,122402757,12,45,0,0,30003,1500,1508,1508,1505,1505,1257,1105,1105,1505,1105,1506,1257,0,0,0,0,0,0,0,0,2
122627117,122627117,12,45,0,0,30003,1500,1509,1508,1504,1505,1258,1105,1105,1505,1105,1505,1257,0,0,0,0,0,0,0,0,2
122821970,122821970,12,45,0,0,30004,1500,1508,1508,1504,1505,1257,1105,1106,1505,1105,1505,1257,0,0,0,0,0,0,0,0,2
123029958,123029958,12,45,0,0,30004,1500,1509,1509,1504,1505,1257,1105,1105,1505,1106,1505,1257,0,0,0,0,0,0,0,0,2
123225960,123225960,12,45,0,0,30003,1500,1509,1509,1504,1505,1258,1105,1105,1505,1105,1505,1257,0,0,0,0,0,0,0,0,2
123421192,123421192,12,45,0,0,30003,1500,1509,1529,1504,1505,1257,1105,1106,1505,1105,1505,1257,0,0,0,0,0,0,0,0,2
123621181,123621181,12,45,0,0,30003,1500,1509,1558,1506,1505,1257,1105,1105,1505,1105,1505,1258,0,0,0,0,0,0,0,0,2
123841216,123841216,12,45,0,0,30003,1500,1509,1567,1504,1506,1257,1105,1105,1505,1105,1505,1258,0,0,0,0,0,0,0,0,2
124043631,124043631,12,45,0,0,30004,1499,1509,1550,1504,1505,1257,1105,1106,1505,1105,1505,1257,0,0,0,0,0,0,0,0,2
124244696,124244696,12,45,0,0,30004,1500,1508,1510,1505,1505,1257,1105,1105,1505,1106,1505,1257,0,0,0,0,0,0,0,0,2
124428355,124428355,12,45,0,0,30003,1500,1508,1508,1504,1505,1258,1105,1105,1505,1105,1505,1257,0,0,0,0,0,0,0,0,2
124652394,124652394,12,45,0,0,30003,1500,1509,1494,1504,1505,1258,1105,1105,1505,1105,1505,1257,0,0,0,0,0,0,0,0,2
124843693,124843693,12,45,0,0,30004,1500,1509,1460,1504,1505,1257,1105,1105,1505,1106,1505,1257,0,0,0,0,0,0,0,0,2
125047533,125047533,12,45,0,0,30003,1500,1509,1434,1504,1506,1257,1105,1105,1505,1105,1505,1258,0,0,0,0,0,0,0,0,2
125247776,125247776,12,45,0,0,30003,1500,1509,1436,1504,1505,1258,1105,1105,1505,1105,1505,1257,0,0,0,0,0,0,0,0,2
125447747,125447747,12,45,0,0,30003,1500,1509,1442,1504,1505,1257,1105,1105,1505,1106,1505,1257,0,0,0,0,0,0,0,0,2
125662769,125662769,12,45,0,0,30003,1500,1509,1441,1505,1505,1257,1105,1105,1505,1105,1505,1258,0,0,0,0,0,0,0,0,2
125859020,125859020,12,45,0,0,30003,1500,1509,1444,1504,1505,1258,1105,1105,1505,1105,1505,1257,0,0,0,0,0,0,0,0,2
126058791,126058791,12,45,0,0,30003,1500,1509,1433,1504,1505,1257,1105,1106,1505,1105,1505,1257,0,0,0,0,0,0,0,0,2
126260416,126260416,12,45,0,0,30003,1500,1509,1443,1505,1505,1257,1105,1105,1505,1105,1506,1257,0,0,0,0,0,0,0,0,2
126481950,126481950,12,45,0,0,30003,1500,1509,1418,1505,1505,1257,1105,1105,1505,1105,1506,1257,0,0,0,0,0,0,0,0,2
126670023,126670023,12,45,0,0,30003,1500,1509,1419,1504,1505,1257,1106,1105,1505,1105,1505,1257,0,0,0,0,0,0,0,0,2
126874187,126874187,12,45,0,0,30003,1499,1510,1451,1504,1505,1257,1105,1105,1506,1105,1505,1257,0,0,0,0,0,0,0,0,2
127073153,127073153,12,45,0,0,30003,1500,1509,1483,1504,1506,1257,1105,1105,1505,1105,1505,1258,0,0,0,0,0,0,0,0,2
127269273,127269273,12,45,0,0,30003,1500,1509,1505,1504,1505,1258,1105,1105,1505,1105,1505,1257,0,0,0,0,0,0,0,0,2
127489185,127489185,12,45,0,0,30003,1500,1508,1505,1504,1505,1257,1105,1106,1505,1105,1505,1257,0,0,0,0,0,0,0,0,2
127685138,127685138,12,45,0,0,30003,1500,1508,1506,1504,1505,1257,1105,1105,1505,1106,1505,1257,0,0,0,0,0,0,0,0,2
127884604,127884604,12,45,0,0,30004,1500,1515,1505,1504,1505,1257,1106,1105,1505,1105,1505,1257,0,0,0,0,0,0,0,0,2
128080491,128080491,12,45,0,0,30004,1500,1578,1505,1504,1505,1257,1105,1105,1506,1105,1505,1257,0,0,0,0,0,0,0,0,2
128284366,128284366,12,45,0,0,30003,1500,1578,1505,1505,1505,1257,1105,1105,1505,1105,1506,1257,0,0,0,0,0,0,0,0,2
128500564,128500564,12,45,0,0,30003,1500,1574,1505,1504,1505,1258,1105,1105,1505,1105,1505,1257,0,0,0,0,0,0,0,0,2
128703541,128703541,12,45,0,0,30004,1499,1587,1505,1504,1505,1257,1105,1105,1506,1105,1505,1257,0,0,0,0,0,0,0,0,2
128903574,128903574,12,45,0,0,30003,1500,1587,1505,1504,1506,1257,1105,1105,1505,1105,1505,1257,0,0,0,0,0,0,0,0,2
129095785,129095785,12,45,0,0,30003,1500,1553,1505,1504,1505,1257,1105,1106,1505,1105,1505,1257,0,0,0,0,0,0,0,0,2
129294743,129294743,12,45,0,0,30003,1500,1507,1505,1505,1505,1257,1105,1105,1505,1105,1506,1257,0,0,0,0,0,0,0,0,2
129510939,129510939,12,45,0,0,30003,1500,1430,1505,1504,1506,1257,1105,1105,1505,1105,1505,1258,0,0,0,0,0,0,0,0,2
129722951,129722951,12,45,0,0,30003,1500,1426,1505,1504,1505,1257,1106,1105,1505,1105,1505,1257,0,0,0,0,0,0,0,0,2
129926959,129926959,12,45,0,0,30003,1500,1432,1507,1504,1505,1257,1105,1105,1506,1105,1505,1257,0,0,0,0,0,0,0,0,2
130106194,130106194,12,45,0,0,30004,1500,1445,1527,1504,1505,1257,1106,1105,1505,1105,1505,1257,0,0,0,0,0,0,0,0,2
130325939,130325939,12,45,0,0,30003,1500,1432,1549,1504,1505,1257,1106,1105,1505,1105,1505,1257,0,0,0,0,0,0,0,0,2
130525974,130525974,12,45,0,0,30003,1500,1433,1569,1505,1505,1257,1105,1105,1505,1105,1506,1257,0,0,0,0,0,0,0,0,2
130718011,130718011,12,45,0,0,30003,1500,1458,1567,1504,1505,1258,1105,1105,1505,1105,1505,1257,0,0,0,0,0,0,0,0,2
130937185,130937185,12,45,0,0,30003,1500,1482,1557,1504,1505,1257,1105,1106,1505,1105,1505,1257,0,0,0,0,0,0,0,0,2
131133185,131133185,12,45,0,0,30004,1500,1501,1558,1504,1505,1257,1105,1105,1505,1106,1505,1257,0,0,0,0,0,0,0,0,2
131333422,131333422,12,45,0,0,30003,1500,1507,1548,1504,1505,1258,1105,1105,1505,1105,1505,1257,0,0,0,0,0,0,0,0,2
131536717,131536717,12,45,0,0,30003,1499,1509,1508,1503,1505,1257,1105,1106,1505,1105,1505,1257,0,0,0,0,0,0,0,0,2
131740589,131740589,12,45,0,0,30003,1500,1508,1509,1504,1505,1257,1105,1105,1505,1106,1505,1257,0,0,0,0,0,0,0,0,2
131936548,131936548,12,45,0,0,30003,1500,1508,1507,1504,1506,1257,1105,1105,1505,1105,1505,1258,0,0,0,0,0,0,0,0,2
132148715,132148715,12,45,0,0,30003,1500,1509,1504,1504,1505,1257,1106,1105,1505,1105,1505,1257,0,0,0,0,0,0,0,0,2
132347606,132347606,12,45,0,0,30004,1500,1517,1486,1504,1505,1257,1105,1105,1505,1106,1505,1257,0,0,0,0,0,0,0,0,2
132563594,132563594,12,45,0,0,30003,1500,1558,1503,1504,1506,1257,1105,1105,1505,1105,1505,1258,0,0,0,0,0,0,0,0,2
132755926,132755926,12,45,0,0,30003,1500,1511,1505,1504,1505,1257,1106,1105,1505,1105,1505,1257,0,0,0,0,0,0,0,0,2
132954946,132954946,12,45,0,0,30003,1500,1508,1507,1504,1505,1257,1105,1105,1505,1106,1505,1257,0,0,0,0,0,0,0,0,2
133158961,133158961,12,45,0,0,30003,1500,1508,1506,1504,1506,1257,1105,1105,1505,1105,1505,1258,0,0,0,0,0,0,0,0,2
133362773,133362773,12,45,0,0,30003,1501,1508,1506,1504,1505,1258,1105,1105,1505,1105,1505,1257,0,0,0,0,0,0,0,0,2
133562963,133562963,12,45,0,0,30003,1557,1508,1506,1505,1505,1257,1105,1106,1505,1105,1505,1257,0,0,0,0,0,0,0,0,2
133781950,133781950,12,45,0,0,30004,1610,1508,1507,1505,1505,1257,1105,1105,1505,1106,1505,1257,0,0,0,0,0,0,0,0,2
133966129,133966129,12,45,0,0,30003,1658,1508,1506,1505,1505,1258,1105,1105,1505,1105,1505,1257,0,0,0,0,0,0,0,0,2
134174151,134174151,12,45,0,0,30003,1581,1508,1506,1505,1505,1257,1105,1106,1505,1105,1505,1257,0,0,0,0,0,0,0,0,2
134374331,134374331,12,45,0,0,30004,1500,1508,1507,1505,1505,1257,1105,1105,1506,1105,1505,1257,0,0,0,0,0,0,0,0,2
134589525,134589525,12,45,0,0,30003,1474,1508,1506,1505,1505,1257,1105,1105,1505,1105,1506,1257,0,0,0,0,0,0,0,0,2
134785142,134785142,12,45,0,0,30003,1445,1508,1506,1504,1505,1257,1106,1105,1505,1105,1505,1257,0,0,0,0,0,0,0,0,2
134989164,134989164,12,45,0,0,30003,1444,1509,1506,1504,1505,1257,1105,1105,1506,1105,1505,1257,0,0,0,0,0,0,0,0,2
135188364,135188364,12,45,0,0,30003,1406,1508,1506,1505,1505,1257,1105,1105,1505,1105,1506,1257,0,0,0,0,0,0,0,0,2
135396362,135396362,12,45,0,0,30003,1441,1508,1506,1504,1505,1258,1105,1105,1505,1105,1505,1257,0,0,0,0,0,0,0,0,2
135596714,135596714,12,45,0,0,30004,1450,1509,1506,1504,1505,1257,1105,1105,1506,1105,1505,1257,0,0,0,0,0,0,0,0,2
135792558,135792558,12,45,0,0,30003,1386,1508,1506,1503,1506,1257,1105,1105,1505,1105,1505,1257,0,0,0,0,0,0,0,0,2
135999603,135999603,12,45,0,0,30004,1450,1508,1506,1504,1505,1257,1105,1106,1505,1105,1505,1257,0,0,0,0,0,0,0,0,2
136199547,136199547,12,45,0,0,30003,1435,1508,1507,1504,1505,1257,1105,1105,1505,1106,1505,1257,0,0,0,0,0,0,0,0,2
136403747,136403747,12,45,0,0,30003,1477,1508,1506,1504,1505,1258,1105,1105,1505,1105,1505,1257,0,0,0,0,0,0,0,0,2
136607589,136607589,12,45,0,0,30003,1498,1509,1506,1504,1505,1257,1105,1105,1506,1105,1505,1257,0,0,0,0,0,0,0,0,2
136810811,136810811,12,45,0,0,30003,1499,1508,1506,1568,1505,1257,1105,1105,1505,1105,1506,1257,0,0,0,0,0,0,0,0,2
137006936,137006936,12,45,0,0,30003,1499,1508,1506,1607,1505,1257,1105,1106,1505,1105,1505,1257,0,0,0,0,0,0,0,0,2
137206758,137206758,12,45,0,0,30003,1499,1508,1507,1613,1505,1257,1105,1105,1505,1106,1505,1257,0,0,0,0,0,0,0,0,2
137410786,137410786,12,45,0,0,30003,1499,1508,1506,1612,1506,1257,1105,1105,1505,1105,1505,1258,0,0,0,0,0,0,0,0,2
137626758,137626758,12,45,0,0,30003,1499,1508,1506,1612,1505,1257,1106,1105,1505,1105,1505,1257,0,0,0,0,0,0,0,0,2
137830130,137830130,12,45,0,0,30004,1499,1509,1506,1612,1505,1257,1105,1105,1506,1105,1505,1257,0,0,0,0,0,0,0,0,2
138017976,138017976,12,45,0,0,30003,1498,1508,1506,1622,1506,1257,1105,1105,1505,1105,1505,1257,0,0,0,0,0,0,0,0,2
138221181,138221181,12,45,0,0,30003,1499,1508,1506,1636,1505,1257,1106,1105,1505,1105,1505,1257,0,0,0,0,0,0,0,0,2
138441145,138441145,12,45,0,0,30004,1499,1508,1507,1644,1505,1257,1105,1105,1506,1105,1505,1257,0,0,0,0,0,0,0,0,2
138641145,138641145,12,45,0,0,30003,1498,1508,1506,1654,1505,1257,1105,1105,1505,1105,1506,1257,0,0,0,0,0,0,0,0,2
138821252,138821252,12,45,0,0,30004,1499,1508,1506,1659,1505,1257,1105,1106,1505,1105,1505,1257,0,0,0,0,0,0,0,0,2
139044646,139044646,12,45,0,0,30003,1499,1508,1507,1664,1505,1257,1105,1105,1505,1106,1505,1257,0,0,0,0,0,0,0,0,2
139248338,139248338,12,45,0,0,30003,1499,1508,1506,1664,1506,1257,1105,1105,1505,1105,1505,1258,0,0,0,0,0,0,0,0,2
139440724,139440724,12,45,0,0,30003,1499,1508,1507,1664,1505,1258,1105,1105,1505,1105,1505,1257,0,0,0,0,0,0,0,0,2
139652332,139652332,12,45,0,0,30004,1498,1509,1506,1664,1505,1257,1105,1105,1506,1105,1505,1257,0,0,0,0,0,0,0,0,2
139847537,139847537,12,45,0,0,30003,1499,1508,1506,1663,1506,1257,1105,1105,1505,1105,1505,1258,0,0,0,0,0,0,0,0,2
140051846,140051846,12,45,0,0,30003,1499,1508,1506,1663,1505,1257,1106,1105,1505,1105,1505,1257,0,0,0,0,0,0,0,0,2
140255715,140255715,12,45,0,0,30003,1498,1509,1506,1662,1505,1257,1105,1105,1506,1105,1505,1257,0,0,0,0,0,0,0,0,2
140439580,140439580,12,45,0,0,30003,1499,1508,1506,1662,1506,1257,1105,1105,1505,1105,1505,1258,0,0,0,0,0,0,0,0,2
140662950,140662950,12,45,0,0,30003,1499,1508,1506,1664,1505,1257,1106,1105,1505,1105,1505,1257,0,0,0,0,0,0,0,0,2
140859029,140859029,12,45,0,0,30004,1498,1509,1506,1663,1505,1257,1105,1105,1506,1105,1505,1257,0,0,0,0,0,0,0,0,2
141050755,141050755,12,45,0,0,30003,1499,1508,1506,1661,1506,1257,1105,1105,1505,1105,1505,1258,0,0,0,0,0,0,0,0,2
141266136,141266136,12,45,0,0,30003,1498,1508,1506,1662,1505,1258,1105,1105,1505,1105,1505,1257,0,0,0,0,0,0,0,0,2
141469992,141469992,12,45,0,0,30003,1498,1509,1506,1659,1505,1257,1105,1106,1505,1105,1505,1257,0,0,0,0,0,0,0,0,2
141666304,141666304,12,45,0,0,30003,1499,1508,1507,1657,1505,1257,1105,1105,1505,1106,1505,1257,0,0,0,0,0,0,0,0,2
141861403,141861403,12,45,0,0,30003,1499,1508,1506,1655,1505,1258,1105,1105,1505,1105,1505,1257,0,0,0,0,0,0,0,0,2
142077208,142077208,12,45,0,0,30003,1499,1508,1506,1652,1505,1257,1105,1106,1505,1105,1505,1257,0,0,0,0,0,0,0,0,2
142277586,142277586,12,45,0,0,30004,1498,1508,1507,1657,1505,1257,1105,1105,1506,1105,1505,1257,0,0,0,0,0,0,0,0,2
142477323,142477323,12,45,0,0,30003,1498,1508,1506,1658,1505,1257,1105,1105,1505,1105,1506,1257,0,0,0,0,0,0,0,0,2
142683630,142683630,12,45,0,0,30003,1499,1508,1506,1656,1505,1258,1105,1105,1505,1105,1505,1257,0,0,0,0,0,0,0,0,2
142880554,142880554,12,45,0,0,30003,1498,1508,1507,1656,1505,1257,1105,1105,1505,1106,1505,1257,0,0,0,0,0,0,0,0,2
143084332,143084332,12,45,0,0,30003,1498,1508,1506,1656,1506,1257,1105,1105,1505,1105,1505,1258,0,0,0,0,0,0,0,0,2
143284716,143284716,12,45,0,0,30003,1498,1508,1506,1650,1505,1257,1106,1105,1505,1105,1505,1257,0,0,0,0,0,0,0,0,2
143487538,143487538,12,45,0,0,30003,1498,1508,1506,1644,1505,1257,1105,1105,1505,1105,1505,1257,0,0,0,0,0,0,0,0,2
143687553,143687553,12,45,0,0,30003,1499,1508,1506,1505,1505,1258,1105,1105,1505,1105,1505,1257,0,0,0,0,0,0,0,0,2
143903543,143903543,12,45,0,0,30003,1499,1508,1506,1505,1505,1257,1105,1106,1505,1105,1505,1257,0,0,0,0,0,0,0,0,2
144103772,144103772,12,45,0,0,30003,1499,1508,1507,1505,1505,1257,1105,1105,1505,1106,1505,1257,0,0,0,0,0,0,0,0,2
144298839,144298839,12,45,0,0,30003,1499,1625,1504,1504,1506,1257,1105,1105,1505,1105,1505,1258,0,0,0,0,0,0,0,0,2
144510763,144510763,12,45,0,0,30003,1499,1585,1505,1504,1505,1257,1106,1105,1505,1105,1505,1257,0,0,0,0,0,0,0,0,2
144714997,144714997,12,45,0,0,30003,1499,1509,1506,1505,1505,1257,1105,1105,1505,1105,1506,1257,0,0,0,0,0,0,0,0,2
144914158,144914158,12,45,0,0,30003,1499,1509,1506,1505,1505,1258,1105,1105,1505,1105,1505,1257,0,0,0,0,0,0,0,0,2
145125985,145125985,12,45,0,0,30004,1499,1604,1505,1505,1505,1257,1105,1106,1505,1105,1505,1257,0,0,0,0,0,0,0,0,2
145329975,145329975,12,45,0,0,30003,1499,1508,1507,1504,1505,1257,1105,1105,1505,1106,1505,1257,0,0,0,0,0,0,0,0,2
145518136,145518136,12,45,0,0,30003,1499,1488,1506,1504,1505,1258,1105,1105,1505,1105,1505,1257,0,0,0,0,0,0,0,0,2
145729150,145729150,12,45,0,0,30003,1498,1429,1506,1505,1505,1257,1105,1105,1506,1105,1505,1257,0,0,0,0,0,0,0,0,2
145929140,145929140,12,45,0,0,30004,1499,1508,1507,1504,1505,1257,1105,1105,1505,1106,1505,1257,0,0,0,0,0,0,0,0,2
146117520,146117520,12,45,0,0,30003,1499,1508,1506,1504,1505,1257,1106,1105,1505,1105,1505,1257,0,0,0,0,0,0,0,0,2
146341167,146341167,12,45,0,0,30003,1499,1525,1521,1504,1505,1257,1106,1105,1505,1105,1505,1257,0,0,0,0,0,0,0,0,2
146524373,146524373,12,45,0,0,30003,1499,1522,1567,1504,1505,1257,1105,1105,1505,1105,1506,1257,0,0,0,0,0,0,0,0,2
146744368,146744368,12,45,0,0,30003,1499,1520,1579,1504,1506,1257,1105,1105,1505,1105,1505,1258,0,0,0,0,0,0,0,0,2
146944716,146944716,12,45,0,0,30003,1499,1514,1579,1504,1505,1257,1106,1105,1505,1105,1505,1257,0,0,0,0,0,0,0,0,2
147151770,147151770,12,45,0,0,30003,1498,1511,1594,1504,1505,1257,1105,1105,1506,1105,1505,1257,0,0,0,0,0,0,0,0,2
147351732,147351732,12,45,0,0,30003,1499,1510,1599,1504,1506,1257,1105,1105,1505,1105,1505,1258,0,0,0,0,0,0,0,0,2
147551788,147551788,12,45,0,0,30003,1499,1510,1614,1504,1505,1257,1106,1105,1505,1105,1505,1257,0,0,0,0,0,0,0,0,2
147743589,147743589,12,45,0,0,30003,1499,1509,1624,1504,1505,1257,1105,1105,1505,1106,1505,1257,0,0,0,0,0,0,0,0,2
147954989,147954989,12,45,0,0,30003,1499,1510,1616,1504,1506,1257,1105,1105,1505,1105,1505,1258,0,0,0,0,0,0,0,0,2
148163053,148163053,12,45,0,0,30003,1499,1510,1600,1505,1505,1258,1105,1105,1505,1105,1505,1257,0,0,0,0,0,0,0,0,2
148358767,148358767,12,45,0,0,30003,1498,1510,1506,1505,1505,1257,1105,1106,1505,1105,1505,1257,0,0,0,0,0,0,0,0,2
148566726,148566726,12,45,0,0,30004,1499,1509,1381,1504,1505,1257,1105,1105,1505,1106,1505,1257,0,0,0,0,0,0,0,0,2
148761959,148761959,12,45,0,0,30003,1499,1509,1332,1504,1505,1258,1105,1105,1505,1105,1505,1257,0,0,0,0,0,0,0,0,2
148965928,148965928,12,45,0,0,30004,1499,1500,1355,1504,1505,1257,1105,1106,1505,1105,1505,1257,0,0,0,0,0,0,0,0,2
149165931,149165931,12,45,0,0,30004,1499,1462,1341,1505,1505,1257,1105,1105,1505,1105,1506,1257,0,0,0,0,0,0,0,0,2
149385518,149385518,12,45,0,0,30003,1499,1441,1335,1505,1506,1257,1105,1105,1505,1105,1505,1257,0,0,0,0,0,0,0,0,2
149581371,149581371,12,45,0,0,30004,1499,1464,1353,1505,1505,1257,1105,1106,1505,1105,1505,1257,0,0,0,0,0,0,0,0,2
149785287,149785287,12,45,0,0,30003,1543,1505,1396,1505,1506,1257,1105,1105,1505,1105,1505,1258,0,0,0,0,0,0,0,0,2
149984620,149984620,12,45,0,0,30003,1581,1508,1396,1506,1505,1257,1106,1105,1505,1105,1505,1257,0,0,0,0,0,0,0,0,2
150188376,150188376,12,45,0,0,30004,1581,1510,1396,1505,1505,1257,1105,1105,1506,1105,1505,1257,0,0,0,0,0,0,0,0,2
150392728,150392728,12,45,0,0,30003,1572,1509,1413,1506,1505,1257,1105,1105,1505,1105,1506,1257,0,0,0,0,0,0,0,0,2
150596560,150596560,12,45,0,0,30003,1498,1510,1517,1505,1505,1257,1105,1106,1505,1105,1505,1257,0,0,0,0,0,0,0,0,2
150799609,150799609,12,45,0,0,30004,1499,1508,1532,1505,1505,1257,1105,1105,1505,1105,1506,1257,0,0,0,0,0,0,0,0,2
150995566,150995566,12,45,0,0,30003,1499,1508,1507,1505,1506,1257,1105,1105,1505,1105,1505,1257,0,0,0,0,0,0,0,0,2
151199575,151199575,12,45,0,0,30004,1499,1508,1508,1505,1505,1257,1105,1106,1505,1105,1505,1257,0,0,0,0,0,0,0,0,2
151403788,151403788,12,45,0,0,30003,1467,1507,1545,1505,1505,1257,1105,1105,1505,1105,1506,1257,0,0,0,0,0,0,0,0,2
151602932,151602932,12,45,0,0,30003,1448,1506,1567,1503,1505,1258,1105,1105,1505,1105,1505,1257,0,0,0,0,0,0,0,0,2
151798726,151798726,12,45,0,0,30003,1458,1508,1565,1504,1505,1257,1105,1105,1506,1105,1505,1257,0,0,0,0,0,0,0,0,2
152014800,152014800,12,45,0,0,30004,1487,1507,1543,1506,1505,1257,1105,1105,1505,1105,1506,1257,0,0,0,0,0,0,0,0,2
152222780,152222780,12,45,0,0,30003,1498,1507,1505,1505,1506,1257,1105,1105,1505,1105,1505,1257,0,0,0,0,0,0,0,0,2
152421941,152421941,12,45,0,0,30003,1498,1509,1478,1505,1505,1257,1105,1105,1506,1105,1505,1257,0,0,0,0,0,0,0,0,2
152617962,152617962,12,45,0,0,30003,1572,1509,1504,1506,1505,1257,1105,1105,1505,1105,1506,1257,0,0,0,0,0,0,0,0,2
152813967,152813967,12,45,0,0,30004,1593,1510,1499,1505,1505,1257,1105,1106,1505,1105,1505,1257,0,0,0,0,0,0,0,0,2
153037171,153037171,12,45,0,0,30003,1587,1510,1470,1505,1505,1257,1105,1106,1505,1105,1505,1257,0,0,0,0,0,0,0,0,2
153233396,153233396,12,45,0,0,30003,1511,1509,1338,1505,1506,1257,1105,1105,1505,1105,1505,1258,0,0,0,0,0,0,0,0,2
153429169,153429169,12,45,0,0,30003,1500,1492,1316,1505,1505,1258,1105,1105,1505,1105,1505,1257,0,0,0,0,0,0,0,0,2
153632544,153632544,12,45,0,0,30004,1500,1434,1321,1505,1505,1257,1105,1105,1506,1105,1505,1257,0,0,0,0,0,0,0,0,2
153848358,153848358,12,45,0,0,30004,1501,1434,1319,1505,1505,1257,1105,1105,1505,1105,1506,1257,0,0,0,0,0,0,0,0,2
154048737,154048737,12,45,0,0,30003,1509,1443,1319,1504,1505,1257,1106,1105,1505,1105,1505,1258,0,0,0,0,0,0,0,0,2
154244553,154244553,12,45,0,0,30004,1534,1467,1329,1505,1505,1257,1105,1105,1506,1105,1505,1257,0,0,0,0,0,0,0,0,2
154439574,154439574,12,45,0,0,30003,1537,1509,1374,1506,1505,1257,1105,1105,1505,1106,1505,1257,0,0,0,0,0,0,0,0,2
154655607,154655607,12,45,0,0,30003,1500,1510,1407,1505,1506,1257,1105,1105,1505,1105,1505,1258,0,0,0,0,0,0,0,0,2
154855771,154855771,12,45,0,0,30003,1499,1511,1459,1505,1505,1257,1105,1105,1506,1105,1505,1257,0,0,0,0,0,0,0,0,2
155055915,155055915,12,45,0,0,30004,1524,1541,1493,1540,1505,1257,1105,1105,1505,1106,1505,1257,0,0,0,0,0,0,0,0,2
155254774,155254774,12,45,0,0,30003,1534,1601,1505,1560,1506,1257,1105,1105,1505,1105,1505,1258,0,0,0,0,0,0,0,0,2
155458764,155458764,12,45,0,0,30003,1500,1610,1506,1513,1505,1258,1105,1105,1505,1105,1505,1257,0,0,0,0,0,0,0,0,2
155670961,155670961,12,45,0,0,30003,1500,1563,1511,1505,1505,1257,1105,1106,1505,1105,1505,1257,0,0,0,0,0,0,0,0,2
155873344,155873344,12,45,0,0,30003,1500,1571,1575,1506,1505,1257,1105,1105,1505,1105,1506,1257,0,0,0,0,0,0,0,0,2
156069976,156069976,12,45,0,0,30003,1500,1615,1573,1506,1505,1258,1105,1105,1505,1105,1505,1257,0,0,0,0,0,0,0,0,2
156262150,156262150,12,45,0,0,30003,1500,1572,1575,1505,1505,1257,1105,1105,1505,1106,1505,1257,0,0,0,0,0,0,0,0,2
156470001,156470001,12,45,0,0,30003,1500,1532,1595,1505,1506,1257,1105,1105,1505,1105,1505,1258,0,0,0,0,0,0,0,0,2
157085186,157085186,12,45,0,0,30003,1500,1522,1650,1505,1506,1257,1105,1105,1505,1105,1505,1258,0,0,0,0,0,0,0,0,2
157284724,157284724,12,45,0,0,30003,1501,1514,1654,1505,1505,1257,1105,1105,1506,1105,1505,1257,0,0,0,0,0,0,0,0,2
157484359,157484359,12,45,0,0,30003,1501,1509,1632,1506,1505,1257,1105,1105,1505,1105,1506,1257,0,0,0,0,0,0,0,0,2
157680715,157680715,12,45,0,0,30003,1501,1508,1574,1505,1505,1258,1105,1105,1505,1105,1505,1257,0,0,0,0,0,0,0,0,2
157904366,157904366,12,45,0,0,30003,1500,1510,1584,1505,1505,1257,1105,1105,1506,1105,1505,1257,0,0,0,0,0,0,0,0,2
158100487,158100487,12,45,0,0,30003,1501,1508,1509,1506,1505,1257,1105,1105,1505,1105,1506,1257,0,0,0,0,0,0,0,0,2
158303777,158303777,12,45,0,0,30003,1501,1508,1509,1505,1505,1257,1105,1106,1505,1105,1505,1257,0,0,0,0,0,0,0,0,2
158499601,158499601,12,45,0,0,30003,1501,1508,1510,1505,1505,1257,1105,1105,1505,1106,1505,1257,0,0,0,0,0,0,0,0,2
158699571,158699571,12,45,0,0,30003,1501,1508,1509,1505,1506,1257,1105,1105,1505,1105,1505,1258,0,0,0,0,0,0,0,0,2
158918753,158918753,12,45,0,0,30003,1500,1508,1550,1505,1505,1257,1106,1105,1505,1105,1505,1257,0,0,0,0,0,0,0,0,2
159122800,159122800,12,45,0,0,30004,1501,1510,1566,1505,1505,1257,1105,1105,1506,1105,1505,1257,0,0,0,0,0,0,0,0,2
159310976,159310976,12,45,0,0,30003,1501,1508,1579,1505,1505,1258,1105,1105,1505,1105,1505,1257,0,0,0,0,0,0,0,0,2
159521960,159521960,12,45,0,0,30004,1501,1508,1605,1505,1505,1257,1105,1106,1505,1105,1505,1257,0,0,0,0,0,0,0,0,2
159721948,159721948,12,45,0,0,30003,1501,1508,1653,1505,1505,1257,1105,1105,1505,1106,1505,1257,0,0,0,0,0,0,0,0,2
159922129,159922129,12,45,0,0,30003,1500,1455,1659,1505,1505,1258,1105,1105,1505,1105,1505,1257,0,0,0,0,0,0,0,0,2
160121967,160121967,12,45,0,0,30003,1500,1468,1644,1505,1505,1257,1105,1105,1506,1105,1505,1257,0,0,0,0,0,0,0,0,2
160321265,160321265,12,45,0,0,30004,1501,1473,1584,1506,1505,1257,1105,1105,1505,1105,1506,1257,0,0,0,0,0,0,0,0,2
160537212,160537212,12,45,0,0,30003,1500,1474,1559,1505,1506,1257,1105,1105,1505,1105,1505,1258,0,0,0,0,0,0,0,0,2
160725356,160725356,12,45,0,0,30004,1501,1509,1512,1505,1505,1257,1105,1105,1506,1105,1505,1257,0,0,0,0,0,0,0,0,2
160941190,160941190,12,45,0,0,30003,1501,1508,1509,1506,1505,1257,1105,1105,1505,1105,1506,1257,0,0,0,0,0,0,0,0,2
161144521,161144521,12,45,0,0,30003,1501,1508,1509,1505,1505,1258,1105,1105,1505,1105,1505,1257,0,0,0,0,0,0,0,0,2
161348780,161348780,12,45,0,0,30003,1500,1504,1513,1505,1505,1257,1105,1106,1505,1105,1505,1257,0,0,0,0,0,0,0,0,2
161548541,161548541,12,45,0,0,30003,1501,1502,1522,1506,1505,1257,1105,1105,1505,1105,1505,1257,0,0,0,0,0,0,0,0,2
161752331,161752331,12,45,0,0,30003,1501,1501,1513,1505,1505,1258,1105,1105,1505,1105,1505,1257,0,0,0,0,0,0,0,0,2
161951565,161951565,12,45,0,0,30003,1501,1492,1511,1505,1505,1257,1105,1106,1505,1105,1505,1257,0,0,0,0,0,0,0,0,2
162143595,162143595,12,45,0,0,30003,1500,1480,1516,1506,1505,1257,1105,1105,1505,1105,1506,1257,0,0,0,0,0,0,0,0,2
162347575,162347575,12,45,0,0,30003,1501,1472,1542,1505,1505,1258,1105,1105,1505,1105,1505,1257,0,0,0,0,0,0,0,0,2
162554970,162554970,12,45,0,0,30003,1501,1461,1551,1505,1505,1257,1105,1106,1505,1105,1505,1257,0,0,0,0,0,0,0,0,2
162758730,162758730,12,45,0,0,30003,1501,1507,1538,1505,1505,1257,1105,1105,1506,1105,1505,1257,0,0,0,0,0,0,0,0,2
162954771,162954771,12,45,0,0,30003,1501,1507,1540,1505,1506,1257,1105,1105,1505,1105,1505,1257,0,0,0,0,0,0,0,0,2
163154779,163154779,12,45,0,0,30003,1501,1507,1534,1505,1505,1257,1106,1105,1505,1105,1505,1257,0,0,0,0,0,0,0,0,2
163369983,163369983,12,45,0,0,30004,1501,1508,1521,1505,1505,1257,1105,1105,1506,1105,1505,1257,0,0,0,0,0,0,0,0,2
163565940,163565940,12,45,0,0,30003,1501,1508,1509,1506,1505,1257,1105,1105,1505,1105,1506,1257,0,0,0,0,0,0,0,0,2
163770015,163770015,12,45,0,0,30003,1500,1508,1508,1505,1505,1257,1106,1105,1505,1105,1505,1257,0,0,0,0,0,0,0,0,2
163965173,163965173,12,45,0,0,30003,1500,1508,1509,1504,1505,1257,1105,1105,1505,1106,1505,1257,0,0,0,0,0,0,0,0,2
164181162,164181162,12,45,0,0,30003,1500,1491,1512,1504,1506,1257,1105,1105,1505,1105,1505,1258,0,0,0,0,0,0,0,0,2
164381142,164381142,12,45,0,0,30003,1501,1407,1543,1504,1505,1257,1106,1105,1505,1105,1505,1257,0,0,0,0,0,0,0,0,2
164581523,164581523,12,45,0,0,30004,1501,1390,1509,1505,1505,1257,1105,1105,1505,1106,1505,1257,0,0,0,0,0,0,0,0,2
164784331,164784331,12,45,0,0,30003,1501,1386,1508,1504,1505,1257,1106,1105,1505,1105,1505,1257,0,0,0,0,0,0,0,0,2
164980548,164980548,12,45,0,0,30003,1501,1401,1507,1505,1505,1257,1105,1105,1506,1105,1505,1257,0,0,0,0,0,0,0,0,2
165192728,165192728,12,45,0,0,30003,1501,1440,1507,1506,1505,1257,1105,1105,1505,1105,1506,1257,0,0,0,0,0,0,0,0,2
165392379,165392379,12,45,0,0,30003,1501,1431,1506,1505,1505,1258,1105,1105,1505,1105,1505,1257,0,0,0,0,0,0,0,0,2
165587942,165587942,12,45,0,0,30004,1501,1435,1508,1504,1505,1257,1105,1105,1505,1106,1505,1257,0,0,0,0,0,0,0,0,2
165795748,165795748,12,45,0,0,30003,1501,1413,1506,1505,1506,1257,1105,1105,1505,1105,1505,1257,0,0,0,0,0,0,0,0,2
165999551,165999551,12,45,0,0,30004,1501,1413,1507,1504,1505,1257,1105,1106,1505,1105,1505,1257,0,0,0,0,0,0,0,0,2
166199118,166199118,12,45,0,0,30003,1501,1500,1507,1506,1505,1257,1105,1105,1505,1105,1506,1257,0,0,0,0,0,0,0,0,2
166398793,166398793,12,45,0,0,30003,1501,1508,1507,1504,1505,1258,1105,1105,1505,1105,1505,1257,0,0,0,0,0,0,0,0,2
166598985,166598985,12,45,0,0,30003,1500,1509,1507,1504,1505,1257,1105,1105,1506,1105,1505,1257,0,0,0,0,0,0,0,0,2
166818768,166818768,12,45,0,0,30003,1501,1508,1506,1505,1505,1257,1105,1105,1505,1105,1506,1257,0,0,0,0,0,0,0,0,2
168013348,168013348,12,45,0,0,30003,1500,1509,1507,1505,1506,1257,1105,1105,1505,1105,1505,1258,0,0,0,0,0,0,0,0,2
168225198,168225198,12,45,0,0,30003,1503,1509,1507,1504,1505,1257,1106,1105,1505,1105,1505,1257,0,0,0,0,0,0,0,0,2
168416412,168416412,12,45,0,0,30003,1575,1509,1507,1506,1505,1257,1105,1105,1505,1105,1506,1257,0,0,0,0,0,0,0,0,2
168624407,168624407,12,45,0,0,30003,1576,1510,1457,1505,1506,1257,1105,1105,1505,1105,1505,1258,0,0,0,0,0,0,0,0,2
168844337,168844337,12,45,0,0,30003,1500,1511,1432,1505,1506,1257,1105,1105,1505,1105,1505,1257,0,0,0,0,0,0,0,0,2
169039915,169039915,12,45,0,0,30004,1500,1511,1408,1504,1505,1257,1105,1105,1506,1105,1505,1257,0,0,0,0,0,0,0,0,2
169235729,169235729,12,45,0,0,30003,1500,1510,1397,1505,1505,1257,1105,1105,1505,1105,1506,1257,0,0,0,0,0,0,0,0,2
169443531,169443531,12,45,0,0,30003,1501,1511,1373,1505,1505,1258,1105,1105,1505,1105,1505,1257,0,0,0,0,0,0,0,0,2
169643570,169643570,12,45,0,0,30004,1500,1512,1341,1505,1505,1257,1105,1105,1506,1105,1505,1257,0,0,0,0,0,0,0,0,2
169838726,169838726,12,45,0,0,30003,1500,1511,1358,1506,1505,1257,1105,1105,1505,1105,1506,1257,0,0,0,0,0,0,0,0,2
170054955,170054955,12,45,0,0,30003,1500,1511,1393,1505,1505,1258,1105,1105,1505,1105,1505,1257,0,0,0,0,0,0,0,0,2
170250773,170250773,12,45,0,0,30003,1500,1550,1386,1505,1505,1257,1106,1105,1505,1105,1505,1257,0,0,0,0,0,0,0,0,2
170454796,170454796,12,45,0,0,30003,1500,1568,1400,1505,1505,1257,1105,1105,1505,1105,1506,1257,0,0,0,0,0,0,0,0,2
170658307,170658307,12,45,0,0,30003,1500,1555,1420,1504,1506,1257,1105,1105,1505,1105,1505,1257,0,0,0,0,0,0,0,0,2
170866091,170866091,12,45,0,0,30003,1500,1540,1382,1505,1505,1257,1106,1105,1505,1105,1505,1257,0,0,0,0,0,0,0,0,2
171054341,171054341,12,45,0,0,30003,1500,1544,1388,1506,1505,1257,1105,1105,1505,1105,1506,1257,0,0,0,0,0,0,0,0,2
171273362,171273362,12,45,0,0,30003,1500,1551,1404,1506,1505,1257,1105,1105,1505,1105,1506,1257,0,0,0,0,0,0,0,0,2
171469182,171469182,12,45,0,0,30004,1499,1606,1396,1505,1505,1257,1105,1106,1505,1105,1505,1257,0,0,0,0,0,0,0,0,2
171669129,171669129,12,45,0,0,30003,1500,1599,1399,1506,1505,1257,1105,1105,1505,1105,1506,1257,0,0,0,0,0,0,0,0,2
171877156,171877156,12,45,0,0,30003,1500,1545,1431,1505,1505,1258,1105,1105,1505,1105,1505,1257,0,0,0,0,0,0,0,0,2
172072366,172072366,12,45,0,0,30003,1500,1571,1397,1505,1505,1257,1105,1105,1505,1106,1505,1257,0,0,0,0,0,0,0,0,2
172276715,172276715,12,45,0,0,30003,1500,1512,1382,1505,1506,1257,1105,1105,1505,1105,1505,1258,0,0,0,0,0,0,0,0,2
172484337,172484337,12,45,0,0,30004,1500,1511,1446,1505,1505,1257,1105,1106,1505,1105,1505,1257,0,0,0,0,0,0,0,0,2
172680555,172680555,12,45,0,0,30004,1500,1509,1507,1504,1505,1257,1105,1105,1505,1106,1505,1257,0,0,0,0,0,0,0,0,2
172875524,172875524,12,45,0,0,30003,1500,1508,1506,1505,1505,1258,1105,1105,1505,1105,1505,1257,0,0,0,0,0,0,0,0,2
173075545,173075545,12,45,0,0,30004,1500,1509,1506,1505,1505,1257,1105,1105,1506,1105,1505,1257,0,0,0,0,0,0,0,0,2
173279529,173279529,12,45,0,0,30003,1500,1508,1506,1505,1506,1257,1105,1105,1505,1105,1505,1257,0,0,0,0,0,0,0,0,2
173478049,173478049,12,45,0,0,30003,1500,1508,1506,1505,1505,1257,1105,1106,1505,1105,1505,1257,0,0,0,0,0,0,0,0,2
173682758,173682758,12,45,0,0,30004,1500,1508,1494,1504,1505,1257,1105,1105,1505,1106,1505,1257,0,0,0,0,0,0,0,0,2
173898725,173898725,12,45,0,0,30003,1500,1509,1400,1505,1506,1257,1105,1105,1505,1105,1505,1258,0,0,0,0,0,0,0,0,2
174106735,174106735,12,45,0,0,30003,1498,1509,1485,1504,1505,1257,1106,1105,1505,1105,1505,1257,0,0,0,0,0,0,0,0,2
174301938,174301938,12,45,0,0,30004,1488,1510,1507,1504,1505,1257,1105,1105,1506,1105,1505,1257,0,0,0,0,0,0,0,0,2
174510016,174510016,12,45,0,0,30003,1408,1509,1506,1503,1505,1258,1105,1105,1505,1105,1505,1257,0,0,0,0,0,0,0,0,2
174709946,174709946,12,45,0,0,30003,1384,1509,1506,1503,1505,1257,1105,1106,1505,1105,1505,1257,0,0,0,0,0,0,0,0,2
174909281,174909281,12,45,0,0,30004,1385,1508,1507,1503,1505,1257,1105,1105,1505,1106,1505,1257,0,0,0,0,0,0,0,0,2
175117548,175117548,12,45,0,0,30003,1387,1508,1506,1504,1506,1257,1105,1105,1505,1105,1505,1258,0,0,0,0,0,0,0,0,2
175317139,175317139,12,45,0,0,30003,1385,1509,1506,1504,1505,1257,1105,1105,1506,1105,1505,1257,0,0,0,0,0,0,0,0,2
175513523,175513523,12,45,0,0,30003,1373,1508,1506,1504,1505,1257,1105,1105,1505,1105,1506,1257,0,0,0,0,0,0,0,0,2
175720567,175720567,12,45,0,0,30003,1356,1509,1506,1503,1506,1257,1105,1105,1505,1105,1505,1257,0,0,0,0,0,0,0,0,2
175920549,175920549,12,45,0,0,30004,1354,1508,1506,1503,1505,1257,1105,1106,1505,1105,1505,1257,0,0,0,0,0,0,0,0,2
176116355,176116355,12,45,0,0,30003,1338,1509,1506,1504,1505,1257,1105,1105,1505,1105,1506,1257,0,0,0,0,0,0,0,0,2
176323667,176323667,12,45,0,0,30003,1330,1509,1506,1504,1505,1258,1105,1105,1505,1105,1505,1257,0,0,0,0,0,0,0,0,2
176523747,176523747,12,45,0,0,30003,1328,1509,1506,1504,1505,1257,1105,1106,1505,1105,1505,1257,0,0,0,0,0,0,0,0,2
176727774,176727774,12,45,0,0,30003,1310,1508,1506,1504,1505,1257,1105,1105,1505,1105,1506,1257,0,0,0,0,0,0,0,0,2
176927569,176927569,12,45,0,0,30003,1328,1509,1506,1503,1505,1258,1105,1105,1505,1105,1505,1257,0,0,0,0,0,0,0,0,2
177146765,177146765,12,45,0,0,30003,1329,1509,1506,1504,1505,1257,1105,1106,1505,1105,1505,1257,0,0,0,0,0,0,0,0,2
177350759,177350759,12,45,0,0,30003,1327,1508,1507,1503,1505,1257,1105,1105,1505,1106,1505,1257,0,0,0,0,0,0,0,0,2
177546777,177546777,12,45,0,0,30003,1328,1509,1506,1504,1505,1257,1105,1105,1505,1105,1506,1257,0,0,0,0,0,0,0,0,2
177754761,177754761,12,45,0,0,30003,1366,1509,1506,1503,1505,1258,1105,1105,1505,1105,1505,1257,0,0,0,0,0,0,0,0,2
177934150,177934150,12,45,0,0,30004,1498,1508,1506,1504,1505,1257,1105,1105,1506,1105,1505,1257,0,0,0,0,0,0,0,0,2
178157940,178157940,12,45,0,0,30003,1499,1509,1473,1505,1505,1257,1105,1105,1505,1105,1506,1257,0,0,0,0,0,0,0,0,2
178350355,178350355,12,45,0,0,30004,1498,1499,1454,1504,1505,1257,1106,1105,1505,1105,1505,1257,0,0,0,0,0,0,0,0,2
178561968,178561968,12,45,0,0,30003,1499,1468,1449,1504,1505,1257,1105,1106,1505,1105,1505,1257,0,0,0,0,0,0,0,0,2
178753182,178753182,12,45,0,0,30003,1499,1461,1460,1504,1506,1257,1105,1105,1505,1105,1505,1258,0,0,0,0,0,0,0,0,2
178957127,178957127,12,45,0,0,30004,1499,1461,1445,1504,1505,1257,1105,1106,1505,1105,1505,1257,0,0,0,0,0,0,0,0,2
179169291,179169291,12,45,0,0,30004,1499,1479,1441,1504,1505,1257,1105,1105,1505,1106,1505,1257,0,0,0,0,0,0,0,0,2
179368345,179368345,12,45,0,0,30003,1499,1492,1437,1504,1505,1257,1106,1105,1505,1105,1505,1257,0,0,0,0,0,0,0,0,2
179568352,179568352,12,45,0,0,30003,1499,1494,1434,1504,1505,1257,1105,1105,1506,1105,1505,1257,0,0,0,0,0,0,0,0,2
179784374,179784374,12,45,0,0,30003,1499,1508,1431,1505,1505,1257,1105,1105,1505,1105,1506,1257,0,0,0,0,0,0,0,0,2
179964557,179964557,12,45,0,0,30004,1498,1511,1425,1504,1505,1257,1105,1106,1505,1105,1505,1257,0,0,0,0,0,0,0,0,2
180183916,180183916,12,45,0,0,30004,1499,1528,1437,1504,1505,1257,1105,1105,1506,1105,1505,1257,0,0,0,0,0,0,0,0,2
180367602,180367602,12,45,0,0,30003,1499,1579,1467,1504,1506,1257,1105,1105,1505,1105,1505,1257,0,0,0,0,0,0,0,0,2
180587526,180587526,12,45,0,0,30004,1499,1595,1519,1504,1505,1257,1105,1106,1505,1105,1505,1257,0,0,0,0,0,0,0,0,2
180778971,180778971,12,45,0,0,30003,1499,1509,1513,1504,1506,1257,1105,1105,1505,1105,1505,1258,0,0,0,0,0,0,0,0,2
180994768,180994768,12,45,0,0,30003,1499,1509,1523,1504,1506,1257,1105,1105,1505,1105,1505,1258,0,0,0,0,0,0,0,0,2
181174984,181174984,12,45,0,0,30004,1499,1522,1557,1504,1505,1257,1105,1105,1506,1105,1505,1257,0,0,0,0,0,0,0,0,2
181398773,181398773,12,45,0,0,30003,1499,1536,1571,1505,1505,1257,1105,1105,1505,1105,1506,1257,0,0,0,0,0,0,0,0,2
181594155,181594155,12,45,0,0,30003,1499,1536,1573,1504,1505,1258,1105,1105,1505,1105,1505,1257,0,0,0,0,0,0,0,0,2
181789975,181789975,12,45,0,0,30004,1499,1529,1584,1504,1505,1257,1105,1105,1505,1106,1505,1257,0,0,0,0,0,0,0,0,2
182005971,182005971,12,45,0,0,30003,1499,1521,1595,1504,1506,1257,1105,1105,1505,1105,1505,1258,0,0,0,0,0,0,0,0,2
182209168,182209168,12,45,0,0,30004,1499,1510,1610,1504,1505,1257,1106,1105,1505,1105,1505,1257,0,0,0,0,0,0,0,0,2
182401225,182401225,12,45,0,0,30003,1499,1511,1615,1504,1505,1257,1105,1105,1506,1105,1505,1257,0,0,0,0,0,0,0,0,2
182601393,182601393,12,45,0,0,30003,1499,1510,1610,1504,1506,1257,1105,1105,1505,1105,1505,1257,0,0,0,0,0,0,0,0,2
182805181,182805181,12,45,0,0,30003,1499,1520,1607,1504,1505,1257,1105,1106,1505,1105,1505,1257,0,0,0,0,0,0,0,0,2
183004378,183004378,12,45,0,0,30004,1499,1540,1605,1504,1505,1257,1105,1105,1505,1106,1505,1257,0,0,0,0,0,0,0,0,2
183224397,183224397,12,45,0,0,30003,1499,1543,1605,1505,1505,1257,1105,1105,1505,1105,1505,1258,0,0,0,0,0,0,0,0,2
183408547,183408547,12,45,0,0,30004,1498,1516,1619,1504,1505,1257,1105,1106,1505,1105,1505,1257,0,0,0,0,0,0,0,0,2
183615530,183615530,12,45,0,0,30003,1499,1509,1646,1504,1505,1257,1105,1105,1505,1106,1505,1257,0,0,0,0,0,0,0,0,2
183815916,183815916,12,45,0,0,30003,1499,1509,1649,1504,1506,1257,1105,1105,1505,1105,1505,1258,0,0,0,0,0,0,0,0,2
184031934,184031934,12,45,0,0,30003,1499,1511,1649,1504,1505,1258,1105,1105,1505,1105,1505,1257,0,0,0,0,0,0,0,0,2
184215756,184215756,12,45,0,0,30004,1499,1511,1648,1504,1505,1257,1105,1105,1505,1106,1505,1257,0,0,0,0,0,0,0,0,2
184435533,184435533,12,45,0,0,30003,1499,1511,1646,1504,1506,1257,1105,1105,1505,1105,1505,1258,0,0,0,0,0,0,0,0,2
184642763,184642763,12,45,0,0,30003,1499,1511,1645,1504,1505,1257,1106,1105,1505,1105,1505,1257,0,0,0,0,0,0,0,0,2
184838940,184838940,12,45,0,0,30004,1498,1512,1644,1504,1505,1257,1105,1105,1506,1105,1505,1257,0,0,0,0,0,0,0,0,2
185030802,185030802,12,45,0,0,30003,1499,1511,1622,1504,1506,1257,1105,1105,1505,1105,1505,1258,0,0,0,0,0,0,0,0,2
185250314,185250314,12,45,0,0,30003,1499,1509,1507,1504,1505,1257,1106,1105,1505,1105,1505,1257,0,0,0,0,0,0,0,0,2
185450141,185450141,12,45,0,0,30003,1498,1509,1499,1504,1505,1257,1105,1105,1506,1105,1505,1257,0,0,0,0,0,0,0,0,2
185653971,185653971,12,45,0,0,30004,1499,1508,1461,1504,1505,1257,1105,1105,1505,1106,1505,1257,0,0,0,0,0,0,0,0,2
185850014,185850014,12,45,0,0,30003,1499,1508,1407,1504,1505,1257,1106,1105,1505,1105,1505,1257,0,0,0,0,0,0,0,0,2
186045152,186045152,12,45,0,0,30004,1499,1509,1401,1504,1505,1257,1105,1105,1505,1106,1505,1257,0,0,0,0,0,0,0,0,2
186261325,186261325,12,45,0,0,30003,1499,1508,1422,1504,1506,1257,1105,1105,1505,1105,1505,1258,0,0,0,0,0,0,0,0,2
186461153,186461153,12,45,0,0,30004,1499,1508,1506,1504,1505,1257,1106,1105,1505,1105,1505,1257,0,0,0,0,0,0,0,0,2
186668338,186668338,12,45,0,0,30004,1499,1508,1508,1504,1505,1257,1105,1105,1505,1106,1505,1257,0,0,0,0,0,0,0,0,2
186864549,186864549,12,45,0,0,30003,1499,1508,1506,1504,1505,1258,1105,1105,1505,1105,1505,1257,0,0,0,0,0,0,0,0,2
187068328,187068328,12,45,0,0,30004,1551,1508,1505,1504,1505,1257,1105,1105,1506,1105,1505,1257,0,0,0,0,0,0,0,0,2
187272487,187272487,12,45,0,0,30003,1512,1508,1505,1505,1505,1257,1105,1105,1505,1105,1506,1257,0,0,0,0,0,0,0,0,2
187475547,187475547,12,45,0,0,30003,1499,1506,1449,1504,1505,1258,1105,1105,1505,1105,1505,1257,0,0,0,0,0,0,0,0,2
187675792,187675792,12,45,0,0,30004,1500,1508,1429,1504,1505,1257,1105,1105,1505,1105,1506,1257,0,0,0,0,0,0,0,0,2
187871571,187871571,12,45,0,0,30003,1500,1509,1504,1504,1506,1257,1105,1105,1505,1105,1505,1257,0,0,0,0,0,0,0,0,2
188074747,188074747,12,45,0,0,30004,1500,1508,1506,1504,1505,1257,1105,1106,1505,1105,1505,1257,0,0,0,0,0,0,0,0,2
188278761,188278761,12,45,0,0,30003,1500,1508,1505,1505,1505,1257,1105,1105,1505,1105,1505,1258,0,0,0,0,0,0,0,0,2
188474740,188474740,12,45,0,0,30003,1500,1483,1496,1504,1505,1257,1106,1105,1505,1105,1505,1257,0,0,0,0,0,0,0,0,2
188678792,188678792,12,45,0,0,30004,1500,1401,1505,1504,1505,1257,1105,1105,1506,1105,1505,1257,0,0,0,0,0,0,0,0,2
188897946,188897946,12,45,0,0,30003,1500,1411,1504,1505,1505,1257,1105,1105,1505,1105,1506,1257,0,0,0,0,0,0,0,0,2
189077938,189077938,12,45,0,0,30003,1500,1423,1505,1504,1505,1257,1105,1106,1505,1105,1505,1257,0,0,0,0,0,0,0,0,2
189298086,189298086,12,45,0,0,30003,1500,1431,1506,1504,1505,1257,1105,1105,1505,1106,1505,1257,0,0,0,0,0,0,0,0,2
189501959,189501959,12,45,0,0,30003,1500,1453,1505,1504,1506,1257,1105,1105,1505,1105,1505,1258,0,0,0,0,0,0,0,0,2
189705521,189705521,12,45,0,0,30003,1500,1507,1505,1504,1505,1257,1106,1105,1505,1105,1505,1257,0,0,0,0,0,0,0,0,2
189905156,189905156,12,45,0,0,30004,1500,1509,1506,1504,1505,1257,1105,1105,1506,1105,1505,1257,0,0,0,0,0,0,0,0,2
190113180,190113180,12,45,0,0,30003,1500,1507,1505,1505,1505,1257,1105,1105,1505,1105,1506,1257,0,0,0,0,0,0,0,0,2
190304337,190304337,12,45,0,0,30003,1500,1495,1504,1504,1505,1257,1106,1105,1505,1105,1505,1257,0,0,0,0,0,0,0,0,2
190504345,190504345,12,45,0,0,30004,1500,1479,1489,1504,1505,1257,1105,1105,1506,1105,1505,1257,0,0,0,0,0,0,0,0,2
190700543,190700543,12,45,0,0,30003,1500,1471,1494,1504,1505,1258,1105,1105,1505,1105,1505,1257,0,0,0,0,0,0,0,0,2
190900412,190900412,12,45,0,0,30004,1500,1467,1504,1504,1505,1257,1105,1106,1505,1105,1505,1257,0,0,0,0,0,0,0,0,2
191123553,191123553,12,45,0,0,30004,1500,1508,1507,1504,1505,1257,1105,1105,1505,1106,1505,1257,0,0,0,0,0,0,0,0,2
191319572,191319572,12,45,0,0,30003,1500,1508,1506,1504,1506,1257,1105,1105,1505,1105,1505,1258,0,0,0,0,0,0,0,0,2
191519580,191519580,12,45,0,0,30003,1500,1508,1506,1504,1505,1257,1105,1106,1505,1105,1505,1257,0,0,0,0,0,0,0,0,2
191722768,191722768,12,45,0,0,30004,1500,1508,1507,1504,1505,1257,1105,1105,1505,1106,1505,1257,0,0,0,0,0,0,0,0,2
191938737,191938737,12,45,0,0,30003,1500,1508,1506,1505,1506,1257,1105,1105,1505,1105,1505,1258,0,0,0,0,0,0,0,0,2
192118749,192118749,12,45,0,0,30003,1499,1509,1506,1504,1505,1257,1105,1106,1505,1105,1505,1257,0,0,0,0,0,0,0,0,2
192331176,192331176,12,45,0,0,30004,1500,1508,1507,1505,1505,1257,1105,1105,1505,1105,1505,1257,0,0,0,0,0,0,0,0,2
192542057,192542057,12,45,0,0,30003,1500,1508,1507,1504,1505,1257,1105,1105,1505,1106,1505,1257,0,0,0,0,0,0,0,0,2
192737930,192737930,12,45,0,0,30003,1500,1508,1492,1504,1505,1258,1105,1105,1505,1105,1505,1257,0,0,0,0,0,0,0,0,2
192942322,192942322,12,45,0,0,30003,1500,1501,1420,1504,1505,1257,1105,1106,1505,1105,1505,1257,0,0,0,0,0,0,0,0,2
193141207,193141207,12,45,0,0,30003,1500,1460,1443,1505,1505,1257,1105,1105,1505,1105,1505,1258,0,0,0,0,0,0,0,0,2
193341199,193341199,12,45,0,0,30003,1500,1443,1440,1504,1505,1257,1106,1105,1505,1105,1505,1257,0,0,0,0,0,0,0,0,2
193541125,193541125,12,45,0,0,30003,1500,1439,1438,1504,1505,1257,1105,1105,1506,1105,1505,1257,0,0,0,0,0,0,0,0,2
193749162,193749162,12,45,0,0,30003,1500,1442,1436,1504,1506,1257,1105,1105,1505,1105,1505,1258,0,0,0,0,0,0,0,0,2
193965165,193965165,12,45,0,0,30003,1500,1445,1434,1504,1505,1257,1106,1105,1505,1105,1505,1257,0,0,0,0,0,0,0,0,2
194168596,194168596,12,45,0,0,30004,1500,1481,1414,1504,1505,1257,1105,1105,1506,1105,1505,1257,0,0,0,0,0,0,0,0,2
194348354,194348354,12,45,0,0,30003,1500,1485,1404,1504,1505,1258,1105,1105,1505,1105,1505,1257,0,0,0,0,0,0,0,0,2
194556624,194556624,12,45,0,0,30004,1499,1505,1399,1504,1505,1257,1105,1105,1506,1105,1505,1257,0,0,0,0,0,0,0,0,2
194759574,194759574,12,45,0,0,30003,1500,1504,1403,1504,1506,1257,1105,1105,1505,1105,1505,1257,0,0,0,0,0,0,0,0,2
194975552,194975552,12,45,0,0,30003,1501,1485,1418,1504,1505,1258,1105,1105,1505,1105,1505,1257,0,0,0,0,0,0,0,0,2
195159785,195159785,12,45,0,0,30004,1500,1482,1421,1504,1505,1257,1105,1105,1505,1106,1505,1257,0,0,0,0,0,0,0,0,2
195366949,195366949,12,45,0,0,30003,1500,1479,1433,1504,1506,1257,1105,1105,1505,1105,1505,1258,0,0,0,0,0,0,0,0,2
195582806,195582806,12,45,0,0,30004,1500,1478,1436,1504,1505,1257,1106,1105,1505,1105,1505,1257,0,0,0,0,0,0,0,0,2
195762757,195762757,12,45,0,0,30003,1500,1455,1414,1505,1505,1257,1105,1105,1505,1105,1506,1257,0,0,0,0,0,0,0,0,2
195966785,195966785,12,45,0,0,30003,1500,1444,1408,1504,1505,1258,1105,1105,1505,1105,1505,1257,0,0,0,0,0,0,0,0,2
196177977,196177977,12,45,0,0,30003,1498,1457,1418,1504,1505,1257,1105,1105,1506,1105,1505,1257,0,0,0,0,0,0,0,0,2
196381985,196381985,12,45,0,0,30003,1500,1458,1419,1504,1506,1257,1105,1105,1505,1105,1505,1257,0,0,0,0,0,0,0,0,2
196582128,196582128,12,45,0,0,30003,1500,1440,1420,1504,1505,1257,1105,1106,1505,1105,1505,1257,0,0,0,0,0,0,0,0,2
196801326,196801326,12,45,0,0,30003,1500,1391,1445,1504,1505,1257,1105,1105,1505,1106,1505,1257,0,0,0,0,0,0,0,0,2
196993173,196993173,12,45,0,0,30003,1500,1446,1504,1505,1505,1257,1105,1105,1505,1105,1505,1258,0,0,0,0,0,0,0,0,2
197185232,197185232,12,45,0,0,30003,1499,1509,1506,1504,1505,1257,1105,1106,1505,1105,1505,1257,0,0,0,0,0,0,0,0,2
197405347,197405347,12,45,0,0,30004,1499,1547,1507,1504,1505,1257,1105,1105,1506,1105,1505,1257,0,0,0,0,0,0,0,0,2
197588568,197588568,12,45,0,0,30003,1500,1626,1539,1504,1506,1257,1105,1105,1505,1105,1505,1258,0,0,0,0,0,0,0,0,2
197800581,197800581,12,45,0,0,30003,1500,1620,1578,1504,1505,1257,1106,1105,1505,1105,1505,1257,0,0,0,0,0,0,0,0,2
197996365,197996365,12,45,0,0,30003,1500,1507,1572,1505,1505,1257,1105,1105,1505,1105,1506,1257,0,0,0,0,0,0,0,0,2
198220639,198220639,12,45,0,0,30003,1500,1507,1642,1505,1505,1257,1105,1105,1505,1105,1506,1257,0,0,0,0,0,0,0,0,2
198407749,198407749,12,45,0,0,30004,1500,1507,1586,1504,1505,1257,1105,1106,1505,1105,1505,1257,0,0,0,0,0,0,0,0,2
198607544,198607544,12,45,0,0,30003,1500,1508,1506,1504,1505,1257,1105,1105,1505,1106,1505,1257,0,0,0,0,0,0,0,0,2
198815530,198815530,12,45,0,0,30003,1500,1509,1464,1505,1505,1257,1105,1105,1505,1105,1506,1257,0,0,0,0,0,0,0,0,2
199015921,199015921,12,45,0,0,30004,1500,1509,1506,1504,1505,1257,1105,1106,1505,1105,1505,1257,0,0,0,0,0,0,0,0,2
199222801,199222801,12,45,0,0,30003,1500,1509,1507,1504,1505,1257,1105,1105,1505,1106,1505,1257,0,0,0,0,0,0,0,0,2
199426758,199426758,12,45,0,0,30003,1500,1509,1506,1505,1505,1257,1105,1105,1505,1105,1505,1258,0,0,0,0,0,0,0,0,2
199630969,199630969,12,45,0,0,30003,1500,1509,1506,1504,1505,1258,1105,1105,1505,1105,1505,1257,0,0,0,0,0,0,0,0,2
199834756,199834756,12,45,0,0,30004,1500,1508,1506,1504,1505,1257,1105,1106,1505,1105,1505,1257,0,0,0,0,0,0,0,0,2
200041931,200041931,12,45,0,0,30003,1500,1509,1506,1505,1505,1257,1105,1105,1505,1105,1506,1257,0,0,0,0,0,0,0,0,2
200242131,200242131,12,45,0,0,30003,1500,1509,1506,1504,1505,1258,1105,1105,1505,1105,1505,1257,0,0,0,0,0,0,0,0,2
200442030,200442030,12,45,0,0,30003,1500,1509,1506,1504,1505,1257,1105,1106,1505,1105,1505,1257,0,0,0,0,0,0,0,0,2
200657189,200657189,12,45,0,0,30003,1509,1509,1506,1505,1505,1257,1105,1105,1505,1105,1506,1257,0,0,0,0,0,0,0,0,2
200841156,200841156,12,45,0,0,30003,1501,1509,1505,1504,1505,1257,1105,1106,1505,1105,1505,1257,0,0,0,0,0,0,0,0,2
201049129,201049129,12,45,0,0,30004,1501,1508,1447,1504,1505,1257,1105,1105,1505,1106,1505,1257,0,0,0,0,0,0,0,0,2
201249148,201249148,12,45,0,0,30003,1500,1393,1418,1504,1506,1257,1105,1105,1505,1105,1505,1257,0,0,0,0,0,0,0,0,2
201448371,201448371,12,45,0,0,30003,1500,1364,1410,1504,1505,1257,1105,1105,1505,1106,1505,1257,0,0,0,0,0,0,0,0,2
201656356,201656356,12,45,0,0,30003,1500,1347,1393,1504,1506,1257,1105,1105,1505,1105,1505,1258,0,0,0,0,0,0,0,0,2
