timestamp,baro_alt_meter,baro_temp_celcius,baro_pressure_pa,rho
93496563,-29.181776,46.14,101675.99,1.208079
93518161,-29.26633,46.14,101676.99,1.2080909
93529045,-29.430155,46.14,101679.0,1.2081147
93539092,-28.848845,46.14,101672.0,1.2080315
93561050,-29.430155,46.14,101679.0,1.2081147
93573395,-28.848845,46.14,101672.0,1.2080315
93584743,-28.9334,46.14,101673.0,1.2080435
93605630,-28.9334,46.14,101673.0,1.2080435
93616065,-29.017954,46.14,101674.0,1.2080553
93627323,-29.3456,46.14,101678.0,1.2081028
93649073,-28.76429,46.129997,101671.0,1.2080196
93660762,-29.017954,46.129997,101674.0,1.2080553
93671153,-28.76429,46.129997,101671.0,1.2080196
93693045,-28.9334,46.14,101673.0,1.2080435
93704841,-28.76429,46.14,101671.0,1.2080196
93715804,-28.848845,46.14,101672.0,1.2080315
93737045,-28.848845,46.14,101672.0,1.2080315
93748093,-28.600466,46.14,101669.0,1.2079959
93760594,-28.9334,46.14,101673.0,1.2080435
93782045,-29.26633,46.129997,101676.99,1.2080909
93793048,-28.68502,46.129997,101669.99,1.2080077
93803382,-29.097223,46.129997,101675.0,1.2080672
93824582,-29.181776,46.129997,101675.99,1.208079
93835316,-28.848845,46.129997,101672.0,1.2080315
93846380,-29.017954,46.129997,101674.0,1.2080553
93868422,-28.848845,46.14,101672.0,1.2080315
93879400,-29.017954,46.14,101674.0,1.2080553
93890349,-29.181776,46.14,101675.99,1.208079
93912808,-29.017954,46.14,101674.0,1.2080553
93923319,-29.26633,46.14,101676.99,1.2080909
93934361,-29.097223,46.14,101675.0,1.2080672
93956388,-28.9334,46.14,101673.0,1.2080435
93968258,-29.3456,46.14,101678.0,1.2081028
93979405,-29.430155,46.14,101679.0,1.2081147
94001045,-28.76429,46.14,101671.0,1.2080196
94011364,-28.9334,46.14,101673.0,1.2080435
94022375,-29.097223,46.14,101675.0,1.2080672
94043330,-29.181776,46.14,101675.99,1.208079
94054045,-28.9334,46.14,101673.0,1.2080435
94065085,-29.181776,46.14,101675.99,1.208079
94087337,-29.097223,46.14,101675.0,1.2080672
94098045,-28.848845,46.14,101672.0,1.2080315
94109040,-28.9334,46.14,101673.0,1.2080435
94131310,-28.9334,46.14,101673.0,1.2080435
94142045,-28.848845,46.14,101672.0,1.2080315
94153043,-29.26633,46.14,101676.99,1.2080909
94175345,-28.68502,46.14,101669.99,1.2080077
94186045,-28.68502,46.14,101669.99,1.2080077
94197040,-28.436644,46.14,101667.0,1.2079722
94218147,-29.181776,46.14,101675.99,1.208079
94229045,-28.68502,46.14,101669.99,1.2080077
94240264,-29.3456,46.14,101678.0,1.2081028
94262050,-29.017954,46.14,101674.0,1.2080553
94273379,-29.599264,46.14,101681.0,1.2081385
94284040,-28.515913,46.14,101668.0,1.207984
94307503,-29.097223,46.14,101675.0,1.2080672
94318380,-29.017954,46.14,101674.0,1.2080553
94328348,-29.097223,46.14,101675.0,1.2080672
94350045,-29.430155,46.14,101679.0,1.2081147
94361379,-28.848845,46.14,101672.0,1.2080315
94372043,-29.097223,46.14,101675.0,1.2080672
94395315,-29.181776,46.14,101675.99,1.208079
94406395,-29.181776,46.14,101675.99,1.208079
94417090,-28.848845,46.14,101672.0,1.2080315
94439058,-29.097223,46.14,101675.0,1.2080672
94450538,-28.848845,46.14,101672.0,1.2080315
94461040,-29.3456,46.14,101678.0,1.2081028
94483175,-29.017954,46.14,101674.0,1.2080553
94495352,-29.181776,46.14,101675.99,1.208079
94506040,-28.9334,46.14,101673.0,1.2080435
94528048,-29.430155,46.14,101679.0,1.2081147
94539381,-28.9334,46.14,101673.0,1.2080435
94550040,-28.68502,46.14,101669.99,1.2080077
94572050,-29.181776,46.14,101675.99,1.208079
94583737,-28.848845,46.14,101672.0,1.2080315
94594204,-28.848845,46.14,101672.0,1.2080315
94616075,-28.848845,46.14,101672.0,1.2080315
94627509,-28.600466,46.14,101669.0,1.2079959
94638128,-29.017954,46.14,101674.0,1.2080553
94660084,-29.599264,46.149998,101681.0,1.2081385
94671641,-28.76429,46.149998,101671.0,1.2080196
94682040,-29.017954,46.149998,101674.0,1.2080553
94704047,-29.26633,46.14,101676.99,1.2080909
94715351,-29.017954,46.14,101674.0,1.2080553
94726048,-28.600466,46.14,101669.0,1.2079959
94748049,-29.181776,46.14,101675.99,1.208079
94759540,-28.68502,46.14,101669.99,1.2080077
94770065,-29.181776,46.14,101675.99,1.208079
94791376,-28.68502,46.14,101669.99,1.2080077
94802045,-29.017954,46.14,101674.0,1.2080553
94813045,-28.9334,46.14,101673.0,1.2080435
94835169,-28.9334,46.14,101673.0,1.2080435
94846045,-28.76429,46.14,101671.0,1.2080196
94857044,-28.76429,46.14,101671.0,1.2080196
94879819,-28.76429,46.14,101671.0,1.2080196
94890045,-29.097223,46.14,101675.0,1.2080672
94901040,-29.017954,46.14,101674.0,1.2080553
94923378,-29.26633,46.14,101676.99,1.2080909
94934045,-28.76429,46.14,101671.0,1.2080196
94945040,-28.76429,46.14,101671.0,1.2080196
94966049,-29.3456,46.149998,101678.0,1.2081028
94977045,-29.430155,46.149998,101679.0,1.2081147
94988040,-28.600466,46.149998,101669.0,1.2079959
95009045,-29.097223,46.149998,101675.0,1.2080672
95019220,-29.430155,46.149998,101679.0,1.2081147
95031396,-29.430155,46.149998,101679.0,1.2081147
95051149,-29.181776,46.14,101675.99,1.208079
95062139,-28.9334,46.14,101673.0,1.2080435
95072046,-29.181776,46.14,101675.99,1.208079
95093045,-29.430155,46.149998,101679.0,1.2081147
95104375,-28.68502,46.149998,101669.99,1.2080077
95115116,-29.097223,46.149998,101675.0,1.2080672
95138045,-29.181776,46.149998,101675.99,1.208079
95149461,-29.017954,46.149998,101674.0,1.2080553
95160040,-29.017954,46.149998,101674.0,1.2080553
95180565,-29.26633,46.149998,101676.99,1.2080909
95191126,-28.68502,46.149998,101669.99,1.2080077
95202040,-29.017954,46.149998,101674.0,1.2080553
95223121,-28.9334,46.149998,101673.0,1.2080435
95235541,-28.76429,46.149998,101671.0,1.2080196
95246299,-28.9334,46.149998,101673.0,1.2080435
95267133,-28.76429,46.149998,101671.0,1.2080196
95278327,-29.017954,46.149998,101674.0,1.2080553
95289044,-28.515913,46.149998,101668.0,1.207984
95310196,-28.76429,46.149998,101671.0,1.2080196
95321050,-28.848845,46.149998,101672.0,1.2080315
95332102,-28.848845,46.149998,101672.0,1.2080315
95353393,-29.017954,46.149998,101674.0,1.2080553
95363224,-29.3456,46.149998,101678.0,1.2081028
95374326,-28.9334,46.149998,101673.0,1.2080435
95396099,-28.848845,46.149998,101672.0,1.2080315
95407160,-28.9334,46.149998,101673.0,1.2080435
95419013,-28.76429,46.149998,101671.0,1.2080196
95440045,-28.9334,46.149998,101673.0,1.2080435
95451183,-29.097223,46.149998,101675.0,1.2080672
95462403,-29.017954,46.149998,101674.0,1.2080553
95484045,-29.26633,46.149998,101676.99,1.2080909
95494401,-28.76429,46.149998,101671.0,1.2080196
95505070,-29.181776,46.149998,101675.99,1.208079
95526351,-28.352089,46.149998,101666.0,1.2079602
95537045,-28.76429,46.149998,101671.0,1.2080196
95548040,-29.678534,46.149998,101682.0,1.2081504
95569056,-29.51471,46.149998,101680.0,1.2081265
95580045,-29.181776,46.149998,101675.99,1.208079
95591116,-29.097223,46.149998,101675.0,1.2080672
95613070,-29.26633,46.149998,101676.99,1.2080909
95624045,-29.26633,46.149998,101676.99,1.2080909
95635206,-29.26633,46.149998,101676.99,1.2080909
95657048,-29.3456,46.149998,101678.0,1.2081028
95667644,-29.017954,46.149998,101674.0,1.2080553
95678352,-28.9334,46.149998,101673.0,1.2080435
95700051,-29.599264,46.16,101681.0,1.2081385
95710417,-29.26633,46.16,101676.99,1.2080909
95720040,-29.26633,46.16,101676.99,1.2080909
95742179,-29.017954,46.149998,101674.0,1.2080553
95753045,-29.26633,46.149998,101676.99,1.2080909
95764049,-28.76429,46.149998,101671.0,1.2080196
95785049,-29.51471,46.16,101680.0,1.2081265
95795437,-29.181776,46.16,101675.99,1.208079
95806173,-28.848845,46.16,101672.0,1.2080315
95828069,-29.181776,46.149998,101675.99,1.208079
95838401,-28.848845,46.149998,101672.0,1.2080315
95849040,-28.9334,46.149998,101673.0,1.2080435
95871149,-29.26633,46.149998,101676.99,1.2080909
95883439,-28.68502,46.149998,101669.99,1.2080077
95894198,-29.097223,46.149998,101675.0,1.2080672
95916058,-29.599264,46.16,101681.0,1.2081385
95926385,-29.430155,46.16,101679.0,1.2081147
95937353,-28.600466,46.16,101669.0,1.2079959
95959453,-28.848845,46.149998,101672.0,1.2080315
95969524,-28.9334,46.149998,101673.0,1.2080435
95982023,-29.181776,46.149998,101675.99,1.208079
96004392,-28.848845,46.149998,101672.0,1.2080315
96014383,-28.9334,46.149998,101673.0,1.2080435
96025549,-28.68502,46.149998,101669.99,1.2080077
96046080,-29.26633,46.16,101676.99,1.2080909
96057376,-29.017954,46.16,101674.0,1.2080553
96068097,-29.181776,46.16,101675.99,1.208079
96090045,-28.76429,46.149998,101671.0,1.2080196
96100980,-29.017954,46.149998,101674.0,1.2080553
96112020,-28.848845,46.149998,101672.0,1.2080315
96134016,-29.181776,46.149998,101675.99,1.208079
96144333,-28.76429,46.149998,101671.0,1.2080196
96155138,-28.848845,46.149998,101672.0,1.2080315
96177016,-29.181776,46.16,101675.99,1.208079
96188321,-28.9334,46.16,101673.0,1.2080435
96199016,-29.26633,46.16,101676.99,1.2080909
96221582,-29.097223,46.16,101675.0,1.2080672
96232341,-29.097223,46.16,101675.0,1.2080672
96242614,-29.51471,46.16,101680.0,1.2081265
96264021,-29.26633,46.16,101676.99,1.2080909
96275016,-29.181776,46.16,101675.99,1.208079
96286137,-29.3456,46.16,101678.0,1.2081028
96308016,-29.26633,46.16,101676.99,1.2080909
96319136,-28.848845,46.16,101672.0,1.2080315
96330361,-29.017954,46.16,101674.0,1.2080553
96352354,-28.848845,46.16,101672.0,1.2080315
96362411,-28.9334,46.16,101673.0,1.2080435
96373521,-29.26633,46.16,101676.99,1.2080909
96395095,-28.848845,46.16,101672.0,1.2080315
96405387,-28.848845,46.16,101672.0,1.2080315
96416021,-29.097223,46.16,101675.0,1.2080672
96438016,-29.3456,46.16,101678.0,1.2081028
96448019,-28.848845,46.16,101672.0,1.2080315
96459016,-28.515913,46.16,101668.0,1.207984
96481843,-28.848845,46.16,101672.0,1.2080315
96492016,-28.848845,46.16,101672.0,1.2080315
96503105,-29.181776,46.16,101675.99,1.208079
96525415,-29.097223,46.16,101675.0,1.2080672
96536029,-29.181776,46.16,101675.99,1.208079
96547099,-28.9334,46.16,101673.0,1.2080435
96568022,-29.017954,46.16,101674.0,1.2080553
96579017,-28.848845,46.16,101672.0,1.2080315
96590030,-28.68502,46.16,101669.99,1.2080077
96613612,-28.848845,46.16,101672.0,1.2080315
96624051,-28.600466,46.16,101669.0,1.2079959
96635177,-28.848845,46.16,101672.0,1.2080315
96656104,-29.26633,46.16,101676.99,1.2080909
96667106,-28.600466,46.16,101669.0,1.2079959
96678308,-29.181776,46.16,101675.99,1.208079
96699149,-29.097223,46.16,101675.0,1.2080672
96710323,-28.9334,46.16,101673.0,1.2080435
96721725,-28.848845,46.16,101672.0,1.2080315
96743074,-28.848845,46.16,101672.0,1.2080315
96754357,-28.68502,46.16,101669.99,1.2080077
96765021,-28.9334,46.16,101673.0,1.2080435
96785056,-28.9334,46.16,101673.0,1.2080435
96796562,-28.76429,46.16,101671.0,1.2080196
96807016,-28.76429,46.16,101671.0,1.2080196
96829020,-29.763088,46.16,101682.99,1.2081622
96839113,-29.3456,46.16,101678.0,1.2081028
96850016,-29.097223,46.16,101675.0,1.2080672
96871359,-28.848845,46.16,101672.0,1.2080315
96881846,-28.848845,46.16,101672.0,1.2080315
96892712,-29.181776,46.16,101675.99,1.208079
96914021,-28.848845,46.17,101672.0,1.2080315
96925060,-28.76429,46.17,101671.0,1.2080196
96935124,-29.097223,46.17,101675.0,1.2080672
96956606,-29.097223,46.16,101675.0,1.2080672
96967381,-28.848845,46.16,101672.0,1.2080315
96978016,-29.3456,46.16,101678.0,1.2081028
96998016,-29.017954,46.17,101674.0,1.2080553
97009661,-29.017954,46.17,101674.0,1.2080553
97020792,-29.430155,46.17,101679.0,1.2081147
97042016,-28.76429,46.16,101671.0,1.2080196
97053016,-29.51471,46.16,101680.0,1.2081265
97063114,-28.76429,46.16,101671.0,1.2080196
97084611,-28.848845,46.16,101672.0,1.2080315
97095016,-29.097223,46.16,101675.0,1.2080672
97106016,-29.678534,46.16,101682.0,1.2081504
97127322,-28.9334,46.16,101673.0,1.2080435
97137331,-28.848845,46.16,101672.0,1.2080315
97148582,-28.76429,46.16,101671.0,1.2080196
97169901,-29.181776,46.17,101675.99,1.208079
97180883,-28.848845,46.17,101672.0,1.2080315
97191118,-28.76429,46.17,101671.0,1.2080196
97213119,-29.181776,46.17,101675.99,1.208079
97225617,-29.26633,46.17,101676.99,1.2080909
97236613,-28.9334,46.17,101673.0,1.2080435
97257056,-28.848845,46.17,101672.0,1.2080315
97268705,-29.3456,46.17,101678.0,1.2081028
97279052,-29.097223,46.17,101675.0,1.2080672
97299346,-29.26633,46.17,101676.99,1.2080909
97310048,-29.3456,46.17,101678.0,1.2081028
97322025,-29.26633,46.17,101676.99,1.2080909
97343097,-28.76429,46.17,101671.0,1.2080196
97354077,-28.9334,46.17,101673.0,1.2080435
97364792,-29.017954,46.17,101674.0,1.2080553
97385364,-29.181776,46.17,101675.99,1.208079
97396752,-29.097223,46.17,101675.0,1.2080672
97407402,-29.097223,46.17,101675.0,1.2080672
97428702,-28.9334,46.17,101673.0,1.2080435
97439148,-29.26633,46.17,101676.99,1.2080909
97450052,-28.848845,46.17,101672.0,1.2080315
97472179,-29.097223,46.17,101675.0,1.2080672
97483370,-29.097223,46.17,101675.0,1.2080672
97494040,-29.430155,46.17,101679.0,1.2081147
97516105,-29.181776,46.17,101675.99,1.208079
97527365,-28.600466,46.17,101669.0,1.2079959
97538045,-28.600466,46.17,101669.0,1.2079959
97560346,-29.3456,46.17,101678.0,1.2081028
97571318,-29.097223,46.17,101675.0,1.2080672
97582040,-29.3456,46.17,101678.0,1.2081028
97603380,-28.9334,46.17,101673.0,1.2080435
97614372,-29.51471,46.17,101680.0,1.2081265
97625061,-28.9334,46.17,101673.0,1.2080435
97647499,-29.097223,46.17,101675.0,1.2080672
97658353,-28.9334,46.17,101673.0,1.2080435
97668097,-28.68502,46.17,101669.99,1.2080077
97691333,-28.9334,46.17,101673.0,1.2080435
97702360,-29.017954,46.17,101674.0,1.2080553
97712570,-28.436644,46.17,101667.0,1.2079722
97734049,-28.68502,46.17,101669.99,1.2080077
97745045,-28.9334,46.17,101673.0,1.2080435
97756040,-28.9334,46.17,101673.0,1.2080435
97777045,-29.430155,46.17,101679.0,1.2081147
97788078,-28.76429,46.17,101671.0,1.2080196
97798164,-28.68502,46.17,101669.99,1.2080077
97820049,-28.848845,46.17,101672.0,1.2080315
97831409,-28.76429,46.17,101671.0,1.2080196
97842040,-28.848845,46.17,101672.0,1.2080315
97863370,-28.848845,46.17,101672.0,1.2080315
97874045,-28.848845,46.17,101672.0,1.2080315
97885040,-28.515913,46.17,101668.0,1.207984
97906155,-29.181776,46.17,101675.99,1.208079
97916077,-28.76429,46.17,101671.0,1.2080196
97928272,-28.76429,46.17,101671.0,1.2080196
97949045,-29.430155,46.17,101679.0,1.2081147
97961014,-28.76429,46.17,101671.0,1.2080196
97971346,-28.68502,46.17,101669.99,1.2080077
97993045,-29.017954,46.17,101674.0,1.2080553
98004045,-29.097223,46.17,101675.0,1.2080672
98015350,-29.26633,46.17,101676.99,1.2080909
98036107,-29.181776,46.17,101675.99,1.208079
98047354,-28.9334,46.17,101673.0,1.2080435
98057092,-29.097223,46.17,101675.0,1.2080672
98078170,-29.017954,46.17,101674.0,1.2080553
98088985,-29.017954,46.17,101674.0,1.2080553
98100021,-29.097223,46.17,101675.0,1.2080672
98122019,-29.097223,46.18,101675.0,1.2080672
98133016,-28.9334,46.18,101673.0,1.2080435
98143019,-28.76429,46.18,101671.0,1.2080196
98164051,-29.599264,46.17,101681.0,1.2081385
98174046,-29.26633,46.17,101676.99,1.2080909
98185046,-28.76429,46.17,101671.0,1.2080196
98208374,-29.017954,46.18,101674.0,1.2080553
98219421,-28.68502,46.18,101669.99,1.2080077
98230078,-29.097223,46.18,101675.0,1.2080672
98252591,-29.097223,46.17,101675.0,1.2080672
98263357,-28.76429,46.17,101671.0,1.2080196
98274169,-29.26633,46.17,101676.99,1.2080909
98296050,-29.181776,46.18,101675.99,1.208079
98307153,-29.097223,46.18,101675.0,1.2080672
98318040,-28.76429,46.18,101671.0,1.2080196
98339125,-29.181776,46.18,101675.99,1.208079
98349045,-29.181776,46.18,101675.99,1.208079
98359433,-29.017954,46.18,101674.0,1.2080553
98380076,-29.181776,46.17,101675.99,1.208079
98391341,-29.097223,46.17,101675.0,1.2080672
98402040,-28.515913,46.17,101668.0,1.207984
98424064,-28.848845,46.18,101672.0,1.2080315
98434044,-29.017954,46.18,101674.0,1.2080553
98445040,-28.848845,46.18,101672.0,1.2080315
98467124,-29.097223,46.18,101675.0,1.2080672
98478077,-28.848845,46.18,101672.0,1.2080315
98489040,-28.68502,46.18,101669.99,1.2080077
98510045,-29.097223,46.18,101675.0,1.2080672
98520997,-29.017954,46.18,101674.0,1.2080553
98532016,-29.097223,46.18,101675.0,1.2080672
98555141,-29.430155,46.18,101679.0,1.2081147
98567994,-28.68502,46.18,101669.99,1.2080077
98579107,-28.9334,46.18,101673.0,1.2080435
98601032,-29.26633,46.18,101676.99,1.2080909
98612022,-29.26633,46.18,101676.99,1.2080909
98623591,-28.9334,46.18,101673.0,1.2080435
98644016,-29.097223,46.18,101675.0,1.2080672
98655432,-29.017954,46.18,101674.0,1.2080553
98665016,-28.76429,46.18,101671.0,1.2080196
98687983,-29.017954,46.18,101674.0,1.2080553
98699018,-29.430155,46.18,101679.0,1.2081147
98709021,-29.017954,46.18,101674.0,1.2080553
98729020,-28.9334,46.18,101673.0,1.2080435
98740065,-28.848845,46.18,101672.0,1.2080315
98751428,-28.848845,46.18,101672.0,1.2080315
98773024,-28.68502,46.18,101669.99,1.2080077
98784061,-29.3456,46.18,101678.0,1.2081028
98795102,-28.848845,46.18,101672.0,1.2080315
98817039,-28.68502,46.18,101669.99,1.2080077
98828016,-28.600466,46.18,101669.0,1.2079959
98839442,-29.097223,46.18,101675.0,1.2080672
98861016,-28.600466,46.18,101669.0,1.2079959
98872230,-29.097223,46.18,101675.0,1.2080672
98883268,-28.68502,46.18,101669.99,1.2080077
98904200,-29.017954,46.18,101674.0,1.2080553
98915016,-28.76429,46.18,101671.0,1.2080196
98925061,-29.181776,46.18,101675.99,1.208079
98946162,-28.68502,46.18,101669.99,1.2080077
98957016,-29.181776,46.18,101675.99,1.208079
98968130,-29.51471,46.18,101680.0,1.2081265
98991152,-29.3456,46.19,101678.0,1.2081028
99002475,-28.848845,46.19,101672.0,1.2080315
99013405,-28.76429,46.19,101671.0,1.2080196
99034184,-28.848845,46.18,101672.0,1.2080315
99045059,-29.097223,46.18,101675.0,1.2080672
99056040,-28.76429,46.18,101671.0,1.2080196
99078572,-29.26633,46.18,101676.99,1.2080909
99089045,-28.9334,46.18,101673.0,1.2080435
99100070,-28.9334,46.18,101673.0,1.2080435
99122683,-28.848845,46.18,101672.0,1.2080315
99133085,-28.515913,46.18,101668.0,1.207984
99144043,-29.017954,46.18,101674.0,1.2080553
99165061,-29.26633,46.18,101676.99,1.2080909
99176045,-29.017954,46.18,101674.0,1.2080553
99186201,-28.9334,46.18,101673.0,1.2080435
99208086,-29.26633,46.18,101676.99,1.2080909
99218214,-29.3456,46.18,101678.0,1.2081028
99228073,-29.097223,46.18,101675.0,1.2080672
99250410,-29.097223,46.18,101675.0,1.2080672
99261056,-28.9334,46.18,101673.0,1.2080435
99272052,-29.017954,46.18,101674.0,1.2080553
99294783,-29.017954,46.18,101674.0,1.2080553
99304045,-29.097223,46.18,101675.0,1.2080672
99315133,-29.181776,46.18,101675.99,1.208079
99338398,-29.017954,46.18,101674.0,1.2080553
99349045,-29.26633,46.18,101676.99,1.2080909
99359162,-28.76429,46.18,101671.0,1.2080196
99381374,-28.76429,46.18,101671.0,1.2080196
99391220,-28.76429,46.18,101671.0,1.2080196
99402179,-28.436644,46.18,101667.0,1.2079722
99424049,-29.3456,46.19,101678.0,1.2081028
99434143,-29.017954,46.19,101674.0,1.2080553
99445042,-29.017954,46.19,101674.0,1.2080553
99466319,-29.26633,46.19,101676.99,1.2080909
99477045,-29.430155,46.19,101679.0,1.2081147
99488040,-28.9334,46.19,101673.0,1.2080435
99509075,-28.76429,46.18,101671.0,1.2080196
99519357,-29.017954,46.18,101674.0,1.2080553
99530197,-29.181776,46.18,101675.99,1.208079
99552051,-29.097223,46.18,101675.0,1.2080672
99563169,-29.181776,46.18,101675.99,1.208079
99574852,-28.848845,46.18,101672.0,1.2080315
99596045,-28.9334,46.19,101673.0,1.2080435
99607456,-29.3456,46.19,101678.0,1.2081028
99618179,-29.181776,46.19,101675.99,1.208079
99640056,-29.181776,46.19,101675.99,1.208079
99650338,-28.9334,46.19,101673.0,1.2080435
99661043,-29.097223,46.19,101675.0,1.2080672
99683252,-28.9334,46.19,101673.0,1.2080435
99695215,-28.76429,46.19,101671.0,1.2080196
99706201,-29.017954,46.19,101674.0,1.2080553
99728097,-29.430155,46.19,101679.0,1.2081147
99739131,-29.017954,46.19,101674.0,1.2080553
99751120,-29.097223,46.19,101675.0,1.2080672
99774644,-29.26633,46.18,101676.99,1.2080909
99785126,-29.097223,46.18,101675.0,1.2080672
99795146,-28.68502,46.18,101669.99,1.2080077
99816048,-28.848845,46.18,101672.0,1.2080315
99827365,-29.26633,46.18,101676.99,1.2080909
99838546,-28.848845,46.18,101672.0,1.2080315
99860045,-29.097223,46.18,101675.0,1.2080672
99871351,-28.9334,46.18,101673.0,1.2080435
99882040,-29.097223,46.18,101675.0,1.2080672
99902045,-29.097223,46.19,101675.0,1.2080672
99913593,-29.017954,46.19,101674.0,1.2080553
99924061,-28.436644,46.19,101667.0,1.2079722
99944045,-28.68502,46.18,101669.99,1.2080077
99955126,-29.017954,46.18,101674.0,1.2080553
99966042,-28.9334,46.18,101673.0,1.2080435
99988045,-29.26633,46.19,101676.99,1.2080909
99999128,-29.017954,46.19,101674.0,1.2080553
100009587,-29.181776,46.19,101675.99,1.208079
100030845,-28.9334,46.19,101673.0,1.2080435
100041508,-28.68502,46.19,101669.99,1.2080077
100052359,-28.9334,46.19,101673.0,1.2080435
100073406,-28.848845,46.19,101672.0,1.2080315
100083121,-28.848845,46.19,101672.0,1.2080315
100094040,-28.436644,46.19,101667.0,1.2079722
100116124,-29.017954,46.18,101674.0,1.2080553
100126456,-28.68502,46.18,101669.99,1.2080077
100137520,-28.68502,46.18,101669.99,1.2080077
100158170,-28.9334,46.19,101673.0,1.2080435
100169552,-28.9334,46.19,101673.0,1.2080435
100180043,-29.097223,46.19,101675.0,1.2080672
100201581,-29.017954,46.19,101674.0,1.2080553
100212045,-29.017954,46.19,101674.0,1.2080553
100223122,-29.097223,46.19,101675.0,1.2080672
100246589,-29.097223,46.19,101675.0,1.2080672
100257404,-28.76429,46.19,101671.0,1.2080196
100268045,-28.76429,46.19,101671.0,1.2080196
100289577,-29.3456,46.19,101678.0,1.2081028
100300361,-28.68502,46.19,101669.99,1.2080077
100310478,-29.097223,46.19,101675.0,1.2080672
100332059,-29.430155,46.19,101679.0,1.2081147
100343138,-28.9334,46.19,101673.0,1.2080435
100354040,-28.600466,46.19,101669.0,1.2079959
100375132,-29.181776,46.19,101675.99,1.208079
100385346,-28.76429,46.19,101671.0,1.2080196
100396387,-28.68502,46.19,101669.99,1.2080077
100417505,-29.097223,46.19,101675.0,1.2080672
100428097,-28.76429,46.19,101671.0,1.2080196
100439119,-29.097223,46.19,101675.0,1.2080672
100460048,-29.181776,46.2,101675.99,1.208079
100470650,-28.848845,46.2,101672.0,1.2080315
100481381,-28.9334,46.2,101673.0,1.2080435
100503123,-29.017954,46.2,101674.0,1.2080553
100513525,-29.26633,46.2,101676.99,1.2080909
100524040,-29.017954,46.2,101674.0,1.2080553
100545497,-29.51471,46.19,101680.0,1.2081265
100557066,-28.68502,46.19,101669.99,1.2080077
100568040,-28.9334,46.19,101673.0,1.2080435
100590045,-29.097223,46.19,101675.0,1.2080672
100602414,-28.848845,46.19,101672.0,1.2080315
100613100,-28.68502,46.19,101669.99,1.2080077
100636551,-29.26633,46.19,101676.99,1.2080909
100647376,-28.848845,46.19,101672.0,1.2080315
100657044,-28.76429,46.19,101671.0,1.2080196
100678158,-28.848845,46.19,101672.0,1.2080315
100689840,-28.848845,46.19,101672.0,1.2080315
100700557,-28.600466,46.19,101669.0,1.2079959
100721145,-29.430155,46.19,101679.0,1.2081147
100732581,-29.097223,46.19,101675.0,1.2080672
100743096,-28.515913,46.19,101668.0,1.207984
100765051,-28.848845,46.19,101672.0,1.2080315
100775110,-28.848845,46.19,101672.0,1.2080315
100786187,-28.68502,46.19,101669.99,1.2080077
100809543,-29.26633,46.2,101676.99,1.2080909
100820695,-28.76429,46.2,101671.0,1.2080196
100831443,-28.9334,46.2,101673.0,1.2080435
100852852,-28.9334,46.19,101673.0,1.2080435
100863096,-29.26633,46.19,101676.99,1.2080909
100874066,-28.436644,46.19,101667.0,1.2079722
100895097,-29.3456,46.19,101678.0,1.2081028
100906049,-28.9334,46.19,101673.0,1.2080435
100916815,-29.26633,46.19,101676.99,1.2080909
100937332,-28.848845,46.2,101672.0,1.2080315
100948630,-28.68502,46.2,101669.99,1.2080077
100959040,-29.097223,46.2,101675.0,1.2080672
100980699,-29.181776,46.2,101675.99,1.208079
100991109,-28.76429,46.2,101671.0,1.2080196
101002161,-29.017954,46.2,101674.0,1.2080553
101023474,-29.017954,46.2,101674.0,1.2080553
101033844,-29.430155,46.2,101679.0,1.2081147
101044831,-28.600466,46.2,101669.0,1.2079959
101065627,-28.9334,46.2,101673.0,1.2080435
101076811,-29.181776,46.2,101675.99,1.208079
101087214,-29.430155,46.2,101679.0,1.2081147
101108771,-29.26633,46.2,101676.99,1.2080909
101119102,-29.181776,46.2,101675.99,1.208079
101129681,-29.097223,46.2,101675.0,1.2080672
101151096,-28.515913,46.2,101668.0,1.207984
101161048,-28.9334,46.2,101673.0,1.2080435
101172789,-29.097223,46.2,101675.0,1.2080672
101193096,-28.848845,46.2,101672.0,1.2080315
101204869,-28.9334,46.2,101673.0,1.2080435
101215150,-29.017954,46.2,101674.0,1.2080553
101236752,-28.848845,46.2,101672.0,1.2080315
101247423,-28.76429,46.2,101671.0,1.2080196
101257063,-28.76429,46.2,101671.0,1.2080196
101279099,-29.181776,46.2,101675.99,1.208079
101290045,-28.600466,46.2,101669.0,1.2079959
101301040,-29.26633,46.2,101676.99,1.2080909
101323045,-28.9334,46.2,101673.0,1.2080435
101334045,-28.76429,46.2,101671.0,1.2080196
101344159,-29.017954,46.2,101674.0,1.2080553
101366142,-28.9334,46.2,101673.0,1.2080435
101377046,-28.515913,46.2,101668.0,1.207984
101388073,-29.678534,46.2,101682.0,1.2081504
101408540,-28.9334,46.2,101673.0,1.2080435
101418041,-29.097223,46.2,101675.0,1.2080672
101429041,-28.76429,46.2,101671.0,1.2080196
101451318,-28.76429,46.2,101671.0,1.2080196
101462050,-29.678534,46.2,101682.0,1.2081504
101473040,-28.9334,46.2,101673.0,1.2080435
101495341,-29.017954,46.2,101674.0,1.2080553
101505206,-29.017954,46.2,101674.0,1.2080553
101516083,-29.017954,46.2,101674.0,1.2080553
101539428,-29.017954,46.2,101674.0,1.2080553
101550045,-28.848845,46.2,101672.0,1.2080315
101560298,-29.017954,46.2,101674.0,1.2080553
101582050,-29.097223,46.2,101675.0,1.2080672
101593045,-28.68502,46.2,101669.99,1.2080077
101604046,-29.097223,46.2,101675.0,1.2080672
101626045,-29.51471,46.2,101680.0,1.2081265
101637048,-28.515913,46.2,101668.0,1.207984
101648949,-29.097223,46.2,101675.0,1.2080672
101669075,-28.848845,46.2,101672.0,1.2080315
101680357,-28.68502,46.2,101669.99,1.2080077
101691348,-29.097223,46.2,101675.0,1.2080672
101713054,-28.9334,46.2,101673.0,1.2080435
101724465,-28.600466,46.2,101669.0,1.2079959
101735304,-28.76429,46.2,101671.0,1.2080196
101757057,-28.9334,46.21,101673.0,1.2080435
101768702,-29.017954,46.21,101674.0,1.2080553
101779952,-29.017954,46.21,101674.0,1.2080553
101800299,-28.515913,46.2,101668.0,1.207984
101811369,-28.68502,46.2,101669.99,1.2080077
101822040,-29.097223,46.2,101675.0,1.2080672
101844048,-28.9334,46.2,101673.0,1.2080435
101854050,-28.848845,46.2,101672.0,1.2080315
101864266,-29.181776,46.2,101675.99,1.208079
101886045,-29.3456,46.2,101678.0,1.2081028
101897045,-28.848845,46.2,101672.0,1.2080315
101908040,-29.017954,46.2,101674.0,1.2080553
101928824,-29.26633,46.21,101676.99,1.2080909
101939443,-29.017954,46.21,101674.0,1.2080553
101950506,-29.097223,46.21,101675.0,1.2080672
101972353,-29.26633,46.21,101676.99,1.2080909
101983310,-28.848845,46.21,101672.0,1.2080315
101994354,-28.9334,46.21,101673.0,1.2080435
102016221,-28.76429,46.2,101671.0,1.2080196
102026524,-29.181776,46.2,101675.99,1.208079
102037040,-28.848845,46.2,101672.0,1.2080315
102060047,-28.848845,46.21,101672.0,1.2080315
102070045,-28.76429,46.21,101671.0,1.2080196
102081040,-28.68502,46.21,101669.99,1.2080077
102102048,-28.68502,46.21,101669.99,1.2080077
102113045,-28.848845,46.21,101672.0,1.2080315
102124040,-28.848845,46.21,101672.0,1.2080315
102147124,-29.430155,46.2,101679.0,1.2081147
102158871,-28.76429,46.2,101671.0,1.2080196
102169045,-29.017954,46.2,101674.0,1.2080553
102189050,-29.26633,46.2,101676.99,1.2080909
102200364,-28.68502,46.2,101669.99,1.2080077
102211145,-28.848845,46.2,101672.0,1.2080315
102234045,-28.76429,46.2,101671.0,1.2080196
102245431,-29.430155,46.2,101679.0,1.2081147
102256099,-28.68502,46.2,101669.99,1.2080077
102278172,-29.017954,46.21,101674.0,1.2080553
102289432,-28.9334,46.21,101673.0,1.2080435
102299183,-28.68502,46.21,101669.99,1.2080077
102321049,-29.097223,46.2,101675.0,1.2080672
102331121,-28.9334,46.2,101673.0,1.2080435
102342040,-28.76429,46.2,101671.0,1.2080196
102363124,-29.097223,46.2,101675.0,1.2080672
102374155,-28.68502,46.2,101669.99,1.2080077
102385040,-28.352089,46.2,101666.0,1.2079602
102407554,-29.097223,46.21,101675.0,1.2080672
102418045,-28.9334,46.21,101673.0,1.2080435
102429419,-29.097223,46.21,101675.0,1.2080672
102451461,-28.9334,46.21,101673.0,1.2080435
102462165,-29.017954,46.21,101674.0,1.2080553
102473381,-29.017954,46.21,101674.0,1.2080553
102495373,-28.9334,46.21,101673.0,1.2080435
102505061,-28.848845,46.21,101672.0,1.2080315
102516041,-28.9334,46.21,101673.0,1.2080435
102538045,-29.017954,46.21,101674.0,1.2080553
102549045,-28.76429,46.21,101671.0,1.2080196
102560043,-29.26633,46.21,101676.99,1.2080909
102581061,-29.181776,46.21,101675.99,1.208079
102592045,-28.9334,46.21,101673.0,1.2080435
102603116,-29.017954,46.21,101674.0,1.2080553
102625074,-29.26633,46.21,101676.99,1.2080909
102635148,-29.26633,46.21,101676.99,1.2080909
102646044,-28.68502,46.21,101669.99,1.2080077
102667210,-29.017954,46.21,101674.0,1.2080553
102679443,-29.3456,46.21,101678.0,1.2081028
102690040,-29.181776,46.21,101675.99,1.208079
102712056,-28.9334,46.21,101673.0,1.2080435
102723479,-29.097223,46.21,101675.0,1.2080672
102734170,-29.097223,46.21,101675.0,1.2080672
102755217,-29.181776,46.21,101675.99,1.208079
102767384,-28.76429,46.21,101671.0,1.2080196
102778080,-29.181776,46.21,101675.99,1.208079
102799570,-29.3456,46.21,101678.0,1.2081028
102810050,-28.848845,46.21,101672.0,1.2080315
102821045,-29.097223,46.21,101675.0,1.2080672
102843159,-29.097223,46.21,101675.0,1.2080672
102854196,-28.848845,46.21,101672.0,1.2080315
102865039,-28.600466,46.21,101669.0,1.2079959
102886049,-28.515913,46.21,101668.0,1.207984
102897049,-29.26633,46.21,101676.99,1.2080909
102908044,-28.848845,46.21,101672.0,1.2080315
102930608,-29.26633,46.21,101676.99,1.2080909
102941082,-29.26633,46.21,101676.99,1.2080909
102952044,-28.76429,46.21,101671.0,1.2080196
102974171,-29.181776,46.21,101675.99,1.208079
102984045,-29.181776,46.21,101675.99,1.208079
102995116,-28.9334,46.21,101673.0,1.2080435
103017376,-29.097223,46.21,101675.0,1.2080672
103027801,-29.017954,46.21,101674.0,1.2080553
103038186,-28.76429,46.21,101671.0,1.2080196
103060096,-28.9334,46.21,101673.0,1.2080435
103071124,-28.68502,46.21,101669.99,1.2080077
103082787,-29.181776,46.21,101675.99,1.208079
103104167,-28.848845,46.21,101672.0,1.2080315
103115181,-29.017954,46.21,101674.0,1.2080553
103125092,-28.848845,46.21,101672.0,1.2080315
103147055,-29.017954,46.219997,101674.0,1.2080553
103158214,-29.181776,46.219997,101675.99,1.208079
103169048,-28.68502,46.219997,101669.99,1.2080077
103190324,-28.68502,46.21,101669.99,1.2080077
103201045,-28.848845,46.21,101672.0,1.2080315
103212070,-28.9334,46.21,101673.0,1.2080435
103233050,-29.181776,46.219997,101675.99,1.208079
103243558,-29.097223,46.219997,101675.0,1.2080672
103254175,-28.848845,46.219997,101672.0,1.2080315
103276053,-29.097223,46.219997,101675.0,1.2080672
103286212,-28.76429,46.219997,101671.0,1.2080196
103296051,-28.9334,46.219997,101673.0,1.2080435
103318150,-28.9334,46.219997,101673.0,1.2080435
103329108,-28.848845,46.219997,101672.0,1.2080315
103340066,-29.181776,46.219997,101675.99,1.208079
103361045,-29.26633,46.219997,101676.99,1.2080909
103371280,-28.76429,46.219997,101671.0,1.2080196
103382158,-29.017954,46.219997,101674.0,1.2080553
103403122,-28.9334,46.219997,101673.0,1.2080435
103413097,-28.76429,46.219997,101671.0,1.2080196
103424349,-29.017954,46.219997,101674.0,1.2080553
103446518,-28.76429,46.219997,101671.0,1.2080196
103457045,-29.097223,46.219997,101675.0,1.2080672
103468345,-28.848845,46.219997,101672.0,1.2080315
103489417,-28.9334,46.219997,101673.0,1.2080435
103499983,-29.3456,46.219997,101678.0,1.2081028
103511097,-28.68502,46.219997,101669.99,1.2080077
103532016,-29.017954,46.219997,101674.0,1.2080553
103543166,-28.76429,46.219997,101671.0,1.2080196
103553016,-29.017954,46.219997,101674.0,1.2080553
103575019,-29.017954,46.219997,101674.0,1.2080553
103586549,-29.097223,46.219997,101675.0,1.2080672
103597016,-28.600466,46.219997,101669.0,1.2079959
103619190,-28.9334,46.219997,101673.0,1.2080435
103630019,-28.600466,46.219997,101669.0,1.2079959
103641858,-29.26633,46.219997,101676.99,1.2080909
103661397,-28.9334,46.219997,101673.0,1.2080435
103671016,-29.26633,46.219997,101676.99,1.2080909
103681030,-29.097223,46.219997,101675.0,1.2080672
103703016,-29.181776,46.23,101675.99,1.208079
103714021,-29.017954,46.23,101674.0,1.2080553
103725564,-28.848845,46.23,101672.0,1.2080315
103747193,-29.017954,46.219997,101674.0,1.2080553
103757493,-28.9334,46.219997,101673.0,1.2080435
103768016,-29.181776,46.219997,101675.99,1.208079
103790016,-28.848845,46.219997,101672.0,1.2080315
103800016,-28.68502,46.219997,101669.99,1.2080077
103811016,-28.9334,46.219997,101673.0,1.2080435
103832322,-29.26633,46.23,101676.99,1.2080909
103843016,-29.097223,46.23,101675.0,1.2080672
103854340,-29.017954,46.23,101674.0,1.2080553
103876327,-28.848845,46.23,101672.0,1.2080315
103887016,-29.181776,46.23,101675.99,1.208079
103898948,-29.097223,46.23,101675.0,1.2080672
103920331,-29.3456,46.219997,101678.0,1.2081028
103930409,-29.181776,46.219997,101675.99,1.208079
103941563,-28.600466,46.219997,101669.0,1.2079959
103963131,-29.430155,46.219997,101679.0,1.2081147
103974015,-28.9334,46.219997,101673.0,1.2080435
103985771,-29.017954,46.219997,101674.0,1.2080553
104007016,-29.097223,46.219997,101675.0,1.2080672
104018016,-28.436644,46.219997,101667.0,1.2079722
104029543,-28.76429,46.219997,101671.0,1.2080196
104050044,-28.515913,46.219997,101668.0,1.207984
104061367,-29.097223,46.219997,101675.0,1.2080672
104072066,-29.017954,46.219997,101674.0,1.2080553
104093580,-29.017954,46.219997,101674.0,1.2080553
104104016,-29.430155,46.219997,101679.0,1.2081147
104115016,-28.848845,46.219997,101672.0,1.2080315
104137719,-28.848845,46.219997,101672.0,1.2080315
104148022,-28.600466,46.219997,101669.0,1.2079959
104159016,-28.76429,46.219997,101671.0,1.2080196
104181356,-29.017954,46.23,101674.0,1.2080553
104192016,-29.51471,46.23,101680.0,1.2081265
104202019,-29.26633,46.23,101676.99,1.2080909
104224021,-29.097223,46.219997,101675.0,1.2080672
104235109,-29.017954,46.219997,101674.0,1.2080553
104246016,-28.76429,46.219997,101671.0,1.2080196
104268033,-29.017954,46.23,101674.0,1.2080553
104279016,-28.68502,46.23,101669.99,1.2080077
104290016,-29.097223,46.23,101675.0,1.2080672
104311021,-28.9334,46.23,101673.0,1.2080435
104322350,-29.017954,46.23,101674.0,1.2080553
104332016,-29.181776,46.23,101675.99,1.208079
104354847,-28.9334,46.23,101673.0,1.2080435
104365808,-29.430155,46.23,101679.0,1.2081147
104377160,-29.017954,46.23,101674.0,1.2080553
104399016,-29.017954,46.23,101674.0,1.2080553
104410324,-29.097223,46.23,101675.0,1.2080672
104421105,-28.515913,46.23,101668.0,1.207984
104441061,-28.848845,46.219997,101672.0,1.2080315
104452620,-28.76429,46.219997,101671.0,1.2080196
104463016,-28.9334,46.219997,101673.0,1.2080435
104485017,-29.097223,46.23,101675.0,1.2080672
104496942,-28.848845,46.23,101672.0,1.2080315
104507016,-29.017954,46.23,101674.0,1.2080553
104529686,-29.097223,46.23,101675.0,1.2080672
104540756,-29.017954,46.23,101674.0,1.2080553
104551102,-29.3456,46.23,101678.0,1.2081028
104573015,-29.181776,46.219997,101675.99,1.208079
104585605,-28.848845,46.219997,101672.0,1.2080315
104596603,-29.097223,46.219997,101675.0,1.2080672
104617035,-28.9334,46.219997,101673.0,1.2080435
104627141,-28.76429,46.219997,101671.0,1.2080196
104638356,-29.017954,46.219997,101674.0,1.2080553
104661094,-29.017954,46.219997,101674.0,1.2080553
104673072,-28.515913,46.219997,101668.0,1.207984
104684889,-28.68502,46.219997,101669.99,1.2080077
104706325,-28.9334,46.219997,101673.0,1.2080435
104717021,-28.267534,46.219997,101665.0,1.2079483
104730164,-29.097223,46.219997,101675.0,1.2080672
104753904,-29.26633,46.23,101676.99,1.2080909
104764585,-29.097223,46.23,101675.0,1.2080672
104775392,-29.097223,46.23,101675.0,1.2080672
104796558,-29.181776,46.219997,101675.99,1.208079
104807073,-28.76429,46.219997,101671.0,1.2080196
104818016,-28.848845,46.219997,101672.0,1.2080315
104839072,-29.181776,46.23,101675.99,1.208079
104850016,-28.68502,46.23,101669.99,1.2080077
104860557,-28.76429,46.23,101671.0,1.2080196
104881230,-29.097223,46.219997,101675.0,1.2080672
104892765,-29.097223,46.219997,101675.0,1.2080672
104903027,-28.848845,46.219997,101672.0,1.2080315
104925027,-28.848845,46.23,101672.0,1.2080315
104935016,-28.848845,46.23,101672.0,1.2080315
104946016,-29.181776,46.23,101675.99,1.208079
104967322,-29.017954,46.23,101674.0,1.2080553
104977561,-28.9334,46.23,101673.0,1.2080435
104988757,-28.848845,46.23,101672.0,1.2080315
105009526,-28.76429,46.23,101671.0,1.2080196
105020715,-29.097223,46.23,101675.0,1.2080672
105031101,-29.181776,46.23,101675.99,1.208079
105053029,-29.26633,46.23,101676.99,1.2080909
105063322,-28.9334,46.23,101673.0,1.2080435
105073787,-28.515913,46.23,101668.0,1.207984
105094016,-28.9334,46.239998,101673.0,1.2080435
105105210,-28.848845,46.239998,101672.0,1.2080315
105116579,-29.017954,46.239998,101674.0,1.2080553
105137053,-28.76429,46.239998,101671.0,1.2080196
105148811,-29.017954,46.239998,101674.0,1.2080553
105160251,-29.3456,46.239998,101678.0,1.2081028
105182024,-29.181776,46.23,101675.99,1.208079
105193017,-28.68502,46.23,101669.99,1.2080077
105204058,-28.9334,46.23,101673.0,1.2080435
105225028,-29.181776,46.23,101675.99,1.208079
105236027,-28.848845,46.23,101672.0,1.2080315
105247339,-28.9334,46.23,101673.0,1.2080435
105268016,-29.097223,46.239998,101675.0,1.2080672
105279017,-29.097223,46.239998,101675.0,1.2080672
105289367,-29.3456,46.239998,101678.0,1.2081028
105312201,-28.848845,46.239998,101672.0,1.2080315
105323308,-29.51471,46.239998,101680.0,1.2081265
105334481,-28.848845,46.239998,101672.0,1.2080315
105356332,-28.9334,46.23,101673.0,1.2080435
105367307,-29.017954,46.23,101674.0,1.2080553
105378324,-29.181776,46.23,101675.99,1.208079
105400766,-28.848845,46.23,101672.0,1.2080315
105410035,-29.097223,46.23,101675.0,1.2080672
105421016,-29.181776,46.23,101675.99,1.208079
105442016,-29.26633,46.239998,101676.99,1.2080909
105452016,-28.76429,46.239998,101671.0,1.2080196
105463016,-28.76429,46.239998,101671.0,1.2080196
105484020,-29.181776,46.23,101675.99,1.208079
105496744,-29.26633,46.23,101676.99,1.2080909
105507317,-28.600466,46.23,101669.0,1.2079959
105529016,-28.76429,46.23,101671.0,1.2080196
105540398,-28.848845,46.23,101672.0,1.2080315
105551016,-28.9334,46.23,101673.0,1.2080435
105573016,-28.9334,46.23,101673.0,1.2080435
105584553,-29.097223,46.23,101675.0,1.2080672
105595016,-29.017954,46.23,101674.0,1.2080553
105617016,-29.017954,46.23,101674.0,1.2080553
105628367,-29.017954,46.23,101674.0,1.2080553
105639016,-28.68502,46.23,101669.99,1.2080077
105661019,-29.097223,46.239998,101675.0,1.2080672
105672477,-29.3456,46.239998,101678.0,1.2081028
105683380,-28.68502,46.239998,101669.99,1.2080077
105705016,-29.017954,46.23,101674.0,1.2080553
105716322,-28.68502,46.23,101669.99,1.2080077
105728762,-29.097223,46.23,101675.0,1.2080672
105750016,-28.848845,46.23,101672.0,1.2080315
105760311,-29.097223,46.23,101675.0,1.2080672
105771771,-28.848845,46.23,101672.0,1.2080315
105792431,-29.097223,46.239998,101675.0,1.2080672
105803016,-29.097223,46.239998,101675.0,1.2080672
105814021,-29.097223,46.239998,101675.0,1.2080672
105835016,-29.181776,46.239998,101675.99,1.208079
105846020,-29.430155,46.239998,101679.0,1.2081147
105857016,-29.017954,46.239998,101674.0,1.2080553
105879020,-29.097223,46.239998,101675.0,1.2080672
105890016,-29.097223,46.239998,101675.0,1.2080672
105901016,-28.848845,46.239998,101672.0,1.2080315
105922016,-28.848845,46.239998,101672.0,1.2080315
105933016,-29.181776,46.239998,101675.99,1.208079
105944546,-28.9334,46.239998,101673.0,1.2080435
105967936,-29.017954,46.239998,101674.0,1.2080553
105977022,-29.181776,46.239998,101675.99,1.208079
105988329,-28.600466,46.239998,101669.0,1.2079959
106009531,-28.515913,46.23,101668.0,1.207984
106020019,-29.181776,46.23,101675.99,1.208079
106031764,-29.017954,46.23,101674.0,1.2080553
106052052,-28.76429,46.23,101671.0,1.2080196
106062016,-28.68502,46.23,101669.99,1.2080077
106073016,-28.68502,46.23,101669.99,1.2080077
106094016,-29.181776,46.239998,101675.99,1.208079
106104243,-28.848845,46.239998,101672.0,1.2080315
106115105,-28.600466,46.239998,101669.0,1.2079959
106138137,-29.26633,46.25,101676.99,1.2080909
106149408,-29.097223,46.25,101675.0,1.2080672
106159443,-29.181776,46.25,101675.99,1.208079
106181016,-29.181776,46.25,101675.99,1.208079
106192322,-28.9334,46.25,101673.0,1.2080435
106203016,-29.097223,46.25,101675.0,1.2080672
106223016,-28.9334,46.239998,101673.0,1.2080435
106234016,-28.68502,46.239998,101669.99,1.2080077
106245021,-28.68502,46.239998,101669.99,1.2080077
106267103,-28.600466,46.239998,101669.0,1.2079959
106278022,-28.68502,46.239998,101669.99,1.2080077
106288017,-28.9334,46.239998,101673.0,1.2080435
106311630,-28.76429,46.239998,101671.0,1.2080196
106321366,-28.76429,46.239998,101671.0,1.2080196
106331099,-28.515913,46.239998,101668.0,1.207984
106352016,-29.017954,46.239998,101674.0,1.2080553
106363130,-28.68502,46.239998,101669.99,1.2080077
106374016,-28.76429,46.239998,101671.0,1.2080196
106395016,-28.848845,46.239998,101672.0,1.2080315
106407818,-28.76429,46.239998,101671.0,1.2080196
106417016,-28.9334,46.239998,101673.0,1.2080435
106746607,-28.600466,46.239998,101669.0,1.2079959
106757030,-28.436644,46.239998,101667.0,1.2079722
106768016,-28.76429,46.239998,101671.0,1.2080196
106790375,-29.181776,46.239998,101675.99,1.208079
106800016,-28.76429,46.239998,101671.0,1.2080196
106811111,-28.848845,46.239998,101672.0,1.2080315
107572022,-29.181776,46.25,101675.99,1.208079
107583018,-28.848845,46.25,101672.0,1.2080315
107594397,-28.76429,46.25,101671.0,1.2080196
107616105,-28.76429,46.25,101671.0,1.2080196
107627016,-28.848845,46.25,101672.0,1.2080315
107638052,-28.76429,46.25,101671.0,1.2080196
107659449,-28.9334,46.25,101673.0,1.2080435
107669588,-28.76429,46.25,101671.0,1.2080196
107680360,-29.097223,46.25,101675.0,1.2080672
107702027,-28.848845,46.25,101672.0,1.2080315
107712025,-29.017954,46.25,101674.0,1.2080553
107723029,-28.600466,46.25,101669.0,1.2079959
107744016,-29.097223,46.25,101675.0,1.2080672
107754651,-28.68502,46.25,101669.99,1.2080077
107765351,-28.267534,46.25,101665.0,1.2079483
107786704,-29.430155,46.25,101679.0,1.2081147
107797244,-29.430155,46.25,101679.0,1.2081147
107808016,-28.9334,46.25,101673.0,1.2080435
107830016,-29.26633,46.25,101676.99,1.2080909
107840016,-28.600466,46.25,101669.0,1.2079959
107851016,-29.26633,46.25,101676.99,1.2080909
107872322,-28.9334,46.25,101673.0,1.2080435
107882331,-28.68502,46.25,101669.99,1.2080077
107893549,-29.181776,46.25,101675.99,1.208079
107914018,-28.848845,46.25,101672.0,1.2080315
107925576,-28.848845,46.25,101672.0,1.2080315
107936046,-28.76429,46.25,101671.0,1.2080196
107958021,-29.181776,46.26,101675.99,1.208079
107970708,-29.017954,46.26,101674.0,1.2080553
107981240,-28.9334,46.26,101673.0,1.2080435
108002016,-29.017954,46.25,101674.0,1.2080553
108013563,-29.017954,46.25,101674.0,1.2080553
108024016,-28.68502,46.25,101669.99,1.2080077
108045364,-29.181776,46.26,101675.99,1.208079
108056322,-28.76429,46.26,101671.0,1.2080196
108067016,-29.430155,46.26,101679.0,1.2081147
108087098,-28.68502,46.26,101669.99,1.2080077
108098612,-28.76429,46.26,101671.0,1.2080196
108109545,-28.848845,46.26,101672.0,1.2080315
108132545,-28.848845,46.25,101672.0,1.2080315
108143016,-28.848845,46.25,101672.0,1.2080315
108154026,-28.848845,46.25,101672.0,1.2080315
108175113,-29.097223,46.26,101675.0,1.2080672
108186922,-28.515913,46.26,101668.0,1.207984
108197363,-29.51471,46.26,101680.0,1.2081265
108217508,-29.097223,46.26,101675.0,1.2080672
108228029,-28.9334,46.26,101673.0,1.2080435
108239476,-29.017954,46.26,101674.0,1.2080553
108260547,-28.515913,46.26,101668.0,1.207984
108271073,-29.678534,46.26,101682.0,1.2081504
108282016,-28.848845,46.26,101672.0,1.2080315
108303016,-28.9334,46.26,101673.0,1.2080435
108314033,-29.017954,46.26,101674.0,1.2080553
108324894,-28.68502,46.26,101669.99,1.2080077
108345066,-28.9334,46.27,101673.0,1.2080435
108356705,-28.848845,46.27,101672.0,1.2080315
108367016,-29.181776,46.27,101675.99,1.208079
108388552,-28.848845,46.26,101672.0,1.2080315
108399016,-28.76429,46.26,101671.0,1.2080196
108410016,-28.9334,46.26,101673.0,1.2080435
108431322,-28.68502,46.26,101669.99,1.2080077
108441666,-28.76429,46.26,101671.0,1.2080196
108452604,-28.9334,46.26,101673.0,1.2080435
108473069,-28.68502,46.26,101669.99,1.2080077
108484594,-28.848845,46.26,101672.0,1.2080315
108495019,-28.600466,46.26,101669.0,1.2079959
108516590,-28.9334,46.26,101673.0,1.2080435
108527440,-28.515913,46.26,101668.0,1.207984
108537608,-28.9334,46.26,101673.0,1.2080435
108558016,-28.848845,46.27,101672.0,1.2080315
108569028,-29.181776,46.27,101675.99,1.208079
108580595,-29.097223,46.27,101675.0,1.2080672
108601188,-28.515913,46.26,101668.0,1.207984
108612934,-28.515913,46.26,101668.0,1.207984
108623016,-29.017954,46.26,101674.0,1.2080553
108645028,-28.9334,46.26,101673.0,1.2080435
108655116,-29.181776,46.26,101675.99,1.208079
108666016,-28.848845,46.26,101672.0,1.2080315
108687387,-29.017954,46.26,101674.0,1.2080553
108697627,-28.515913,46.26,101668.0,1.207984
108708561,-28.515913,46.26,101668.0,1.207984
108730054,-28.9334,46.27,101673.0,1.2080435
108741019,-28.76429,46.27,101671.0,1.2080196
108751092,-29.430155,46.27,101679.0,1.2081147
108772850,-28.68502,46.26,101669.99,1.2080077
108783379,-28.9334,46.26,101673.0,1.2080435
108793799,-28.76429,46.26,101671.0,1.2080196
108815112,-29.181776,46.26,101675.99,1.208079
108825767,-28.68502,46.26,101669.99,1.2080077
108836573,-29.181776,46.26,101675.99,1.208079
108857020,-28.848845,46.26,101672.0,1.2080315
108868520,-28.600466,46.26,101669.0,1.2079959
108880519,-28.68502,46.26,101669.99,1.2080077
108901419,-29.017954,46.27,101674.0,1.2080553
108913017,-28.267534,46.27,101665.0,1.2079483
108923395,-29.017954,46.27,101674.0,1.2080553
108945384,-28.76429,46.27,101671.0,1.2080196
108956556,-28.9334,46.27,101673.0,1.2080435
108968168,-28.848845,46.27,101672.0,1.2080315
108990324,-28.848845,46.27,101672.0,1.2080315
109001016,-28.515913,46.27,101668.0,1.207984
109012390,-28.9334,46.27,101673.0,1.2080435
109034325,-29.181776,46.26,101675.99,1.208079
109045061,-28.76429,46.26,101671.0,1.2080196
109057061,-28.76429,46.26,101671.0,1.2080196
109081098,-29.017954,46.27,101674.0,1.2080553
109091332,-28.9334,46.27,101673.0,1.2080435
109102325,-29.181776,46.27,101675.99,1.208079
109124322,-29.097223,46.26,101675.0,1.2080672
109135016,-28.436644,46.26,101667.0,1.2079722
109146325,-28.76429,46.26,101671.0,1.2080196
109168763,-28.9334,46.26,101673.0,1.2080435
109179016,-28.76429,46.26,101671.0,1.2080196
109190504,-28.848845,46.26,101672.0,1.2080315
109212332,-29.097223,46.26,101675.0,1.2080672
109223318,-28.68502,46.26,101669.99,1.2080077
109234366,-28.68502,46.26,101669.99,1.2080077
109257104,-28.68502,46.26,101669.99,1.2080077
109268016,-28.436644,46.26,101667.0,1.2079722
109280813,-29.097223,46.26,101675.0,1.2080672
109302322,-28.848845,46.26,101672.0,1.2080315
109312284,-28.68502,46.26,101669.99,1.2080077
109323016,-29.017954,46.26,101674.0,1.2080553
109345017,-28.600466,46.27,101669.0,1.2079959
109356057,-28.76429,46.27,101671.0,1.2080196
109367303,-28.600466,46.27,101669.0,1.2079959
109389016,-28.76429,46.27,101671.0,1.2080196
109399018,-28.352089,46.27,101666.0,1.2079602
109410016,-28.352089,46.27,101666.0,1.2079602
109430016,-28.76429,46.27,101671.0,1.2080196
109441535,-28.10371,46.27,101663.0,1.2079246
109452022,-28.600466,46.27,101669.0,1.2079959
109475351,-28.9334,46.27,101673.0,1.2080435
109486400,-28.76429,46.27,101671.0,1.2080196
109496230,-29.017954,46.27,101674.0,1.2080553
109519019,-28.848845,46.27,101672.0,1.2080315
109530356,-28.600466,46.27,101669.0,1.2079959
109541016,-28.848845,46.27,101672.0,1.2080315
109562047,-29.26633,46.27,101676.99,1.2080909
109573030,-28.68502,46.27,101669.99,1.2080077
109584431,-28.267534,46.27,101665.0,1.2079483
109605016,-29.017954,46.27,101674.0,1.2080553
109616183,-28.68502,46.27,101669.99,1.2080077
109627642,-28.18298,46.27,101663.99,1.2079364
109649016,-29.51471,46.27,101680.0,1.2081265
109660061,-28.76429,46.27,101671.0,1.2080196
109672218,-28.515913,46.27,101668.0,1.207984
109694016,-29.181776,46.27,101675.99,1.208079
109705016,-28.68502,46.27,101669.99,1.2080077
109716016,-28.600466,46.27,101669.0,1.2079959
109737021,-29.181776,46.27,101675.99,1.208079
109748016,-28.848845,46.27,101672.0,1.2080315
109760337,-28.68502,46.27,101669.99,1.2080077
109782016,-28.848845,46.27,101672.0,1.2080315
109793126,-28.76429,46.27,101671.0,1.2080196
109804060,-28.848845,46.27,101672.0,1.2080315
109825092,-29.181776,46.27,101675.99,1.208079
109836016,-28.436644,46.27,101667.0,1.2079722
109847484,-28.76429,46.27,101671.0,1.2080196
109868327,-28.9334,46.27,101673.0,1.2080435
109878028,-28.76429,46.27,101671.0,1.2080196
109889380,-28.515913,46.27,101668.0,1.207984
109911595,-28.352089,46.27,101666.0,1.2079602
109921334,-28.76429,46.27,101671.0,1.2080196
109932016,-28.515913,46.27,101668.0,1.207984
109955016,-29.26633,46.28,101676.99,1.2080909
109966016,-28.515913,46.28,101668.0,1.207984
109977016,-28.515913,46.28,101668.0,1.207984
109998019,-28.18298,46.27,101663.99,1.2079364
110008433,-28.436644,46.27,101667.0,1.2079722
110019019,-28.267534,46.27,101665.0,1.2079483
110042020,-28.76429,46.27,101671.0,1.2080196
110053525,-27.934603,46.27,101661.0,1.2079009
110063388,-27.934603,46.27,101661.0,1.2079009
110085021,-28.515913,46.28,101668.0,1.207984
110096016,-28.848845,46.28,101672.0,1.2080315
110107016,-28.267534,46.28,101665.0,1.2079483
110129016,-28.9334,46.27,101673.0,1.2080435
110140016,-28.68502,46.27,101669.99,1.2080077
110151533,-28.68502,46.27,101669.99,1.2080077
110173016,-28.10371,46.27,101663.0,1.2079246
110184016,-28.436644,46.27,101667.0,1.2079722
110195109,-27.686224,46.27,101657.99,1.2078651
110217061,-28.848845,46.28,101672.0,1.2080315
110227017,-28.68502,46.28,101669.99,1.2080077
110238115,-28.600466,46.28,101669.0,1.2079959
110260020,-28.352089,46.28,101666.0,1.2079602
110271619,-29.017954,46.28,101674.0,1.2080553
110282021,-28.68502,46.28,101669.99,1.2080077
110304025,-28.68502,46.28,101669.99,1.2080077
110315103,-28.848845,46.28,101672.0,1.2080315
110325016,-28.848845,46.28,101672.0,1.2080315
110346961,-28.68502,46.28,101669.99,1.2080077
110357056,-28.267534,46.28,101665.0,1.2079483
110368429,-28.515913,46.28,101668.0,1.207984
110391751,-28.352089,46.28,101666.0,1.2079602
110402187,-28.76429,46.28,101671.0,1.2080196
110413330,-29.017954,46.28,101674.0,1.2080553
110435337,-29.26633,46.28,101676.99,1.2080909
110445016,-28.10371,46.28,101663.0,1.2079246
110456327,-28.515913,46.28,101668.0,1.207984
110477365,-28.76429,46.28,101671.0,1.2080196
110488021,-28.68502,46.28,101669.99,1.2080077
110499514,-28.267534,46.28,101665.0,1.2079483
110522350,-28.68502,46.28,101669.99,1.2080077
110533021,-28.600466,46.28,101669.0,1.2079959
110544384,-28.352089,46.28,101666.0,1.2079602
110565016,-28.019156,46.28,101662.0,1.2079127
110575019,-28.515913,46.28,101668.0,1.207984
110586153,-28.18298,46.28,101663.99,1.2079364
110608060,-28.848845,46.28,101672.0,1.2080315
110619108,-28.600466,46.28,101669.0,1.2079959
110629061,-28.18298,46.28,101663.99,1.2079364
110650326,-28.600466,46.28,101669.0,1.2079959
110661360,-28.352089,46.28,101666.0,1.2079602
110672016,-28.352089,46.28,101666.0,1.2079602
110692016,-28.9334,46.28,101673.0,1.2080435
110703851,-28.68502,46.28,101669.99,1.2080077
110714384,-28.515913,46.28,101668.0,1.207984
110735171,-29.181776,46.289997,101675.99,1.208079
110746173,-28.436644,46.289997,101667.0,1.2079722
110757020,-29.26633,46.289997,101676.99,1.2080909
110778252,-28.848845,46.289997,101672.0,1.2080315
110789016,-28.76429,46.289997,101671.0,1.2080196
110800016,-28.515913,46.289997,101668.0,1.207984
110822557,-28.267534,46.28,101665.0,1.2079483
110833061,-28.18298,46.28,101663.99,1.2079364
110844016,-28.267534,46.28,101665.0,1.2079483
110866326,-28.848845,46.28,101672.0,1.2080315
110877016,-28.436644,46.28,101667.0,1.2079722
110888027,-28.848845,46.28,101672.0,1.2080315
110909035,-28.76429,46.289997,101671.0,1.2080196
110919066,-29.181776,46.289997,101675.99,1.208079
110930206,-29.26633,46.289997,101676.99,1.2080909
110951294,-28.352089,46.289997,101666.0,1.2079602
110962050,-28.848845,46.289997,101672.0,1.2080315
110973387,-28.436644,46.289997,101667.0,1.2079722
110994509,-28.600466,46.289997,101669.0,1.2079959
111005022,-29.017954,46.289997,101674.0,1.2080553
111016019,-28.68502,46.289997,101669.99,1.2080077
111037019,-29.3456,46.289997,101678.0,1.2081028
111048016,-28.600466,46.289997,101669.0,1.2079959
111059138,-29.430155,46.289997,101679.0,1.2081147
111082126,-28.352089,46.289997,101666.0,1.2079602
111093016,-28.9334,46.289997,101673.0,1.2080435
111104035,-28.848845,46.289997,101672.0,1.2080315
111126763,-28.68502,46.289997,101669.99,1.2080077
111137016,-28.352089,46.289997,101666.0,1.2079602
111148016,-28.600466,46.289997,101669.0,1.2079959
111170143,-29.017954,46.28,101674.0,1.2080553
111181061,-29.097223,46.28,101675.0,1.2080672
111192016,-28.68502,46.28,101669.99,1.2080077
111213016,-28.436644,46.289997,101667.0,1.2079722
111223640,-28.600466,46.289997,101669.0,1.2079959
111234019,-28.600466,46.289997,101669.0,1.2079959
111255173,-28.76429,46.28,101671.0,1.2080196
111266312,-28.267534,46.28,101665.0,1.2079483
111277030,-27.934603,46.28,101661.0,1.2079009
111299113,-27.686224,46.28,101657.99,1.2078651
111310591,-27.5224,46.28,101656.0,1.2078414
111321307,-27.437845,46.28,101655.0,1.2078296
111343025,-27.855333,46.289997,101660.0,1.207889
111354034,-28.019156,46.289997,101662.0,1.2079127
111365707,-28.10371,46.289997,101663.0,1.2079246
111386016,-28.68502,46.289997,101669.99,1.2080077
111396047,-28.436644,46.289997,101667.0,1.2079722
111407016,-28.76429,46.289997,101671.0,1.2080196
111428322,-28.600466,46.289997,101669.0,1.2079959
111438393,-28.76429,46.289997,101671.0,1.2080196
111449521,-28.436644,46.289997,101667.0,1.2079722
111470033,-28.848845,46.289997,101672.0,1.2080315
111481386,-28.515913,46.289997,101668.0,1.207984
111492069,-28.436644,46.289997,101667.0,1.2079722
111513521,-28.019156,46.28,101662.0,1.2079127
111524021,-28.18298,46.28,101663.99,1.2079364
111534141,-28.515913,46.28,101668.0,1.207984
111555141,-28.18298,46.289997,101663.99,1.2079364
111566570,-28.18298,46.289997,101663.99,1.2079364
111576070,-28.10371,46.289997,101663.0,1.2079246
111598011,-28.600466,46.289997,101669.0,1.2079959
111609873,-28.352089,46.289997,101666.0,1.2079602
111620016,-28.600466,46.289997,101669.0,1.2079959
111640016,-28.436644,46.289997,101667.0,1.2079722
111651016,-28.515913,46.289997,101668.0,1.207984
111662016,-28.436644,46.289997,101667.0,1.2079722
111684016,-28.267534,46.289997,101665.0,1.2079483
111695173,-28.515913,46.289997,101668.0,1.207984
111706021,-28.18298,46.289997,101663.99,1.2079364
111727024,-28.600466,46.289997,101669.0,1.2079959
111737508,-28.76429,46.289997,101671.0,1.2080196
111748322,-28.600466,46.289997,101669.0,1.2079959
111769591,-28.10371,46.289997,101663.0,1.2079246
111779019,-28.352089,46.289997,101666.0,1.2079602
111790408,-28.18298,46.289997,101663.99,1.2079364
111811101,-28.267534,46.289997,101665.0,1.2079483
111822412,-28.515913,46.289997,101668.0,1.207984
111833522,-28.436644,46.289997,101667.0,1.2079722
111854166,-28.436644,46.289997,101667.0,1.2079722
111865409,-28.436644,46.289997,101667.0,1.2079722
111876021,-28.600466,46.289997,101669.0,1.2079959
111898019,-28.9334,46.289997,101673.0,1.2080435
111910439,-29.017954,46.289997,101674.0,1.2080553
111921389,-29.017954,46.289997,101674.0,1.2080553
111941012,-28.515913,46.289997,101668.0,1.207984
111952402,-28.848845,46.289997,101672.0,1.2080315
111963032,-28.019156,46.289997,101662.0,1.2079127
111983016,-28.515913,46.289997,101668.0,1.207984
111993519,-28.600466,46.289997,101669.0,1.2079959
112004016,-28.267534,46.289997,101665.0,1.2079483
112024019,-28.68502,46.289997,101669.99,1.2080077
112035113,-28.10371,46.289997,101663.0,1.2079246
112045343,-28.18298,46.289997,101663.99,1.2079364
112066016,-28.515913,46.3,101668.0,1.207984
112077752,-28.9334,46.3,101673.0,1.2080435
112088567,-28.68502,46.3,101669.99,1.2080077
112110021,-29.3456,46.289997,101678.0,1.2081028
112120704,-28.515913,46.289997,101668.0,1.207984
112131016,-28.68502,46.289997,101669.99,1.2080077
112152708,-28.18298,46.289997,101663.99,1.2079364
112163390,-28.019156,46.289997,101662.0,1.2079127
112173418,-28.352089,46.289997,101666.0,1.2079602
112195107,-28.267534,46.289997,101665.0,1.2079483
112206016,-28.848845,46.289997,101672.0,1.2080315
112217016,-28.68502,46.289997,101669.99,1.2080077
112238016,-28.68502,46.289997,101669.99,1.2080077
112248632,-29.017954,46.289997,101674.0,1.2080553
112259325,-28.848845,46.289997,101672.0,1.2080315
112280566,-29.599264,46.289997,101681.0,1.2081385
112291016,-29.097223,46.289997,101675.0,1.2080672
112302016,-28.10371,46.289997,101663.0,1.2079246
112323016,-28.515913,46.289997,101668.0,1.207984
112334028,-28.76429,46.289997,101671.0,1.2080196
112344594,-28.600466,46.289997,101669.0,1.2079959
112366136,-28.515913,46.289997,101668.0,1.207984
112376536,-28.18298,46.289997,101663.99,1.2079364
112386173,-28.515913,46.289997,101668.0,1.207984
112408698,-28.76429,46.289997,101671.0,1.2080196
112419019,-28.600466,46.289997,101669.0,1.2079959
112430019,-28.267534,46.289997,101665.0,1.2079483
112451083,-28.515913,46.289997,101668.0,1.207984
112462016,-28.68502,46.289997,101669.99,1.2080077
112472607,-28.76429,46.289997,101671.0,1.2080196
112493403,-28.9334,46.289997,101673.0,1.2080435
112504528,-29.26633,46.289997,101676.99,1.2080909
112515381,-28.436644,46.289997,101667.0,1.2079722
112536795,-28.68502,46.3,101669.99,1.2080077
112547114,-28.267534,46.3,101665.0,1.2079483
112558016,-28.68502,46.3,101669.99,1.2080077
112579016,-29.3456,46.289997,101678.0,1.2081028
112590016,-29.097223,46.289997,101675.0,1.2080672
112600745,-28.68502,46.289997,101669.99,1.2080077
112621549,-29.017954,46.289997,101674.0,1.2080553
112632551,-28.68502,46.289997,101669.99,1.2080077
112643016,-28.9334,46.289997,101673.0,1.2080435
112665050,-28.515913,46.289997,101668.0,1.207984
112675019,-28.515913,46.289997,101668.0,1.207984
112686016,-28.515913,46.289997,101668.0,1.207984
112708858,-28.68502,46.3,101669.99,1.2080077
112719452,-28.9334,46.3,101673.0,1.2080435
112730367,-28.436644,46.3,101667.0,1.2079722
112751818,-28.68502,46.289997,101669.99,1.2080077
112762051,-28.9334,46.289997,101673.0,1.2080435
112773343,-28.600466,46.289997,101669.0,1.2079959
112795404,-28.76429,46.289997,101671.0,1.2080196
112805014,-28.848845,46.289997,101672.0,1.2080315
112816016,-28.352089,46.289997,101666.0,1.2079602
112837019,-28.267534,46.3,101665.0,1.2079483
112848030,-28.515913,46.3,101668.0,1.207984
112859360,-28.68502,46.3,101669.99,1.2080077
112881016,-28.267534,46.289997,101665.0,1.2079483
112892437,-28.515913,46.289997,101668.0,1.207984
112903363,-28.515913,46.289997,101668.0,1.207984
112924277,-28.18298,46.289997,101663.99,1.2079364
112935016,-28.515913,46.289997,101668.0,1.207984
112946046,-28.9334,46.289997,101673.0,1.2080435
112968030,-28.68502,46.3,101669.99,1.2080077
112979410,-28.515913,46.3,101668.0,1.207984
112990016,-28.267534,46.3,101665.0,1.2079483
113011328,-28.68502,46.289997,101669.99,1.2080077
113021646,-29.017954,46.289997,101674.0,1.2080553
113032020,-28.515913,46.289997,101668.0,1.207984
113053020,-28.600466,46.3,101669.0,1.2079959
113064036,-28.600466,46.3,101669.0,1.2079959
113075282,-29.017954,46.3,101674.0,1.2080553
113097016,-29.097223,46.3,101675.0,1.2080672
113108213,-28.68502,46.3,101669.99,1.2080077
113119956,-28.68502,46.3,101669.99,1.2080077
113140613,-28.267534,46.289997,101665.0,1.2079483
113151019,-28.848845,46.289997,101672.0,1.2080315
113162021,-28.600466,46.289997,101669.0,1.2079959
113184021,-28.600466,46.289997,101669.0,1.2079959
113195282,-28.848845,46.289997,101672.0,1.2080315
113206016,-28.18298,46.289997,101663.99,1.2079364
113228415,-28.436644,46.289997,101667.0,1.2079722
113239393,-28.019156,46.289997,101662.0,1.2079127
