timestamp,rollspeed,pitchspeed,yawspeed,q[0],q[1],q[2],q[3],delta_q_reset[0],delta_q_reset[1],delta_q_reset[2],delta_q_reset[3],quat_reset_counter
93507875,0.002006189,0.0014755512,-0.0011006009,0.92947435,0.0019630732,0.0044193906,0.36885506,0.99971896,0.00016006497,-0.00024610898,-0.02370615,2
93539869,0.0012540946,0.0015799042,-0.00024721195,0.92947793,0.0019509152,0.004428582,0.36884597,0.99971896,0.00016006497,-0.00024610898,-0.02370615,2
93571902,-1.349987e-05,-0.00087368814,-0.0016359456,0.92948335,0.0019486124,0.004425389,0.36883256,0.99971896,0.00016006497,-0.00024610898,-0.02370615,2
93599882,0.00062617136,0.00041879783,-0.0012145524,0.92949265,0.0019392796,0.004429165,0.36880916,0.99971896,0.00016006497,-0.00024610898,-0.02370615,2
93631112,-0.0005457003,0.0005146686,-0.0010121965,0.92949873,0.0019318318,0.0044272724,0.36879382,0.99971896,0.00016006497,-0.00024610898,-0.02370615,2
93663869,-0.000982672,-0.0014971687,0.0001726165,0.9295018,0.001924662,0.0044277846,0.3687862,0.99971896,0.00016006497,-0.00024610898,-0.02370615,2
93695069,-0.00033418823,-0.0020110747,-0.00067452405,0.92950714,0.0019317053,0.0044281064,0.36877263,0.99971896,0.00016006497,-0.00024610898,-0.02370615,2
93727082,0.0011478455,0.000734871,-0.00025120145,0.9295115,0.0019368167,0.0044355807,0.36876142,0.99971896,0.00016006497,-0.00024610898,-0.02370615,2
93759076,0.0012532555,-0.00022369149,-0.00024318427,0.9295173,0.001949759,0.0044382513,0.3687466,0.99971896,0.00016006497,-0.00024610898,-0.02370615,2
93791069,-0.001514351,-0.0005390439,0.00037885027,0.9295235,0.0019441164,0.00442253,0.36873135,0.99971896,0.00016006497,-0.00024610898,-0.02370615,2
93823069,0.00060414686,0.0011420043,-0.0014217308,0.92953086,0.0019510994,0.004426973,0.36871254,0.99971896,0.00016006497,-0.00024610898,-0.02370615,2
93855069,0.00072172895,-0.00013652554,-0.00014443036,0.9295303,0.0019514007,0.004429684,0.36871403,0.99971896,0.00016006497,-0.00024610898,-0.02370615,2
93883089,-0.0002426866,0.00073819445,0.0010161198,0.9295353,0.0019586997,0.0044334037,0.36870146,0.99971896,0.00016006497,-0.00024610898,-0.02370615,2
93915075,-0.0017325116,-0.0021391157,6.4200736e-05,0.9295351,0.0019573919,0.0044270284,0.36870193,0.99971896,0.00016006497,-0.00024610898,-0.02370615,2
93947069,-0.00087562774,-0.0003451381,-0.00036509693,0.929545,0.0019596973,0.004422826,0.3686771,0.99971896,0.00016006497,-0.00024610898,-0.02370615,2
93979075,0.0007202477,-0.0005445742,-0.00025583006,0.9295535,0.001973386,0.004410124,0.36865583,0.99971896,0.00016006497,-0.00024610898,-0.02370615,2
94011075,-0.0013021288,-0.001286167,0.00046274683,0.9295638,0.0019605088,0.0043940186,0.3686301,0.99971896,0.00016006497,-0.00024610898,-0.02370615,2
94043086,-0.0014171717,-0.00085889397,0.0017506514,0.9295719,0.0019581306,0.0043971934,0.36860946,0.99971896,0.00016006497,-0.00024610898,-0.02370615,2
94075069,-0.0010967726,-3.1827076e-06,-0.0010076084,0.9295876,0.0019532787,0.004401643,0.36856982,0.99971896,0.00016006497,-0.00024610898,-0.02370615,2
94107074,0.0013508756,0.0012656841,0.00047601867,0.9295974,0.0019482285,0.004413388,0.36854511,0.99971896,0.00016006497,-0.00024610898,-0.02370615,2
94135090,-0.0001283267,0.0017784894,-0.0016670453,0.92960626,0.0019379248,0.0044199787,0.36852273,0.99971896,0.00016006497,-0.00024610898,-0.02370615,2
94167069,-0.0003511178,0.0009645374,0.00046477639,0.9296142,0.0019496043,0.0044262516,0.36850265,0.99971896,0.00016006497,-0.00024610898,-0.02370615,2
94199068,0.0010412248,0.0019203869,0.00015834847,0.92962503,0.0019517759,0.0044249035,0.36847514,0.99971896,0.00016006497,-0.00024610898,-0.02370615,2
94231075,0.000716752,-0.0010771067,5.1948977e-05,0.9296395,0.0019623057,0.004430239,0.3684386,0.99971896,0.00016006497,-0.00024610898,-0.02370615,2
94263069,-0.0012982393,-0.00044290206,-0.00091880775,0.92965144,0.0019708974,0.0044302377,0.36840853,0.99971896,0.00016006497,-0.00024610898,-0.02370615,2
94295069,-0.0016381892,-0.00033120383,0.00014572992,0.9296636,0.0019686467,0.0044286945,0.36837775,0.99971896,0.00016006497,-0.00024610898,-0.02370615,2
94327069,0.002111801,-0.0017214445,-5.2558797e-05,0.9296698,0.0019648597,0.004422419,0.3683623,0.99971896,0.00016006497,-0.00024610898,-0.02370615,2
94358304,-0.00066777004,-0.0014179558,0.0011343482,0.9296764,0.0019691058,0.004427581,0.36834562,0.99971896,0.00016006497,-0.00024610898,-0.02370615,2
94390321,-0.0008052479,4.584962e-05,-6.136873e-05,0.92968404,0.00197453,0.004430591,0.36832607,0.99971896,0.00016006497,-0.00024610898,-0.02370615,2
94419107,-0.0016050326,0.00041960704,0.00033750676,0.92969334,0.0019786896,0.0044183773,0.36830258,0.99971896,0.00016006497,-0.00024610898,-0.02370615,2
94451069,-0.00056452304,0.00020732818,0.0011974213,0.9296979,0.0019773315,0.0044205496,0.3682912,0.99971896,0.00016006497,-0.00024610898,-0.02370615,2
94482276,0.00051407993,-0.00023948931,-0.002412206,0.9297118,0.0019751,0.004431132,0.368256,0.99971896,0.00016006497,-0.00024610898,-0.02370615,2
94514281,0.0001925847,0.0010455276,-0.0014730092,0.9297311,0.0019777433,0.0044274074,0.36820725,0.99971896,0.00016006497,-0.00024610898,-0.02370615,2
94546291,0.0011473054,0.0007330348,-8.6471264e-05,0.92975104,0.0019995836,0.0044281115,0.36815676,0.99971896,0.00016006497,-0.00024610898,-0.02370615,2
94578275,-0.00012059102,0.0015764929,-0.0006333609,0.92977166,0.0019989284,0.0044400566,0.36810464,0.99971896,0.00016006497,-0.00024610898,-0.02370615,2
94610279,0.0007121138,-0.00023098633,-0.0011465518,0.9297924,0.0019951193,0.004432698,0.3680523,0.99971896,0.00016006497,-0.00024610898,-0.02370615,2
94642306,9.394728e-05,0.00030680106,-0.0014852537,0.9298141,0.0020009817,0.004433473,0.3679975,0.99971896,0.00016006497,-0.00024610898,-0.02370615,2
94674276,0.00030085677,0.0018997011,-0.0007448776,0.92983305,0.0019761662,0.004428131,0.36794984,0.99971896,0.00016006497,-0.00024610898,-0.02370615,2
94702299,0.00071337365,0.00029826935,-0.00083989586,0.9298516,0.0019886645,0.004427765,0.36790282,0.99971896,0.00016006497,-0.00024610898,-0.02370615,2
94734269,0.0010434876,-0.000121134624,-0.0005255698,0.9298723,0.0019945211,0.0044248905,0.36785072,0.99971896,0.00016006497,-0.00024610898,-0.02370615,2
94766275,-0.00011288945,0.00031216646,0.00011129251,0.9298903,0.0019748595,0.004426761,0.36780515,0.99971896,0.00016006497,-0.00024610898,-0.02370615,2
94798269,-0.00056487136,0.0010449587,0.0012631576,0.9299043,0.0019630746,0.0044281017,0.36776993,0.99971896,0.00016006497,-0.00024610898,-0.02370615,2
94830290,-0.0014901471,-0.0005511,-0.0006447468,0.9299159,0.0019609623,0.0044305488,0.36774027,0.99971896,0.00016006497,-0.00024610898,-0.02370615,2
94862269,0.00093925116,-0.00053804566,0.0008460107,0.9299366,0.0019666909,0.004420066,0.36768833,0.99971896,0.00016006497,-0.00024610898,-0.02370615,2
94894295,0.0011463738,-0.00085505494,0.00022364885,0.9299524,0.0019794125,0.00441366,0.36764815,0.99971896,0.00016006497,-0.00024610898,-0.02370615,2
94926275,0.0005155343,-0.002030549,-0.00084285333,0.92996955,0.0019939137,0.004409336,0.36760482,0.99971896,0.00016006497,-0.00024610898,-0.02370615,2
94958317,-0.0001235056,0.0005228848,9.762887e-05,0.92998284,0.002002731,0.0043977816,0.3675714,0.99971896,0.00016006497,-0.00024610898,-0.02370615,2
94990269,-0.0021483162,-0.00022814612,-0.0005529503,0.9299981,0.002003021,0.004384915,0.36753282,0.99971896,0.00016006497,-0.00024610898,-0.02370615,2
95022269,0.0008261174,0.00020222034,0.0004117365,0.93001616,0.0020031047,0.0043837437,0.36748716,0.99971896,0.00016006497,-0.00024610898,-0.02370615,2
95054275,0.0018933625,-0.0007595286,-0.00053847,0.930037,0.0020014583,0.004370966,0.36743444,0.99971896,0.00016006497,-0.00024610898,-0.02370615,2
95086300,-0.0010913997,0.0003075619,0.000503105,0.93004966,0.0020023505,0.004366531,0.36740255,0.99971896,0.00016006497,-0.00024610898,-0.02370615,2
95118280,0.0014683638,-0.00022632026,-0.000120462384,0.9300614,0.002004026,0.0043543917,0.36737314,0.99971896,0.00016006497,-0.00024610898,-0.02370615,2
95149511,0.001918398,0.00020855412,-0.00055108755,0.93007153,0.0020105115,0.0043559866,0.3673473,0.99971896,0.00016006497,-0.00024610898,-0.02370615,2
95179901,0.0008056438,-0.0005001647,-0.0003960916,0.9300891,0.00201975,0.0043526324,0.36730272,0.99971896,0.00016006497,-0.00024610898,-0.02370615,2
95213501,0.0011619781,0.0015624034,-0.0034319358,0.9301063,0.0020328304,0.00435028,0.367259,0.99971896,0.00016006497,-0.00024610898,-0.02370615,2
95241480,0.0011413919,0.0010602055,0.0014601913,0.9301154,0.002038791,0.004354253,0.36723587,0.99971896,0.00016006497,-0.00024610898,-0.02370615,2
95273493,-0.00012297288,0.00040508568,-2.852593e-05,0.93013185,0.0020470046,0.0043512033,0.3671943,0.99971896,0.00016006497,-0.00024610898,-0.02370615,2
95305469,0.0014729407,-0.00022916982,-0.0006669865,0.93014866,0.0020598914,0.0043459656,0.36715162,0.99971896,0.00016006497,-0.00024610898,-0.02370615,2
95337469,-0.00023454707,0.00030579587,0.0004952651,0.9301655,0.0020665715,0.0043432764,0.3671091,0.99971896,0.00016006497,-0.00024610898,-0.02370615,2
95369469,0.0002967927,-0.00012343231,-0.00057042594,0.9301831,0.002073369,0.004350846,0.3670643,0.99971896,0.00016006497,-0.00024610898,-0.02370615,2
95401481,0.0019924818,-0.00086780475,8.436805e-05,0.93019444,0.0020772542,0.0043407017,0.3670359,0.99971896,0.00016006497,-0.00024610898,-0.02370615,2
95433468,-0.0022578724,-0.00086505775,-5.287293e-05,0.9302091,0.002074827,0.0043500615,0.36699846,0.99971896,0.00016006497,-0.00024610898,-0.02370615,2
95465512,-0.0018275989,-0.00011803565,-1.666999e-05,0.930218,0.0020734593,0.004339373,0.36697605,0.99971896,0.00016006497,-0.00024610898,-0.02370615,2
95497468,-0.0016180119,-0.0012911182,0.0009230616,0.93022907,0.0020623906,0.0043399753,0.36694816,0.99971896,0.00016006497,-0.00024610898,-0.02370615,2
95529500,-0.0015122645,-0.00012886844,-0.001225205,0.9302455,0.0020531258,0.0043350533,0.36690658,0.99971896,0.00016006497,-0.00024610898,-0.02370615,2
95561469,0.001145937,-0.000114423834,0.00070398126,0.93025386,0.00205818,0.0043341736,0.36688522,0.99971896,0.00016006497,-0.00024610898,-0.02370615,2
95593483,-0.0006724056,-0.0003629015,-0.0013309259,0.93027234,0.0020575942,0.0043238676,0.36683854,0.99971896,0.00016006497,-0.00024610898,-0.02370615,2
95625476,-3.2421085e-05,0.0006296892,0.0014341571,0.9302852,0.0020530059,0.0043168464,0.36680606,0.99971896,0.00016006497,-0.00024610898,-0.02370615,2
95657468,-0.00077454234,-0.0013947024,0.00090408506,0.93029785,0.002058726,0.0043085846,0.36677408,0.99971896,0.00016006497,-0.00024610898,-0.02370615,2
95689499,0.0012518076,0.0017962666,0.0010020084,0.93031734,0.0020637815,0.004294072,0.36672485,0.99971896,0.00016006497,-0.00024610898,-0.02370615,2
95721469,0.0007162178,-0.0005380841,0.0011158716,0.9303327,0.0020788063,0.0042885495,0.3666855,0.99971896,0.00016006497,-0.00024610898,-0.02370615,2
95753468,-0.00025467365,-0.00032821007,0.0023832247,0.9303488,0.0020865921,0.004271905,0.36664486,0.99971896,0.00016006497,-0.00024610898,-0.02370615,2
95785469,7.874344e-05,-0.0003351623,4.0747167e-05,0.9303647,0.002086661,0.0042726193,0.3666046,0.99971896,0.00016006497,-0.00024610898,-0.02370615,2
95817475,0.00092728727,-0.0002212392,0.0016325527,0.9303849,0.00208961,0.004266579,0.36655337,0.99971896,0.00016006497,-0.00024610898,-0.02370615,2
95849468,0.0004024316,-0.0018246429,-0.00016669638,0.93040514,0.0021107388,0.0042523965,0.36650217,0.99971896,0.00016006497,-0.00024610898,-0.02370615,2
95881469,-0.00013431686,0.0013585173,-0.0006127931,0.93042237,0.0021081243,0.004241465,0.36645862,0.99971896,0.00016006497,-0.00024610898,-0.02370615,2
95912701,0.0010719702,0.0017649186,-0.00018835688,0.93043536,0.0021101222,0.004245931,0.36642554,0.99971896,0.00016006497,-0.00024610898,-0.02370615,2
95944669,-0.00066154543,-5.4378295e-05,-9.929488e-05,0.9304503,0.0021071304,0.004241848,0.36638755,0.99971896,0.00016006497,-0.00024610898,-0.02370615,2
95975905,0.00081018376,-0.0007625035,-0.0013675982,0.9304618,0.00210157,0.0042343796,0.3663584,0.99971896,0.00016006497,-0.00024610898,-0.02370615,2
96007913,-0.0003822574,0.00096241914,-0.0015209342,0.9304762,0.0021174464,0.004236235,0.36632177,0.99971896,0.00016006497,-0.00024610898,-0.02370615,2
96035916,-0.00026321784,-0.0006271566,0.0012727322,0.9304891,0.002119818,0.0042336276,0.36628893,0.99971896,0.00016006497,-0.00024610898,-0.02370615,2
96068669,-0.001306075,-0.0005647794,-0.0010365115,0.93050045,0.0021075169,0.004221685,0.36626056,0.99971896,0.00016006497,-0.00024610898,-0.02370615,2
96102308,-0.00038660562,0.000830142,-0.00085604435,0.930512,0.0021212439,0.004224961,0.366231,0.99971896,0.00016006497,-0.00024610898,-0.02370615,2
96130269,8.066499e-05,0.00019078431,-0.00062303955,0.9305263,0.002106073,0.0042281947,0.36619455,0.99971896,0.00016006497,-0.00024610898,-0.02370615,2
96161477,-0.0006661748,-0.0018270668,0.00023227051,0.930543,0.002122524,0.0042297347,0.3661523,0.99971896,0.00016006497,-0.00024610898,-0.02370615,2
96196678,-0.0019361547,0.0010432099,-0.0005372184,0.93056184,0.002115032,0.004217063,0.36610457,0.99971896,0.00016006497,-0.00024610898,-0.02370615,2
96224675,-0.00087404205,0.0006256416,0.00021509925,0.93057907,0.002117479,0.0042114416,0.36606058,0.99971896,0.00016006497,-0.00024610898,-0.02370615,2
96256669,8.744886e-05,-0.00034114323,-0.00051796215,0.93059826,0.0021292323,0.004197969,0.36601207,0.99971896,0.00016006497,-0.00024610898,-0.02370615,2
96288672,-0.0007562847,0.0013527686,-0.0024560266,0.93061876,0.002124433,0.0042032,0.36595973,0.99971896,0.00016006497,-0.00024610898,-0.02370615,2
96320669,-0.0008773062,0.0019042318,0.00095871487,0.9306353,0.0021176778,0.004205673,0.3659179,0.99971896,0.00016006497,-0.00024610898,-0.02370615,2
96352683,-0.00011993118,-0.00023381627,-0.00073733926,0.93065405,0.0021226308,0.004204586,0.36587012,0.99971896,0.00016006497,-0.00024610898,-0.02370615,2
96384691,-0.00055266824,0.001053399,0.00040655327,0.9306721,0.0021396938,0.0041986313,0.36582422,0.99971896,0.00016006497,-0.00024610898,-0.02370615,2
96416668,0.0006200328,-0.0011882868,1.5103142e-06,0.9306835,0.0021419858,0.004197055,0.36579496,0.99971896,0.00016006497,-0.00024610898,-0.02370615,2
96448669,-0.0010875358,0.00051678426,-0.0009860276,0.9307034,0.0021473605,0.00419548,0.3657446,0.99971896,0.00016006497,-0.00024610898,-0.02370615,2
96480675,-0.0013976515,0.00029750267,-0.0010868517,0.9307257,0.0021340044,0.0041920952,0.365688,0.99971896,0.00016006497,-0.00024610898,-0.02370615,2
96512669,-0.0018143746,0.00018991317,-0.0012949193,0.930743,0.0021239708,0.0041845934,0.36564383,0.99971896,0.00016006497,-0.00024610898,-0.02370615,2
96544669,0.0010528298,-0.00053245574,0.0014704166,0.9307612,0.002140071,0.0041859816,0.36559737,0.99971896,0.00016006497,-0.00024610898,-0.02370615,2
96576669,-0.000657037,0.0011540093,-2.4334353e-05,0.93077797,0.0021385308,0.0041902843,0.36555457,0.99971896,0.00016006497,-0.00024610898,-0.02370615,2
96608669,-0.00034502882,-0.0001205123,0.0010455372,0.93078977,0.002139687,0.004192978,0.3655248,0.99971896,0.00016006497,-0.00024610898,-0.02370615,2
96640675,0.0008305577,-0.00023601513,-0.0010777701,0.93079877,0.0021459586,0.0042011878,0.3655017,0.99971896,0.00016006497,-0.00024610898,-0.02370615,2
96672690,-0.00032672065,0.0007202536,-0.0010923371,0.9308137,0.0021508299,0.0041927295,0.36546353,0.99971896,0.00016006497,-0.00024610898,-0.02370615,2
96701469,0.00093360036,0.00019657999,0.000726419,0.93082607,0.0021454745,0.004192544,0.36543232,0.99971896,0.00016006497,-0.00024610898,-0.02370615,2
96735887,-0.00022721116,-0.0013924849,7.243495e-05,0.9308436,0.0021595394,0.0041980534,0.36538738,0.99971896,0.00016006497,-0.00024610898,-0.02370615,2
96763887,-2.5079004e-05,0.00037848693,-0.0012262013,0.93085825,0.0021631268,0.004190235,0.36535,0.99971896,0.00016006497,-0.00024610898,-0.02370615,2
96795882,-0.001180374,-1.8149964e-05,-0.0002582738,0.9308739,0.0021634689,0.0041831275,0.36531052,0.99971896,0.00016006497,-0.00024610898,-0.02370615,2
96827918,-0.00066328037,-0.0014996178,0.0013500896,0.9308921,0.002171286,0.004175901,0.3652641,0.99971896,0.00016006497,-0.00024610898,-0.02370615,2
96859911,0.00088632555,-0.0011100079,0.0005923121,0.93090713,0.0021799158,0.004168088,0.36522585,0.99971896,0.00016006497,-0.00024610898,-0.02370615,2
96891869,-0.0012863106,0.0005144953,-0.0001492485,0.9309224,0.002192965,0.0041619414,0.36518687,0.99971896,0.00016006497,-0.00024610898,-0.02370615,2
96923886,0.0010511682,-0.00023598695,-0.0014169402,0.9309405,0.002202627,0.004157662,0.36514086,0.99971896,0.00016006497,-0.00024610898,-0.02370615,2
96955916,0.00092849875,-0.0018193482,0.0014716961,0.930953,0.0022065835,0.00415868,0.3651088,0.99971896,0.00016006497,-0.00024610898,-0.02370615,2
96987894,-0.0002333537,-1.0939839e-05,0.00091081695,0.930969,0.0022069688,0.004155879,0.3650679,0.99971896,0.00016006497,-0.00024610898,-0.02370615,2
97015931,0.00020041445,-0.0003441406,0.0012449905,0.9309805,0.0021888867,0.004150558,0.36503878,0.99971896,0.00016006497,-0.00024610898,-0.02370615,2
97047869,0.00019847846,0.0017897824,-5.959955e-05,0.9309996,0.00220446,0.0041533555,0.36499,0.99971896,0.00016006497,-0.00024610898,-0.02370615,2
97079869,-0.0015116029,0.0013494866,-5.7326455e-05,0.9310106,0.002209402,0.004148269,0.3649619,0.99971896,0.00016006497,-0.00024610898,-0.02370615,2
97111888,0.00020794652,-0.0017187478,-0.0009983018,0.9310221,0.0021957199,0.0041392874,0.3649329,0.99971896,0.00016006497,-0.00024610898,-0.02370615,2
97143886,-0.0019392616,0.00062719866,0.0006844929,0.9310394,0.002200651,0.004131669,0.36488885,0.99971896,0.00016006497,-0.00024610898,-0.02370615,2
97175893,-0.0003202851,-1.7036858e-05,-0.0013163311,0.93105537,0.0021972293,0.004133118,0.36484805,0.99971896,0.00016006497,-0.00024610898,-0.02370615,2
97207868,-0.0011747838,-0.0019342855,-0.0015248754,0.93107,0.002197232,0.004132516,0.36481044,0.99971896,0.00016006497,-0.00024610898,-0.02370615,2
97239910,-0.0005526948,9.435366e-05,0.0006856187,0.9310832,0.0021852695,0.004140504,0.36477703,0.99971896,0.00016006497,-0.00024610898,-0.02370615,2
97271912,-0.000121226534,-0.0016186755,-0.0010129856,0.9310975,0.0021726645,0.004122878,0.36474082,0.99971896,0.00016006497,-0.00024610898,-0.02370615,2
97303875,0.00019234407,-0.0020594243,-0.0012268529,0.9311142,0.002167111,0.0041206223,0.36469832,0.99971896,0.00016006497,-0.00024610898,-0.02370615,2
97335868,0.00073454727,0.00040116024,-0.00016111135,0.9311252,0.0021664586,0.0041028024,0.36467025,0.99971896,0.00016006497,-0.00024610898,-0.02370615,2
97367869,0.0001931371,-1.588621e-05,-0.00091853034,0.9311346,0.0021678016,0.004114781,0.3646462,0.99971896,0.00016006497,-0.00024610898,-0.02370615,2
97399907,-0.00012998458,-0.0017057282,0.0013263233,0.9311511,0.0021699283,0.0041084867,0.36460394,0.99971896,0.00016006497,-0.00024610898,-0.02370615,2
97431869,0.00031200168,-0.0017426232,-0.0011282867,0.931166,0.0021755288,0.004109807,0.3645661,0.99971896,0.00016006497,-0.00024610898,-0.02370615,2
97463069,-8.838368e-06,0.00021718323,0.0002476613,0.9311785,0.0021738142,0.0041121645,0.36453402,0.99971896,0.00016006497,-0.00024610898,-0.02370615,2
97494294,0.0017620993,0.00029731065,-0.0028020134,0.9311925,0.0021783223,0.0041149585,0.36449805,0.99971896,0.00016006497,-0.00024610898,-0.02370615,2
97523068,0.000617919,-0.0007853265,-0.001558861,0.9312064,0.002188612,0.0041167918,0.36446255,0.99971896,0.00016006497,-0.00024610898,-0.02370615,2
97555090,0.002651732,-0.00013775367,0.00047113933,0.93121535,0.0022058017,0.00413353,0.36443928,0.99971896,0.00016006497,-0.00024610898,-0.02370615,2
97587069,0.0031798186,0.00029663707,-0.0008028832,0.9312225,0.0022205638,0.0041336715,0.36442092,0.99971896,0.00016006497,-0.00024610898,-0.02370615,2
97619072,0.0007368939,0.00029961145,-0.0011442339,0.9312389,0.002227746,0.0041268873,0.36437926,0.99971896,0.00016006497,-0.00024610898,-0.02370615,2
97651077,-0.0007504134,0.00029827113,0.0004536227,0.93125165,0.0022183072,0.004122314,0.36434674,0.99971896,0.00016006497,-0.00024610898,-0.02370615,2
97683093,-0.0010842278,-0.0017259412,-0.0012575134,0.9312694,0.0022227175,0.0041321027,0.36430126,0.99971896,0.00016006497,-0.00024610898,-0.02370615,2
97715073,0.0007318109,-0.00023732212,-0.0012470664,0.9312835,0.0022151496,0.004128763,0.3642654,0.99971896,0.00016006497,-0.00024610898,-0.02370615,2
97747089,0.0004291921,0.0022023665,-0.0007516181,0.9312959,0.0022165223,0.0041475133,0.36423355,0.99971896,0.00016006497,-0.00024610898,-0.02370615,2
97775069,-0.0012849647,-0.0007712499,-0.0024241863,0.93131423,0.0022155645,0.004145898,0.36418658,0.99971896,0.00016006497,-0.00024610898,-0.02370615,2
97807074,0.0010462652,0.00104934,-0.0011440373,0.93132824,0.0022070413,0.004157144,0.36415064,0.99971896,0.00016006497,-0.00024610898,-0.02370615,2
97839075,-0.0014003833,-0.0005483425,0.00023091602,0.9313368,0.0022001055,0.004150352,0.36412877,0.99971896,0.00016006497,-0.00024610898,-0.02370615,2
97871095,-0.0030994047,-0.0035206955,0.00012298959,0.93134105,0.002193263,0.0041390075,0.36411792,0.99971896,0.00016006497,-0.00024610898,-0.02370615,2
97903068,-0.00034317456,-0.00055266486,0.00033844466,0.93135303,0.0021735083,0.004127053,0.3640878,0.99971896,0.00016006497,-0.00024610898,-0.02370615,2
97935113,0.0006520852,-0.00045245953,-0.0013576453,0.9313639,0.0021658596,0.004122778,0.36405995,0.99971896,0.00016006497,-0.00024610898,-0.02370615,2
97967069,0.0019114718,0.0001789504,-0.001674977,0.93137646,0.0021771232,0.004133609,0.3640275,0.99971896,0.00016006497,-0.00024610898,-0.02370615,2
97999126,0.001258225,-1.4660036e-05,-0.00072472286,0.93139166,0.0021807416,0.0041472395,0.3639885,0.99971896,0.00016006497,-0.00024610898,-0.02370615,2
98031069,-0.00075983326,0.0017861442,-7.0833194e-06,0.93140334,0.0021888833,0.0041505657,0.36395854,0.99971896,0.00016006497,-0.00024610898,-0.02370615,2
98059087,-0.00064778444,0.0018912012,-0.0012814647,0.93141216,0.002191905,0.0041695046,0.36393562,0.99971896,0.00016006497,-0.00024610898,-0.02370615,2
98091068,-0.00032911124,0.0005092278,-0.0008486094,0.9314275,0.00219271,0.004177493,0.36389637,0.99971896,0.00016006497,-0.00024610898,-0.02370615,2
98123069,-0.00012351002,0.0006115048,0.00043858905,0.9314419,0.0021889587,0.004186079,0.36385962,0.99971896,0.00016006497,-0.00024610898,-0.02370615,2
98155071,-0.0011925955,0.00050307217,-0.0011867628,0.9314519,0.0021839002,0.0041889413,0.3638339,0.99971896,0.00016006497,-0.00024610898,-0.02370615,2
98187091,-0.0021388023,-0.0017206531,-0.00085132534,0.9314674,0.0021913026,0.0041780993,0.3637944,0.99971896,0.00016006497,-0.00024610898,-0.02370615,2
98219074,-0.00011782814,-0.0006591744,0.0005482022,0.9314801,0.0021895494,0.004173179,0.36376187,0.99971896,0.00016006497,-0.00024610898,-0.02370615,2
98247868,-0.0005536169,0.0013651517,0.0017916674,0.93149304,0.0021853645,0.0041621574,0.3637288,0.99971896,0.00016006497,-0.00024610898,-0.02370615,2
98281514,-0.001042125,-0.0014261804,-0.00057776354,0.9315044,0.00218931,0.0041608536,0.3636998,0.99971896,0.00016006497,-0.00024610898,-0.02370615,2
98314275,-0.00096338557,-0.0020522734,-0.00223155,0.9315174,0.0021763581,0.0041633844,0.36366636,0.99971896,0.00016006497,-0.00024610898,-0.02370615,2
98342313,0.0011562844,0.0010632724,0.0027778293,0.9315227,0.0021703506,0.0041664555,0.36365306,0.99971896,0.00016006497,-0.00024610898,-0.02370615,2
98374296,-0.0002289447,0.0019026034,0.0009333817,0.9315321,0.0021632866,0.0041770404,0.3636289,0.99971896,0.00016006497,-0.00024610898,-0.02370615,2
98406269,8.030678e-05,0.0003991116,0.0022271832,0.9315394,0.0021520406,0.0041827965,0.3636101,0.99971896,0.00016006497,-0.00024610898,-0.02370615,2
98438269,-0.0004454736,0.001796913,0.0010495379,0.9315476,0.0021527058,0.004198517,0.36358896,0.99971896,0.00016006497,-0.00024610898,-0.02370615,2
98470297,0.0007319424,0.0005182939,0.00094967545,0.9315523,0.0021545659,0.0042065987,0.36357668,0.99971896,0.00016006497,-0.00024610898,-0.02370615,2
98502269,0.0006267724,0.0015855466,9.5780415e-05,0.93155646,0.0021585561,0.0042116693,0.36356613,0.99971896,0.00016006497,-0.00024610898,-0.02370615,2
98534269,-0.00086287863,-0.0014003816,-0.00032123717,0.93156475,0.0021549165,0.004216946,0.3635449,0.99971896,0.00016006497,-0.00024610898,-0.02370615,2
98566289,0.0005096032,0.00084401015,0.0016933247,0.9315671,0.002167477,0.004231688,0.36353832,0.99971896,0.00016006497,-0.00024610898,-0.02370615,2
98598268,0.0022259871,-2.1588872e-05,-0.0010627054,0.9315714,0.0021573892,0.00423115,0.36352748,0.99971896,0.00016006497,-0.00024610898,-0.02370615,2
98630269,0.001155546,-0.0011863508,0.0002134376,0.93158257,0.0021557363,0.0042231884,0.36349902,0.99971896,0.00016006497,-0.00024610898,-0.02370615,2
98662275,0.0005222756,0.00018681845,0.00030306337,0.93158716,0.00215589,0.0042303186,0.3634872,0.99971896,0.00016006497,-0.00024610898,-0.02370615,2
98694269,-0.00012811378,0.00029137338,0.00021751126,0.93159646,0.0021639927,0.0042319223,0.36346325,0.99971896,0.00016006497,-0.00024610898,-0.02370615,2
98726305,-0.00032707083,8.683582e-05,-0.0008689136,0.9316105,0.002151383,0.004233927,0.36342725,0.99971896,0.00016006497,-0.00024610898,-0.02370615,2
98758322,0.000719521,-0.0009756115,9.971685e-05,0.9316214,0.002153956,0.0042272345,0.36339957,0.99971896,0.00016006497,-0.00024610898,-0.02370615,2
98790275,-0.0006492764,-0.0003244596,-0.0006542846,0.9316299,0.0021561254,0.004223535,0.36337784,0.99971896,0.00016006497,-0.00024610898,-0.02370615,2
98822313,-0.00021376356,-0.0027877777,-0.0020231695,0.93163604,0.002158013,0.0042201607,0.3633618,0.99971896,0.00016006497,-0.00024610898,-0.02370615,2
98854268,-0.0010804953,-0.00022522439,0.0005121882,0.93164086,0.0021577617,0.0042225416,0.36334965,0.99971896,0.00016006497,-0.00024610898,-0.02370615,2
98886275,0.00019961852,-0.0013994194,9.513128e-05,0.93164694,0.0021625161,0.0042259246,0.36333373,0.99971896,0.00016006497,-0.00024610898,-0.02370615,2
98918268,0.0007327865,-0.00045199183,9.516231e-05,0.9316568,0.0021654519,0.00422243,0.36330864,0.99971896,0.00016006497,-0.00024610898,-0.02370615,2
98950269,-0.0007711344,0.00040019368,-0.000983124,0.931666,0.0021592153,0.004225176,0.36328506,0.99971896,0.00016006497,-0.00024610898,-0.02370615,2
98981501,0.00023526954,0.0008346525,-0.00041857336,0.9316739,0.0021638158,0.0042241514,0.3632648,0.99971896,0.00016006497,-0.00024610898,-0.02370615,2
99013468,-0.00022637052,0.0012607432,-0.00024153796,0.93167686,0.0021585596,0.0042273435,0.36325726,0.99971896,0.00016006497,-0.00024610898,-0.02370615,2
99045468,0.00040774618,0.00062443694,0.0008267544,0.9316859,0.002151315,0.0042447564,0.36323383,0.99971896,0.00016006497,-0.00024610898,-0.02370615,2
99077510,-0.00055015297,-0.0008622575,8.3926716e-05,0.93169653,0.002141989,0.0042505446,0.36320645,0.99971896,0.00016006497,-0.00024610898,-0.02370615,2
99105469,0.0014653159,-0.0027764756,-0.00021558002,0.9317082,0.0021514734,0.0042475844,0.36317652,0.99971896,0.00016006497,-0.00024610898,-0.02370615,2
99137475,-0.00085637637,0.00052091177,-0.0006695811,0.93171865,0.0021431039,0.0042482484,0.36315003,0.99971896,0.00016006497,-0.00024610898,-0.02370615,2
99169487,-0.00044209848,0.003182841,0.0011206861,0.9317306,0.002138005,0.0042551463,0.36311907,0.99971896,0.00016006497,-0.00024610898,-0.02370615,2
99201469,0.0011564842,-0.00033250873,0.0009255097,0.93174124,0.002153041,0.00427948,0.36309138,0.99971896,0.00016006497,-0.00024610898,-0.02370615,2
99233511,0.00073303876,0.00020560966,-0.00046197345,0.93175715,0.002175814,0.0042816363,0.36305022,0.99971896,0.00016006497,-0.00024610898,-0.02370615,2
99265477,-0.0009816,-9.917843e-05,0.00091395667,0.9317739,0.002175986,0.004279595,0.36300755,0.99971896,0.00016006497,-0.00024610898,-0.02370615,2
99297470,0.0018027548,-0.00064173783,-0.0012168265,0.9317892,0.0021783162,0.0042848806,0.36296803,0.99971896,0.00016006497,-0.00024610898,-0.02370615,2
99329475,-0.00044067646,-0.00021994792,0.0010135688,0.93180716,0.0021841824,0.0042812363,0.36292186,0.99971896,0.00016006497,-0.00024610898,-0.02370615,2
99357469,0.0009454834,-0.0005470536,-0.00015112071,0.9318207,0.0021790639,0.0042813984,0.3628872,0.99971896,0.00016006497,-0.00024610898,-0.02370615,2
99389469,0.00041179825,0.0004131673,0.0001646097,0.93183726,0.0021709078,0.004279474,0.36284477,0.99971896,0.00016006497,-0.00024610898,-0.02370615,2
99421468,0.002222749,-0.001397261,-0.00088231487,0.9318472,0.0021808804,0.0042632264,0.3628193,0.99971896,0.00016006497,-0.00024610898,-0.02370615,2
99453497,0.00062286784,0.0013734421,0.00026280066,0.9318689,0.0021818895,0.0042793076,0.36276358,0.99971896,0.00016006497,-0.00024610898,-0.02370615,2
99485505,-0.0017164004,0.0013710586,4.7433132e-05,0.9318819,0.0021888025,0.004275395,0.36273003,0.99971896,0.00016006497,-0.00024610898,-0.02370615,2
99517468,0.0012714561,-0.00032995816,0.0007011,0.93189186,0.0022021518,0.0042884215,0.36270407,0.99971896,0.00016006497,-0.00024610898,-0.02370615,2
99549469,0.0001994879,-0.000114155235,0.00048051905,0.93190354,0.0022099414,0.004283333,0.36267442,0.99971896,0.00016006497,-0.00024610898,-0.02370615,2
99577469,0.0008414007,-0.000762117,-0.00026095484,0.9319142,0.0022124257,0.0042770947,0.362647,0.99971896,0.00016006497,-0.00024610898,-0.02370615,2
99610269,-0.00011423614,-0.0019982113,-0.0011622584,0.93192124,0.002197997,0.004279101,0.36262888,0.99971896,0.00016006497,-0.00024610898,-0.02370615,2
99641468,-0.0019278313,-0.00011610289,-0.00028406543,0.93193495,0.0021985155,0.004277676,0.36259383,0.99971896,0.00016006497,-0.00024610898,-0.02370615,2
99673475,0.0020112006,-0.0012900615,-0.00047733425,0.93195415,0.002219712,0.0042729583,0.36254424,0.99971896,0.00016006497,-0.00024610898,-0.02370615,2
99705469,0.0018985452,0.0013752247,0.00014639285,0.9319707,0.002220732,0.0042773657,0.3625015,0.99971896,0.00016006497,-0.00024610898,-0.02370615,2
99737483,0.0012562415,0.00010416197,-0.00039255968,0.9319864,0.0022190197,0.0042775143,0.36246127,0.99971896,0.00016006497,-0.00024610898,-0.02370615,2
99768692,-0.0009099797,-0.0003462309,0.00093071297,0.9320008,0.0022251862,0.0042725685,0.3624241,0.99971896,0.00016006497,-0.00024610898,-0.02370615,2
99801475,0.0006332926,6.378861e-06,0.0007928319,0.9320134,0.0022272053,0.004270068,0.3623921,0.99971896,0.00016006497,-0.00024610898,-0.02370615,2
99833468,-0.00031876483,-0.0012845057,-0.0020938008,0.9320284,0.0022383821,0.0042718165,0.3623533,0.99971896,0.00016006497,-0.00024610898,-0.02370615,2
99864669,-1.355377e-05,-0.000119522185,-0.0002895301,0.9320477,0.0022304184,0.0042796056,0.3623036,0.99971896,0.00016006497,-0.00024610898,-0.02370615,2
99892669,0.0006327054,-0.0020331806,-0.0017701836,0.93205637,0.0022278887,0.004288151,0.36228114,0.99971896,0.00016006497,-0.00024610898,-0.02370615,2
99924668,-0.0014963703,0.0012632918,-0.0011580454,0.93206733,0.00222212,0.00428258,0.362253,0.99971896,0.00016006497,-0.00024610898,-0.02370615,2
99956700,-0.0009834903,-4.288595e-06,0.0011907584,0.93208003,0.0022271893,0.0042866827,0.3622204,0.99971896,0.00016006497,-0.00024610898,-0.02370615,2
99988669,0.001591242,0.00019443352,-0.00092414045,0.93208987,0.002225222,0.004277809,0.36219496,0.99971896,0.00016006497,-0.00024610898,-0.02370615,2
100020669,-0.0017062927,-0.0031985298,0.00035451536,0.93209535,0.0022338869,0.004262786,0.36218122,0.99971896,0.00016006497,-0.00024610898,-0.02370615,2
100052671,0.00041261187,0.00031554658,-0.0005169684,0.932103,0.0022353404,0.0042634103,0.36216155,0.99971896,0.00016006497,-0.00024610898,-0.02370615,2
100084685,8.524151e-05,0.0008524405,0.002245103,0.9321171,0.0022465913,0.004273008,0.36212507,0.99971896,0.00016006497,-0.00024610898,-0.02370615,2
100116668,-0.0001195611,0.0011701322,0.0013978962,0.93212926,0.0022490108,0.00427604,0.3620934,0.99971896,0.00016006497,-0.00024610898,-0.02370615,2
100144669,0.0008347293,-0.0014939861,0.00046007763,0.93213874,0.002259763,0.0042633344,0.3620693,0.99971896,0.00016006497,-0.00024610898,-0.02370615,2
100176669,0.002112095,0.00074762455,0.0016162927,0.93214536,0.00226052,0.0042686714,0.36205217,0.99971896,0.00016006497,-0.00024610898,-0.02370615,2
100208669,-0.00160935,0.0001044808,-0.00010403668,0.9321529,0.0022673798,0.004264279,0.36203253,0.99971896,0.00016006497,-0.00024610898,-0.02370615,2
100240669,-0.0028947724,0.001383678,0.0007387828,0.9321643,0.0022502744,0.00425505,0.3620037,0.99971896,0.00016006497,-0.00024610898,-0.02370615,2
100272669,-0.00022321998,0.0004155163,0.00022458905,0.93217593,0.002246496,0.0042507956,0.36197352,0.99971896,0.00016006497,-0.00024610898,-0.02370615,2
100304668,-0.001076638,-8.229254e-06,-9.692076e-05,0.93218154,0.00222821,0.004259201,0.36195925,0.99971896,0.00016006497,-0.00024610898,-0.02370615,2
100336675,-0.00010281708,0.0022145505,-0.0013714776,0.93219364,0.0022297946,0.004272303,0.36192816,0.99971896,0.00016006497,-0.00024610898,-0.02370615,2
100368668,0.0029709619,0.00030856114,-0.0011506081,0.9322043,0.0022395311,0.004277866,0.36190048,0.99971896,0.00016006497,-0.00024610898,-0.02370615,2
100396675,-0.001296391,-0.0014993859,-9.27934e-05,0.9322116,0.0022361036,0.0042744926,0.36188176,0.99971896,0.00016006497,-0.00024610898,-0.02370615,2
100428669,-0.00053310476,-0.00044413804,-0.002335031,0.9322266,0.0022290323,0.004286248,0.36184314,0.99971896,0.00016006497,-0.00024610898,-0.02370615,2
100460669,9.472715e-05,-0.0013890364,-0.00020230009,0.9322448,0.0022299977,0.0042767473,0.3617963,0.99971896,0.00016006497,-0.00024610898,-0.02370615,2
100492669,-0.0012939075,9.524706e-05,-0.00064942724,0.9322525,0.00223976,0.004273876,0.3617761,0.99971896,0.00016006497,-0.00024610898,-0.02370615,2
100524675,-0.0022349663,-0.00022740554,-0.0026739805,0.9322691,0.0022360738,0.0042789686,0.36173353,0.99971896,0.00016006497,-0.00024610898,-0.02370615,2
100555897,-0.0019206784,0.000514903,-0.0021462012,0.93228513,0.0022213843,0.0042868177,0.3616922,0.99971896,0.00016006497,-0.00024610898,-0.02370615,2
100587868,9.8311924e-05,-0.001402705,-0.0024556061,0.93230337,0.0022148248,0.0042873207,0.3616454,0.99971896,0.00016006497,-0.00024610898,-0.02370615,2
100619896,0.00062061555,-9.682146e-06,-0.00075056707,0.9323171,0.0022201124,0.004290854,0.36160964,0.99971896,0.00016006497,-0.00024610898,-0.02370615,2
100651869,-0.000536553,0.0011550207,-0.0009855663,0.93233967,0.0022178253,0.004291412,0.3615513,0.99971896,0.00016006497,-0.00024610898,-0.02370615,2
100683879,0.0011564199,-0.0022473633,0.00073874294,0.93235433,0.0022189603,0.0042828396,0.3615136,0.99971896,0.00016006497,-0.00024610898,-0.02370615,2
100711910,0.0013567975,0.0016989904,-0.0007661425,0.9323651,0.0022186846,0.00428883,0.3614856,0.99971896,0.00016006497,-0.00024610898,-0.02370615,2
100743875,0.00029470923,-0.00043411623,0.00020657858,0.9323817,0.0022161389,0.0042878226,0.36144337,0.99971896,0.00016006497,-0.00024610898,-0.02370615,2
100775874,-0.00034358422,0.0008294977,-0.00054699136,0.9323998,0.0022057942,0.004281425,0.36139658,0.99971896,0.00016006497,-0.00024610898,-0.02370615,2
100807889,0.00019311637,-0.0004335211,-0.00055138714,0.932414,0.0021998293,0.0042730714,0.36136,0.99971896,0.00016006497,-0.00024610898,-0.02370615,2
100839868,-0.0011769016,0.00063337956,-0.0013930546,0.9324315,0.0021916083,0.0042686346,0.36131486,0.99971896,0.00016006497,-0.00024610898,-0.02370615,2
100871923,0.0024292625,-0.000107122556,-0.000120988494,0.93244374,0.0021976975,0.0042798375,0.36128324,0.99971896,0.00016006497,-0.00024610898,-0.02370615,2
100903869,9.1748196e-05,-0.0010785335,-0.0017128801,0.9324579,0.0021798175,0.004279217,0.36124665,0.99971896,0.00016006497,-0.00024610898,-0.02370615,2
100935883,-0.00044628512,-0.0011695626,-0.00012093104,0.93246824,0.0021654547,0.00426837,0.36122012,0.99971896,0.00016006497,-0.00024610898,-0.02370615,2
100967869,-0.002562482,0.0008456595,-0.00014061414,0.9324794,0.0021582486,0.004278277,0.36119142,0.99971896,0.00016006497,-0.00024610898,-0.02370615,2
100999876,0.00040973444,0.0018069358,-0.00087864837,0.9324895,0.0021581962,0.004287695,0.36116523,0.99971896,0.00016006497,-0.00024610898,-0.02370615,2
101031868,-0.00023392797,0.0013712866,-0.00087739003,0.9324984,0.0021454268,0.0042953915,0.36114225,0.99971896,0.00016006497,-0.00024610898,-0.02370615,2
101063869,-4.1589374e-06,-0.000121823075,-0.0027753268,0.93250924,0.0021380777,0.004287283,0.36111432,0.99971896,0.00016006497,-0.00024610898,-0.02370615,2
101095871,0.0003029653,0.000413003,-0.000659371,0.93251485,0.0021460347,0.0042801416,0.36109996,0.99971896,0.00016006497,-0.00024610898,-0.02370615,2
101127908,-0.0001480967,-0.0014018604,0.00040537724,0.93251544,0.00215382,0.004278592,0.36109835,0.99971896,0.00016006497,-0.00024610898,-0.02370615,2
101159893,0.00030094117,0.00095631543,8.6514745e-05,0.93252045,0.0021524385,0.0042768153,0.36108539,0.99971896,0.00016006497,-0.00024610898,-0.02370615,2
101187887,0.0005124748,-0.0008502537,-0.00011023326,0.932523,0.002155059,0.0042813886,0.36107886,0.99971896,0.00016006497,-0.00024610898,-0.02370615,2
101219868,0.0013575933,0.0014900984,0.0015904225,0.9325224,0.0021469912,0.004296178,0.36108032,0.99971896,0.00016006497,-0.00024610898,-0.02370615,2
101251869,-0.0018315009,0.0012608302,-0.0007666284,0.93252116,0.0021300397,0.0043013645,0.36108348,0.99971896,0.00016006497,-0.00024610898,-0.02370615,2
101283118,-0.00026878645,-0.0006098306,0.00078162004,0.9325199,0.0021424412,0.0043006493,0.3610867,0.99971896,0.00016006497,-0.00024610898,-0.02370615,2
101315072,-0.00042645622,-0.0011728011,-0.00085476285,0.9325213,0.002149686,0.0043019215,0.36108306,0.99971896,0.00016006497,-0.00024610898,-0.02370615,2
101347094,0.0020089108,0.00019776225,-0.00191845,0.93251985,0.0021631466,0.004291878,0.36108664,0.99971896,0.00016006497,-0.00024610898,-0.02370615,2
101379118,-0.001400225,-0.00096148584,-0.00043760394,0.93251365,0.0021670372,0.0042938474,0.36110285,0.99971896,0.00016006497,-0.00024610898,-0.02370615,2
101411068,0.00073050003,0.00010654525,-0.00086308946,0.9325139,0.002167312,0.0042994297,0.36110198,0.99971896,0.00016006497,-0.00024610898,-0.02370615,2
101443086,0.00019636902,-0.00011866234,-0.0020297093,0.9325133,0.0021626006,0.004292871,0.36110386,0.99971896,0.00016006497,-0.00024610898,-0.02370615,2
101475069,-0.0013070685,0.00022115244,-0.00013967452,0.93251115,0.0021571529,0.004298872,0.3611092,0.99971896,0.00016006497,-0.00024610898,-0.02370615,2
101503069,-0.00022664363,0.0015873386,-0.0011989577,0.9325087,0.0021469002,0.004296353,0.36111557,0.99971896,0.00016006497,-0.00024610898,-0.02370615,2
101535075,-0.0007693026,-3.5353296e-06,-0.0003429543,0.93251604,0.0021396093,0.004308893,0.36109653,0.99971896,0.00016006497,-0.00024610898,-0.02370615,2
101567069,-0.0011566541,-0.0010862957,-0.0017204818,0.93252325,0.0021462655,0.0043004234,0.36107814,0.99971896,0.00016006497,-0.00024610898,-0.02370615,2
101599115,0.00041307695,0.0008445535,-0.0011998466,0.93253535,0.0021380405,0.0043036086,0.36104673,0.99971896,0.00016006497,-0.00024610898,-0.02370615,2
101631111,0.00029447745,0.0005457683,0.0010170601,0.9325462,0.0021330433,0.004313238,0.3610189,0.99971896,0.00016006497,-0.00024610898,-0.02370615,2
101663068,-0.0023501513,-0.001068304,-0.00013438467,0.932561,0.002111991,0.0043096533,0.3609806,0.99971896,0.00016006497,-0.00024610898,-0.02370615,2
101695092,0.0006180387,-0.0006349528,0.00019052665,0.9325707,0.00209727,0.004317703,0.36095548,0.99971896,0.00016006497,-0.00024610898,-0.02370615,2
101727112,-0.00012580235,-0.00013386292,-0.0012017265,0.9325822,0.0021028407,0.004314315,0.3609258,0.99971896,0.00016006497,-0.00024610898,-0.02370615,2
101759068,0.00062190613,0.00265821,-0.00057914056,0.9325951,0.0020883738,0.004319932,0.36089256,0.99971896,0.00016006497,-0.00024610898,-0.02370615,2
101791070,0.0004152445,0.0011698696,-0.0009966438,0.9326087,0.002080973,0.0043408023,0.36085716,0.99971896,0.00016006497,-0.00024610898,-0.02370615,2
101823077,0.00018511491,0.0005391977,0.0017661268,0.9326222,0.002077867,0.00434276,0.36082232,0.99971896,0.00016006497,-0.00024610898,-0.02370615,2
101855079,0.0028492468,0.0005380824,0.00061081373,0.93263763,0.0020960944,0.0043412973,0.3607821,0.99971896,0.00016006497,-0.00024610898,-0.02370615,2
101887069,-0.00065479893,0.00094505044,-0.000582323,0.9326518,0.0020792515,0.004356396,0.36074552,0.99971896,0.00016006497,-0.00024610898,-0.02370615,2
101919068,0.0011487099,0.00051595364,-0.0008020162,0.932666,0.0020837993,0.0043628635,0.36070877,0.99971896,0.00016006497,-0.00024610898,-0.02370615,2
101947086,0.00030559266,-0.00096011756,-0.0014157782,0.93268174,0.0020929393,0.004372093,0.360668,0.99971896,0.00016006497,-0.00024610898,-0.02370615,2
101979069,0.00020587142,-0.00020920241,0.0004868086,0.93269813,0.0020888068,0.0043747276,0.36062562,0.99971896,0.00016006497,-0.00024610898,-0.02370615,2
102011075,-0.00043700426,-0.0014997071,-0.0013209825,0.93271637,0.0020962935,0.004368386,0.36057857,0.99971896,0.00016006497,-0.00024610898,-0.02370615,2
102043903,-0.00021664635,-0.0016315529,0.0012095908,0.93272996,0.0020943691,0.0043646772,0.3605431,0.99971896,0.00016006497,-0.00024610898,-0.02370615,2
102074269,-2.6506721e-05,0.0011740937,0.00079710875,0.932746,0.0020976695,0.0043602157,0.36050165,0.99971896,0.00016006497,-0.00024610898,-0.02370615,2
102106269,0.0019041139,-0.00033236443,4.858547e-05,0.932761,0.0021034854,0.0043385965,0.36046317,0.99971896,0.00016006497,-0.00024610898,-0.02370615,2
102137515,-0.0010641579,0.00032358835,-0.00048007112,0.9327793,0.0021104366,0.0043536513,0.3604158,0.99971896,0.00016006497,-0.00024610898,-0.02370615,2
102170275,0.0025415018,-0.0015382969,0.0005101727,0.932802,0.0021195454,0.004363739,0.3603567,0.99971896,0.00016006497,-0.00024610898,-0.02370615,2
102202302,-0.0020281537,-0.0005379923,-0.00029398414,0.93282074,0.0021249715,0.004368081,0.36030808,0.99971896,0.00016006497,-0.00024610898,-0.02370615,2
102234268,0.00018953334,0.0005255476,-0.00081797055,0.93284297,0.0021117937,0.004366816,0.36025077,0.99971896,0.00016006497,-0.00024610898,-0.02370615,2
102262269,0.0006231277,-0.00010592429,-0.0009213964,0.93286586,0.002111113,0.0043745027,0.3601914,0.99971896,0.00016006497,-0.00024610898,-0.02370615,2
102294269,-0.0006463212,-0.0027685554,-0.00080919196,0.93288857,0.0021070011,0.004373784,0.3601324,0.99971896,0.00016006497,-0.00024610898,-0.02370615,2
102326306,-0.00086205173,-0.00010615427,-0.0002965658,0.9329135,0.0021124682,0.004370988,0.360068,0.99971896,0.00016006497,-0.00024610898,-0.02370615,2
102358275,-0.0006579845,0.00043240466,0.00023159746,0.93293434,0.0021159477,0.004371522,0.36001387,0.99971896,0.00016006497,-0.00024610898,-0.02370615,2
102390271,-0.0011714719,0.0012603817,-0.0029632384,0.93295544,0.0021074994,0.0043769516,0.3599593,0.99971896,0.00016006497,-0.00024610898,-0.02370615,2
102422269,0.0017967755,0.0019287232,-0.0015720262,0.93297803,0.0021042463,0.004401799,0.35990027,0.99971896,0.00016006497,-0.00024610898,-0.02370615,2
102454306,-0.0010706275,-0.00063682767,-0.0014788485,0.93299603,0.0021121644,0.004406519,0.35985363,0.99971896,0.00016006497,-0.00024610898,-0.02370615,2
102486275,0.00018688256,0.00022261287,0.001297188,0.9330114,0.0021181735,0.0044032657,0.3598138,0.99971896,0.00016006497,-0.00024610898,-0.02370615,2
102518286,-0.0011758889,0.001599116,-0.0005342214,0.93302965,0.0020986856,0.0044037853,0.35976654,0.99971896,0.00016006497,-0.00024610898,-0.02370615,2
102550277,0.0013572474,0.0016021088,0.0012845948,0.9330483,0.0020960134,0.004413938,0.35971805,0.99971896,0.00016006497,-0.00024610898,-0.02370615,2
102582269,-0.0010789485,0.001061636,-0.0011681984,0.9330579,0.0020989357,0.0044200975,0.35969278,0.99971896,0.00016006497,-0.00024610898,-0.02370615,2
102614268,-0.0021652232,-0.0010880555,-0.0007937888,0.93306893,0.0020865833,0.004415376,0.35966477,0.99971896,0.00016006497,-0.00024610898,-0.02370615,2
102646268,0.0004090343,0.000533164,-0.00083954434,0.9330821,0.0020833572,0.004412069,0.35963035,0.99971896,0.00016006497,-0.00024610898,-0.02370615,2
102678268,-0.0012964631,0.000962427,-2.473651e-06,0.9330995,0.002085615,0.0044098953,0.35958514,0.99971896,0.00016006497,-0.00024610898,-0.02370615,2
102710271,-0.00010798755,-0.0003608557,-0.0026729177,0.9331136,0.0020835737,0.004412921,0.3595485,0.99971896,0.00016006497,-0.00024610898,-0.02370615,2
102738269,-0.00023485336,0.00010345498,-0.00074620085,0.93312573,0.0020908914,0.004403212,0.3595173,0.99971896,0.00016006497,-0.00024610898,-0.02370615,2
102770296,-0.0012848423,-0.0009730585,-0.0019117575,0.93314326,0.0020894033,0.0044022594,0.3594718,0.99971896,0.00016006497,-0.00024610898,-0.02370615,2
102802269,8.9611276e-05,-0.0007458951,-0.0008444935,0.933159,0.0020791302,0.0043924265,0.35943112,0.99971896,0.00016006497,-0.00024610898,-0.02370615,2
102834269,-0.00033685798,0.0015782597,-0.0025635962,0.93317455,0.0020682365,0.0044046124,0.3593908,0.99971896,0.00016006497,-0.00024610898,-0.02370615,2
102865468,0.00072201714,-0.0006337884,0.00021726062,0.9331859,0.0020676765,0.004414654,0.3593612,0.99971896,0.00016006497,-0.00024610898,-0.02370615,2
102897494,-0.00055055413,-0.00021764418,-0.0010702226,0.93320394,0.0020793064,0.0044220695,0.35931417,0.99971896,0.00016006497,-0.00024610898,-0.02370615,2
102929469,-0.0003357929,-0.00042694414,-0.0010692503,0.9332186,0.0020963561,0.004414777,0.359276,0.99971896,0.00016006497,-0.00024610898,-0.02370615,2
102961475,0.0021137125,-0.0018089891,-0.0009387166,0.93323046,0.0021035168,0.004406198,0.35924542,0.99971896,0.00016006497,-0.00024610898,-0.02370615,2
102993475,0.00019441394,-0.00042393757,-0.0008563207,0.9332402,0.0021047127,0.0043941615,0.35922,0.99971896,0.00016006497,-0.00024610898,-0.02370615,2
103025497,0.001659834,-0.00020644898,0.00074842275,0.9332483,0.0021291834,0.004395562,0.35919878,0.99971896,0.00016006497,-0.00024610898,-0.02370615,2
103057468,0.0023136148,0.000108751556,4.882808e-06,0.9332598,0.0021244967,0.004404321,0.35916883,0.99971896,0.00016006497,-0.00024610898,-0.02370615,2
103089504,-0.0006636557,0.0023462297,-0.0006641491,0.9332713,0.0021263154,0.004419948,0.35913867,0.99971896,0.00016006497,-0.00024610898,-0.02370615,2
103121475,-0.0015396972,0.00043840636,0.001796118,0.9332775,0.002123071,0.0044248956,0.35912266,0.99971896,0.00016006497,-0.00024610898,-0.02370615,2
103153496,0.0004047429,-0.0006450064,-0.0015039357,0.9332901,0.002132502,0.0044294717,0.35908985,0.99971896,0.00016006497,-0.00024610898,-0.02370615,2
103185504,0.00040346023,-0.0022331271,-0.00010429154,0.9332991,0.0021416936,0.0044252295,0.35906625,0.99971896,0.00016006497,-0.00024610898,-0.02370615,2
103217505,-0.00023842265,0.0011684857,-0.0012978477,0.93331134,0.0021390708,0.004424978,0.35903457,0.99971896,0.00016006497,-0.00024610898,-0.02370615,2
103249490,0.0007206388,-0.00085566455,-0.00085473317,0.93331873,0.0021503402,0.00441593,0.35901538,0.99971896,0.00016006497,-0.00024610898,-0.02370615,2
103281498,-0.00044830272,-0.0015817938,-0.00023237185,0.933325,0.002161591,0.004418316,0.35899886,0.99971896,0.00016006497,-0.00024610898,-0.02370615,2
103313469,-0.0013979353,0.0007398906,-0.0018305967,0.93333256,0.0021617627,0.0044188993,0.35897958,0.99971896,0.00016006497,-0.00024610898,-0.02370615,2
103345469,0.0009244937,0.00085676013,0.0005004244,0.9333411,0.002161067,0.0044265506,0.35895705,0.99971896,0.00016006497,-0.00024610898,-0.02370615,2
103377475,0.00050220196,0.00030813587,-0.0017286742,0.93335074,0.0021562905,0.0044310708,0.35893196,0.99971896,0.00016006497,-0.00024610898,-0.02370615,2
103409469,0.0016747222,-0.0012743355,-0.00021920807,0.93336356,0.0021541794,0.004443703,0.35889852,0.99971896,0.00016006497,-0.00024610898,-0.02370615,2
103441469,0.0012543419,-0.00064048,-0.0009657486,0.93337446,0.0021703863,0.004450151,0.35887015,0.99971896,0.00016006497,-0.00024610898,-0.02370615,2
103469500,0.0011452019,-0.00010337704,-0.0010769401,0.93338025,0.002173394,0.004440034,0.358855,0.99971896,0.00016006497,-0.00024610898,-0.02370615,2
103501469,0.0013598064,0.0015964985,-0.00076876045,0.93338716,0.0021698836,0.0044390974,0.358837,0.99971896,0.00016006497,-0.00024610898,-0.02370615,2
103533469,0.0013506043,0.0012702022,-2.6739435e-05,0.9333978,0.0021787463,0.0044446955,0.35880926,0.99971896,0.00016006497,-0.00024610898,-0.02370615,2
103565469,8.660788e-05,-0.001381648,-0.0004632548,0.93341106,0.002171036,0.004431116,0.35877514,0.99971896,0.00016006497,-0.00024610898,-0.02370615,2
103597518,0.0009276218,-0.0010596229,-0.00034622094,0.9334225,0.0021813323,0.0044392096,0.35874498,0.99971896,0.00016006497,-0.00024610898,-0.02370615,2
103628669,0.002012766,-0.00042027014,-0.0005460409,0.9334347,0.0021938977,0.00444727,0.35871318,0.99971896,0.00016006497,-0.00024610898,-0.02370615,2
103660686,-0.0017301508,-0.00020863989,-4.2691827e-05,0.9334477,0.002186884,0.0044378918,0.35867935,0.99971896,0.00016006497,-0.00024610898,-0.02370615,2
103691918,-9.537907e-06,0.00019020759,-0.0020182128,0.9334625,0.002202957,0.0044401432,0.35864097,0.99971896,0.00016006497,-0.00024610898,-0.02370615,2
103724675,0.00093623874,0.0019142927,-0.0011078474,0.93347824,0.0022033611,0.0044401595,0.35859987,0.99971896,0.00016006497,-0.00024610898,-0.02370615,2
103756669,0.0009349835,-0.00010607322,-0.0013112533,0.93349195,0.0022103663,0.004443658,0.358564,0.99971896,0.00016006497,-0.00024610898,-0.02370615,2
103784676,0.00019256258,0.00074486865,-0.0013184436,0.9335074,0.0022227196,0.0044478076,0.35852388,0.99971896,0.00016006497,-0.00024610898,-0.02370615,2
103816669,-0.00331588,0.00031413703,-0.0016512377,0.93352383,0.0022002591,0.004433239,0.35848114,0.99971896,0.00016006497,-0.00024610898,-0.02370615,2
103848700,-0.0006500066,0.00042463656,-0.0008966604,0.9335362,0.0021954514,0.004425955,0.35844928,0.99971896,0.00016006497,-0.00024610898,-0.02370615,2
103880678,-0.0002387811,-0.0012782216,-0.0009953397,0.93354726,0.0021787228,0.0044224686,0.35842043,0.99971896,0.00016006497,-0.00024610898,-0.02370615,2
103912693,0.001257075,0.00095628464,-0.00078759267,0.93355894,0.002190111,0.004434308,0.3583898,0.99971896,0.00016006497,-0.00024610898,-0.02370615,2
103944668,6.888562e-05,-0.0008599014,-0.0021535521,0.93357027,0.0021852972,0.004431908,0.35836035,0.99971896,0.00016006497,-0.00024610898,-0.02370615,2
103976669,-0.0009748187,0.00010068924,-0.0021712426,0.93357956,0.0021652405,0.004433422,0.35833627,0.99971896,0.00016006497,-0.00024610898,-0.02370615,2
104008669,-0.00077035313,-0.00031347506,-4.490523e-05,0.9335867,0.0021758152,0.004430457,0.35831776,0.99971896,0.00016006497,-0.00024610898,-0.02370615,2
104040678,-0.0009767162,0.0009646105,-0.001854878,0.93359643,0.0021684698,0.004423576,0.35829234,0.99971896,0.00016006497,-0.00024610898,-0.02370615,2
104072675,-0.0024765325,-0.0022377484,-0.0014302554,0.9336064,0.0021611887,0.004416737,0.35826683,0.99971896,0.00016006497,-0.00024610898,-0.02370615,2
104104669,-0.00055517734,0.0008582359,-0.0016590962,0.93361586,0.002155588,0.004414965,0.35824203,0.99971896,0.00016006497,-0.00024610898,-0.02370615,2
104136669,-0.00012913451,0.0006389217,-0.0009028022,0.93362665,0.002152007,0.0044132564,0.35821405,0.99971896,0.00016006497,-0.00024610898,-0.02370615,2
104168671,-0.0010958356,0.0005384924,0.00048018346,0.93363464,0.0021417602,0.0044263853,0.35819313,0.99971896,0.00016006497,-0.00024610898,-0.02370615,2
104200711,8.366199e-05,-0.00060207315,0.0013260768,0.933637,0.0021383192,0.0044216844,0.35818696,0.99971896,0.00016006497,-0.00024610898,-0.02370615,2
104232669,0.0011488682,-0.00021694528,-0.0007913186,0.93365085,0.0021386938,0.004405858,0.3581512,0.99971896,0.00016006497,-0.00024610898,-0.02370615,2
104264669,0.0008176532,-0.00020235003,0.0011229969,0.93365544,0.0021479616,0.004413092,0.35813904,0.99971896,0.00016006497,-0.00024610898,-0.02370615,2
104296671,0.0010315892,-0.002116183,0.0011330354,0.9336581,0.002152857,0.0044049723,0.35813192,0.99971896,0.00016006497,-0.00024610898,-0.02370615,2
104327869,-0.0006659719,0.0010635878,-0.0003832643,0.93366915,0.0021463942,0.0043968465,0.3581033,0.99971896,0.00016006497,-0.00024610898,-0.02370615,2
104361469,0.0003987219,-0.0014736659,-0.00015521655,0.9336817,0.002146877,0.004388928,0.3580707,0.99971896,0.00016006497,-0.00024610898,-0.02370615,2
104391882,0.0010388053,-0.00022653452,-0.0013258611,0.9336899,0.0021556166,0.0043857894,0.35804942,0.99971896,0.00016006497,-0.00024610898,-0.02370615,2
104423869,0.0017255668,-0.0014310733,-3.4472207e-05,0.9337005,0.0021604123,0.0043897554,0.3580217,0.99971896,0.00016006497,-0.00024610898,-0.02370615,2
104455869,-0.00013344095,0.00011030998,0.0004716058,0.93370926,0.0021600425,0.0044031264,0.35799873,0.99971896,0.00016006497,-0.00024610898,-0.02370615,2
104487875,-0.0004629247,0.0008550609,-0.00069328607,0.933718,0.0021617806,0.0044039325,0.3579758,0.99971896,0.00016006497,-0.00024610898,-0.02370615,2
104519892,-0.0005540757,0.0012818058,-0.00069956115,0.9337269,0.0021639257,0.004410797,0.3579526,0.99971896,0.00016006497,-0.00024610898,-0.02370615,2
104547880,-0.00055810844,0.0009611576,-0.00027291206,0.93373424,0.0021560653,0.0044079074,0.35793346,0.99971896,0.00016006497,-0.00024610898,-0.02370615,2
104579890,8.252822e-05,9.9576515e-05,-0.000898718,0.93373823,0.0021500322,0.004406642,0.35792318,0.99971896,0.00016006497,-0.00024610898,-0.02370615,2
104611869,0.0007407073,0.00020612148,-0.0019875795,0.93374354,0.0021556304,0.0043995995,0.3579092,0.99971896,0.00016006497,-0.00024610898,-0.02370615,2
104643869,-0.00024790037,0.00032036952,0.000893853,0.9337479,0.0021588341,0.0043913405,0.35789806,0.99971896,0.00016006497,-0.00024610898,-0.02370615,2
104675875,0.0022163705,0.00010205171,0.00016312214,0.9337499,0.0021764296,0.0043965927,0.3578926,0.99971896,0.00016006497,-0.00024610898,-0.02370615,2
104707875,0.0015771636,0.0012798826,-0.00047199556,0.933752,0.0021781758,0.004407845,0.3578871,0.99971896,0.00016006497,-0.00024610898,-0.02370615,2
104739869,-0.0003339086,-0.00012525806,-0.0031599961,0.9337629,0.0021945783,0.004415207,0.3578583,0.99971896,0.00016006497,-0.00024610898,-0.02370615,2
104771888,-0.0015856886,-0.0007580648,-0.00324983,0.93377715,0.0021947487,0.0043942477,0.35782132,0.99971896,0.00016006497,-0.00024610898,-0.02370615,2
104799893,-0.0007597916,-0.00031192048,-0.0014578562,0.93378484,0.0021938107,0.0043896115,0.35780156,0.99971896,0.00016006497,-0.00024610898,-0.02370615,2
104831869,-0.00044385158,0.0010545698,-0.0021996489,0.9337964,0.0021793784,0.0043851724,0.35777143,0.99971896,0.00016006497,-0.00024610898,-0.02370615,2
104863875,-0.0009860436,0.0008556494,2.8279843e-05,0.9338069,0.0021726575,0.0043777516,0.35774413,0.99971896,0.00016006497,-0.00024610898,-0.02370615,2
104895868,0.0015650085,-0.00020247436,0.0010052221,0.9338118,0.0021836841,0.0043798285,0.35773125,0.99971896,0.00016006497,-0.00024610898,-0.02370615,2
104927869,-0.0019452511,0.00031710445,-0.00061488483,0.9338227,0.002166608,0.004378729,0.35770297,0.99971896,0.00016006497,-0.00024610898,-0.02370615,2
104959869,0.0010372363,0.0013813428,-0.00027856466,0.9338312,0.0021676791,0.004380659,0.3576806,0.99971896,0.00016006497,-0.00024610898,-0.02370615,2
104991893,0.0009299928,-0.0021257638,-5.1092706e-05,0.9338376,0.002169726,0.0043628635,0.35766414,0.99971896,0.00016006497,-0.00024610898,-0.02370615,2
105023920,-0.00013018143,-0.00085397693,-0.0006027277,0.93384826,0.002173917,0.00436322,0.35763654,0.99971896,0.00016006497,-0.00024610898,-0.02370615,2
105055868,-0.0016582652,-0.0016092216,0.0015182493,0.93385875,0.0021661932,0.0043531465,0.35760915,0.99971896,0.00016006497,-0.00024610898,-0.02370615,2
105087869,-0.0005806079,-0.00021133115,-0.00039177708,0.9338675,0.0021607622,0.004348424,0.3575864,0.99971896,0.00016006497,-0.00024610898,-0.02370615,2
105119869,7.462944e-05,-0.0020188885,-6.1912e-05,0.9338734,0.0021453365,0.0043401145,0.35757118,0.99971896,0.00016006497,-0.00024610898,-0.02370615,2
105151093,0.00066290656,5.2539515e-05,-0.0009990365,0.9338822,0.0021445618,0.004344936,0.35754803,0.99971896,0.00016006497,-0.00024610898,-0.02370615,2
105183068,0.0010475542,-0.0003103277,0.0003517695,0.9338878,0.002146017,0.004339559,0.35753357,0.99971896,0.00016006497,-0.00024610898,-0.02370615,2
105215076,-0.0005667246,0.0022290903,-0.00072458095,0.93389994,0.002143715,0.0043443884,0.35750183,0.99971896,0.00016006497,-0.00024610898,-0.02370615,2
105247075,0.00115336,1.52266e-05,-0.00059157866,0.93390083,0.002139626,0.0043449914,0.35749942,0.99971896,0.00016006497,-0.00024610898,-0.02370615,2
105279105,-0.002798209,0.00139326,0.0003303098,0.9339026,0.002134213,0.0043473328,0.3574947,0.99971896,0.00016006497,-0.00024610898,-0.02370615,2
105307104,0.001362825,-0.0005247232,-0.0004843463,0.9339063,0.0021267259,0.0043393755,0.35748547,0.99971896,0.00016006497,-0.00024610898,-0.02370615,2
105339069,0.00018841436,-0.00042655133,-0.00081527315,0.9339102,0.002130057,0.0043370374,0.35747525,0.99971896,0.00016006497,-0.00024610898,-0.02370615,2
105371068,-1.4397432e-05,0.00064385467,-0.0014571943,0.93391716,0.0021327827,0.0043546143,0.35745654,0.99971896,0.00016006497,-0.00024610898,-0.02370615,2
105403069,0.0009257917,0.0012744961,2.6824011e-05,0.93392336,0.0021247694,0.0043720994,0.35744032,0.99971896,0.00016006497,-0.00024610898,-0.02370615,2
105435071,-0.00034146418,-0.00095119176,-0.0003953503,0.933928,0.002117374,0.004362473,0.35742828,0.99971896,0.00016006497,-0.00024610898,-0.02370615,2
105467070,0.0010437926,-0.0005414259,-0.0023041582,0.93393373,0.0021225135,0.004349818,0.35741338,0.99971896,0.00016006497,-0.00024610898,-0.02370615,2
105499075,-0.00013028237,0.0011681209,-0.0006143289,0.93394345,0.0021313026,0.004344478,0.357388,0.99971896,0.00016006497,-0.00024610898,-0.02370615,2
105531068,-0.00013214105,0.0015962757,0.00012788962,0.9339505,0.0021290837,0.004357229,0.35736957,0.99971896,0.00016006497,-0.00024610898,-0.02370615,2
105559086,0.00029172213,0.001265699,-0.0010398297,0.9339594,0.0021123888,0.004359982,0.3573463,0.99971896,0.00016006497,-0.00024610898,-0.02370615,2
105591069,0.0013500104,0.0011801373,0.0006737238,0.9339616,0.0021185444,0.004379123,0.35734037,0.99971896,0.00016006497,-0.00024610898,-0.02370615,2
105623112,-1.3089157e-05,-0.0012932563,-0.0025057103,0.93397003,0.0021249733,0.004358061,0.35731834,0.99971896,0.00016006497,-0.00024610898,-0.02370615,2
105655068,-0.0018379312,-0.000530615,-0.00018793988,0.9339741,0.0021260816,0.004355028,0.35730794,0.99971896,0.00016006497,-0.00024610898,-0.02370615,2
105687075,0.0001843631,-0.0008468713,-0.00039322348,0.93397933,0.0021161835,0.004356889,0.35729432,0.99971896,0.00016006497,-0.00024610898,-0.02370615,2
105719073,-0.00087094214,9.811844e-05,-0.0010597557,0.93398315,0.0021095457,0.004355645,0.35728416,0.99971896,0.00016006497,-0.00024610898,-0.02370615,2
105751107,0.0013401697,-0.000106574735,-0.0009318326,0.93398565,0.0021063488,0.0043565687,0.35727793,0.99971896,0.00016006497,-0.00024610898,-0.02370615,2
105783084,0.00315558,-9.4011775e-06,-0.001020219,0.9339929,0.0021258784,0.004361554,0.35725847,0.99971896,0.00016006497,-0.00024610898,-0.02370615,2
105811086,-0.0009898641,-0.0005293441,0.00034045137,0.9339981,0.0021317408,0.004361042,0.35724512,0.99971896,0.00016006497,-0.00024610898,-0.02370615,2
105843069,-0.0013039706,0.00031727555,-0.00072629965,0.93400556,0.0021234415,0.00435773,0.35722545,0.99971896,0.00016006497,-0.00024610898,-0.02370615,2
105875077,-0.00097587064,0.0007398869,-0.0015734106,0.9340097,0.0021192462,0.0043623117,0.3572151,0.99971896,0.00016006497,-0.00024610898,-0.02370615,2
105907069,-0.000556109,-0.00021724476,-0.0011444375,0.93401766,0.0021109723,0.0043651382,0.35719404,0.99971896,0.00016006497,-0.00024610898,-0.02370615,2
105939107,0.00050518,0.0006369783,-7.859245e-05,0.9340192,0.0021176254,0.0043561524,0.35719004,0.99971896,0.00016006497,-0.00024610898,-0.02370615,2
105970268,-0.0007772383,0.0011746907,0.00034015247,0.9340201,0.002111725,0.004365276,0.3571878,0.99971896,0.00016006497,-0.00024610898,-0.02370615,2
