timestamp,x,y,z,r,flaps,aux1,aux2,aux3,aux4,aux5,aux6,mode_switch,return_switch,rattitude_switch,posctl_switch,loiter_switch,acro_switch,offboard_switch,kill_switch,arm_switch,transition_switch,gear_switch,mode_slot,data_source,stab_switch,man_switch
93645394,0.0,0.0,0.4962025,0.0,0.0,0.0,0.0,0.0,0.0,0.0,0.0,0,0,0,0,0,0,0,3,3,0,0,3,1,0,0
93840810,0.0,0.0,0.495941,0.0,0.0,0.0,0.0,0.0,0.0,0.0,0.0,0,0,0,0,0,0,0,3,3,0,0,3,1,0,0
94040588,0.0,0.0,0.49531835,0.0,0.0,0.0,0.0,0.0,0.0,0.0,0.0,0,0,0,0,0,0,0,3,3,0,0,3,1,0,0
94244566,0.0,0.0,0.49627453,0.0,0.0,0.0,0.0,0.0,0.0,0.0,0.0,0,0,0,0,0,0,0,3,3,0,0,3,1,0,0
94455558,0.0,0.0,0.49620306,0.0,0.0,0.0,0.0,0.0,0.0,0.0,0.0,0,0,0,0,0,0,0,3,3,0,0,3,1,0,0
94659583,0.0,0.0,0.4962025,0.0,0.0,0.0,0.0,0.0,0.0,0.0,0.0,0,0,0,0,0,0,0,3,3,0,0,3,1,0,0
94859562,0.0,0.0,0.49627337,0.0,0.0,0.0,0.0,0.0,0.0,0.0,0.0,0,0,0,0,0,0,0,3,3,0,0,3,1,0,0
95063958,0.0,0.0,0.49594095,0.0,0.0,0.0,0.0,0.0,0.0,0.0,0.0,0,0,0,0,0,0,0,3,3,0,0,3,1,0,0
95258768,0.0,0.0,0.49615964,0.0,0.0,0.0,0.0,0.0,0.0,0.0,0.0,0,0,0,0,0,0,0,3,3,0,0,3,1,0,0
95462762,0.0,0.0,0.4962012,0.0,0.0,0.0,0.0,0.0,0.0,0.0,0.0,0,0,0,0,0,0,0,3,3,0,0,3,1,0,0
95658807,0.0,0.0,0.49624354,0.0,0.0,0.0,0.0,0.0,0.0,0.0,0.0,0,0,0,0,0,0,0,3,3,0,0,3,1,0,0
95862757,0.0,0.0,0.4962026,0.0,0.0,0.0,0.0,0.0,0.0,0.0,0.0,0,0,0,0,0,0,0,3,3,0,0,3,1,0,0
96065936,0.0,0.0,0.49620256,0.0,0.0,0.0,0.0,0.0,0.0,0.0,0.0,0,0,0,0,0,0,0,3,3,0,0,3,1,0,0
96265944,0.0,0.0,0.49558172,0.0,0.0,0.0,0.0,0.0,0.0,0.0,0.0,0,0,0,0,0,0,0,3,3,0,0,3,1,0,0
96469973,0.0,0.0,0.4962032,0.0,0.0,0.0,0.0,0.0,0.0,0.0,0.0,0,0,0,0,0,0,0,3,3,0,0,3,1,0,0
96679137,0.0,0.0,0.49605697,0.0,0.0,0.0,0.0,0.0,0.0,0.0,0.0,0,0,0,0,0,0,0,3,3,0,0,3,1,0,0
96877182,0.0,0.0,0.49620253,0.0,0.0,0.0,0.0,0.0,0.0,0.0,0.0,0,0,0,0,0,0,0,3,3,0,0,3,1,0,0
97073616,0.0,0.0,0.4962025,0.0,0.0,0.0,0.0,0.0,0.0,0.0,0.0,0,0,0,0,0,0,0,3,3,0,0,3,1,0,0
97297347,0.0,0.0,0.49627337,0.0,0.0,0.0,0.0,0.0,0.0,0.0,0.0,0,0,0,0,0,0,0,3,3,0,0,3,1,0,0
97495575,0.0,0.0,0.4961917,0.0,0.0,0.0,0.0,0.0,0.0,0.0,0.0,0,0,0,0,0,0,0,3,3,0,0,3,1,0,0
97688554,0.0,0.0,0.49620256,0.0,0.0,0.0,0.0,0.0,0.0,0.0,0.0,0,0,0,0,0,0,0,3,3,0,0,3,1,0,0
97888366,0.0,0.0,0.49513415,0.0,0.0,0.0,0.0,0.0,0.0,0.0,0.0,0,0,0,0,0,0,0,3,3,0,0,3,1,0,0
98092375,0.0,0.0,0.49531975,0.0,0.0,0.0,0.0,0.0,0.0,0.0,0.0,0,0,0,0,0,0,0,3,3,0,0,3,1,0,0
98287575,0.0,0.0,0.4962746,0.0,0.0,0.0,0.0,0.0,0.0,0.0,0.0,0,0,0,0,0,0,0,3,3,0,0,3,1,0,0
98495571,0.0,0.0,0.49620244,0.0,0.0,0.0,0.0,0.0,0.0,0.0,0.0,0,0,0,0,0,0,0,3,3,0,0,3,1,0,0
98703543,0.0,0.0,0.49606082,0.0,0.0,0.0,0.0,0.0,0.0,0.0,0.0,0,0,0,0,0,0,0,3,3,0,0,3,1,0,0
98903532,0.0,0.0,0.49620262,0.0,0.0,0.0,0.0,0.0,0.0,0.0,0.0,0,0,0,0,0,0,0,3,3,0,0,3,1,0,0
99114751,0.0,0.0,0.49616155,0.0,0.0,0.0,0.0,0.0,0.0,0.0,0.0,0,0,0,0,0,0,0,3,3,0,0,3,1,0,0
99298747,0.0,0.0,0.4962027,0.0,0.0,0.0,0.0,0.0,0.0,0.0,0.0,0,0,0,0,0,0,0,3,3,0,0,3,1,0,0
99514878,0.0,0.0,0.4962025,0.0,0.0,0.0,0.0,0.0,0.0,0.0,0.0,0,0,0,0,0,0,0,3,3,0,0,3,1,0,0
99714770,0.0,0.0,0.4962025,0.0,0.0,0.0,0.0,0.0,0.0,0.0,0.0,0,0,0,0,0,0,0,3,3,0,0,3,1,0,0
99909969,0.0,0.0,0.4962025,0.0,0.0,0.0,0.0,0.0,0.0,0.0,0.0,0,0,0,0,0,0,0,3,3,0,0,3,1,0,0
100121934,0.0,0.0,0.4962025,0.0,0.0,0.0,0.0,0.0,0.0,0.0,0.0,0,0,0,0,0,0,0,3,3,0,0,3,1,0,0
100329939,0.0,0.0,0.4962025,0.0,0.0,0.0,0.0,0.0,0.0,0.0,0.0,0,0,0,0,0,0,0,3,3,0,0,3,1,0,0
100534157,0.0,0.0,0.4962025,0.0,0.0,0.0,0.0,0.0,0.0,0.0,0.0,0,0,0,0,0,0,0,3,3,0,0,3,1,0,0
100737361,0.0,0.0,0.4962025,0.0,0.0,0.0,0.0,0.0,0.0,0.0,0.0,0,0,0,0,0,0,0,3,3,0,0,3,1,0,0
100921515,0.0,0.0,0.4962025,0.0,0.0,0.0,0.0,0.0,0.0,0.0,0.0,0,0,0,0,0,0,0,3,3,0,0,3,1,0,0
101145342,0.0,0.0,0.4962025,0.0,0.0,0.0,0.0,0.0,0.0,0.0,0.0,0,0,0,0,0,0,0,3,3,0,0,3,1,0,0
101328352,0.0,0.0,0.4962025,0.0,0.0,0.0,0.0,0.0,0.0,0.0,0.0,0,0,0,0,0,0,0,3,3,0,0,3,1,0,0
101544343,0.0,0.0,0.4962025,0.0,0.0,0.0,0.0,0.0,0.0,0.0,0.0,0,0,0,0,0,0,0,3,3,0,0,3,1,0,0
101744346,0.0,0.0,0.4962025,0.0,0.0,0.0,0.0,0.0,0.0,0.0,0.0,0,0,0,0,0,0,0,3,3,0,0,3,1,0,0
101944367,0.0,0.0,0.48670685,0.007965506,0.0,0.0,0.0,0.0,0.0,0.0,0.0,0,0,0,0,0,0,0,3,3,0,0,3,1,0,0
102135613,0.0,0.0,0.33387977,0.23573692,0.0,0.0,0.0,0.0,0.0,0.0,0.0,0,0,0,0,0,0,0,3,3,0,0,3,1,0,0
102355539,0.0,0.0,0.20203792,0.521836,0.0,0.0,0.0,0.0,0.0,0.0,0.0,0,0,0,0,0,0,0,3,3,0,0,3,1,0,0
102555610,0.0,0.0,0.16221197,0.64263093,0.0,0.0,0.0,0.0,0.0,0.0,0.0,0,0,0,0,0,0,0,3,3,0,0,3,1,0,0
102755829,0.0,0.0,0.006637573,0.9974368,0.0,0.0,0.0,0.0,0.0,0.0,0.0,0,0,0,0,0,0,0,3,3,0,0,3,1,0,0
102962759,0.0,0.0,6.498658e-07,0.9995367,0.0,0.0,0.0,0.0,0.0,0.0,0.0,0,0,0,0,0,0,0,3,3,0,0,3,1,0,0
103162733,0.0,0.0,0.0,0.99999607,0.0,0.0,0.0,0.0,0.0,0.0,0.0,0,0,0,0,0,0,0,3,3,0,0,3,1,0,0
103367124,0.0,0.0,2.671177e-12,1.0,0.0,0.0,0.0,0.0,0.0,0.0,0.0,0,0,0,0,0,0,0,3,3,0,0,3,1,0,0
103570948,0.0,0.0,0.0,1.0,0.0,0.0,0.0,0.0,0.0,0.0,0.0,0,0,0,0,0,0,0,3,3,0,0,3,1,0,0
103774157,0.0,0.0,0.0,0.99946904,0.0,0.0,0.0,0.0,0.0,0.0,0.0,0,0,0,0,0,0,0,3,3,0,0,3,1,0,0
103978319,0.0,0.0,6.817909e-22,1.0,0.0,0.0,0.0,0.0,0.0,0.0,0.0,0,0,0,0,0,0,0,3,3,0,0,3,1,0,0
104170184,0.0,0.0,0.0,0.9978349,0.0,0.0,0.0,0.0,0.0,0.0,0.0,0,0,0,0,0,0,0,3,3,0,0,3,1,0,0
104373517,0.0,0.0,1.0341906e-28,1.0,0.0,0.0,0.0,0.0,0.0,0.0,0.0,0,0,0,0,0,0,0,3,3,0,0,3,1,0,0
104585140,0.0,0.0,9.1252045e-32,1.0,0.0,0.0,0.0,0.0,0.0,0.0,0.0,0,0,0,0,0,0,0,3,3,0,0,3,1,0,0
104777204,0.0,0.0,0.0,1.0,0.0,0.0,0.0,0.0,0.0,0.0,0.0,0,0,0,0,0,0,0,3,3,0,0,3,1,0,0
104981151,0.0,0.0,0.0,0.99783516,0.0,0.0,0.0,0.0,0.0,0.0,0.0,0,0,0,0,0,0,0,3,3,0,0,3,1,0,0
105180488,0.0,0.0,2.1342e-41,0.99954015,0.0,0.0,0.0,0.0,0.0,0.0,0.0,0,0,0,0,0,0,0,3,3,0,0,3,1,0,0
105380738,0.0,0.0,0.0,1.0,0.0,0.0,0.0,0.0,0.0,0.0,0.0,0,0,0,0,0,0,0,3,3,0,0,3,1,0,0
105580547,0.0,0.0,0.0,0.9999997,0.0,0.0,0.0,0.0,0.0,0.0,0.0,0,0,0,0,0,0,0,3,3,0,0,3,1,0,0
105800589,0.0,0.0,0.0,1.0,0.0,0.0,0.0,0.0,0.0,0.0,0.0,0,0,0,0,0,0,0,3,3,0,0,3,1,0,0
106003736,0.0,0.0,0.0,1.0,0.0,0.0,0.0,0.0,0.0,0.0,0.0,0,0,0,0,0,0,0,3,3,0,0,3,1,0,0
106206319,0.0,0.0,0.0,0.99203455,0.0,0.0,0.0,0.0,0.0,0.0,0.0,0,0,0,0,0,0,0,3,3,0,0,3,1,0,0
106407744,0.0,0.0,0.4951227,0.003645318,0.0,0.0,0.0,0.0,0.0,0.0,0.0,0,0,0,0,0,0,0,3,3,0,0,3,1,0,0
107625942,0.0,0.0,0.55543435,1.1688103e-22,0.0,0.0,0.0,0.0,0.0,0.0,0.0,0,0,0,0,0,0,0,3,3,0,0,3,1,0,0
107822315,0.0,0.0,0.59353775,-7.518861e-26,0.0,0.0,0.0,0.0,0.0,0.0,0.0,0,0,0,0,0,0,0,3,3,0,0,3,1,0,0
108034158,0.0,0.0,0.49614385,-1.7670009e-29,0.0,0.0,0.0,0.0,0.0,0.0,0.0,0,0,0,0,0,0,0,3,3,0,0,3,1,0,0
108233131,0.0,0.0,0.64232653,1.5419628e-32,0.0,0.0,0.0,0.0,0.0,0.0,0.0,0,0,0,0,0,0,0,3,3,0,0,3,1,0,0
108413337,0.0,0.0,0.4898585,-2.2315825e-35,0.0,0.0,0.0,0.0,0.0,0.0,0.0,0,0,0,0,0,0,0,3,3,0,0,3,1,0,0
108633182,0.0,0.0,0.23615094,-1.313277e-39,0.0,0.0,0.0,0.0,0.0,0.0,0.0,0,0,0,0,0,0,0,3,3,0,0,3,1,0,0
108829530,0.0,0.0,0.49257687,3.676e-42,0.0,0.0,0.0,0.0,0.0,0.0,0.0,0,0,0,0,0,0,0,3,3,0,0,3,1,0,0
109024372,0.0,0.0,0.49434444,-3e-45,0.0,0.0,0.0,0.0,0.0,0.0,0.0,0,0,0,0,0,0,0,3,3,0,0,3,1,0,0
109244622,0.0,0.0,0.49496984,0.0,0.0,0.0,0.0,0.0,0.0,0.0,0.0,0,0,0,0,0,0,0,3,3,0,0,3,1,0,0
109440716,0.0,0.0,0.43389702,0.0,0.0,0.0,0.0,0.0,0.0,0.0,0.0,0,0,0,0,0,0,0,3,3,0,0,3,1,0,0
109644392,0.0,0.0,0.25259945,0.0,0.0,0.0,0.0,0.0,0.0,0.0,0.0,0,0,0,0,0,0,0,3,3,0,0,3,1,0,0
109847715,0.0,0.0,0.36492172,0.0,0.0,0.0,0.0,0.0,0.0,0.0,0.0,0,0,0,0,0,0,0,3,3,0,0,3,1,0,0
110055533,0.0,0.0,0.49278566,0.0,0.0,0.0,0.0,0.0,0.0,0.0,0.0,0,0,0,0,0,0,0,3,3,0,0,3,1,0,0
110255593,0.0,0.0,0.4937026,0.0,0.0,0.0,0.0,0.0,0.0,0.0,0.0,0,0,0,0,0,0,0,3,3,0,0,3,1,0,0
110458760,0.0,0.0,0.49322194,0.0,0.0,0.0,0.0,0.0,0.0,0.0,0.0,0,0,0,0,0,0,0,3,3,0,0,3,1,0,0
110658782,0.0,0.0,0.5219377,0.0,0.0,0.0,0.0,0.0,0.0,0.0,0.0,0,0,0,0,0,0,0,3,3,0,0,3,1,0,0
110854747,0.0,0.0,0.56219107,0.0,0.0,0.0,0.0,0.0,0.0,0.0,0.0,0,0,0,0,0,0,0,3,3,0,0,3,1,0,0
111062787,0.0,0.0,0.5833101,0.0,0.0,0.0,0.0,0.0,0.0,0.0,0.0,0,0,0,0,0,0,0,3,3,0,0,3,1,0,0
111262828,0.0,0.0,0.59913266,0.0,0.0,0.0,0.0,0.0,0.0,0.0,0.0,0,0,0,0,0,0,0,3,3,0,0,3,1,0,0
111461930,0.0,0.0,0.56856686,0.0,0.0,0.0,0.0,0.0,0.0,0.0,0.0,0,0,0,0,0,0,0,3,3,0,0,3,1,0,0
111677933,0.0,0.0,0.54087144,0.0,0.0,0.0,0.0,0.0,0.0,0.0,0.0,0,0,0,0,0,0,0,3,3,0,0,3,1,0,0
111877964,0.0,0.0,0.49688554,0.0,0.0,0.0,0.0,0.0,0.0,0.0,0.0,0,0,0,0,0,0,0,3,3,0,0,3,1,0,0
112081344,0.0,0.0,0.5680489,0.0,0.0,0.0,0.0,0.0,0.0,0.0,0.0,0,0,0,0,0,0,0,3,3,0,0,3,1,0,0
112285367,0.0,0.0,0.6040358,0.0,0.0,0.0,0.0,0.0,0.0,0.0,0.0,0,0,0,0,0,0,0,3,3,0,0,3,1,0,0
112489294,0.0,0.0,0.62022984,0.0,0.0,0.0,0.0,0.0,0.0,0.0,0.0,0,0,0,0,0,0,0,3,3,0,0,3,1,0,0
112689281,0.0,0.0,0.6125394,0.0,0.0,0.0,0.0,0.0,0.0,0.0,0.0,0,0,0,0,0,0,0,3,3,0,0,3,1,0,0
112884590,0.0,0.0,0.62959933,0.0,0.0,0.0,0.0,0.0,0.0,0.0,0.0,0,0,0,0,0,0,0,3,3,0,0,3,1,0,0
113088364,0.0,0.0,0.6415929,0.0,0.0,0.0,0.0,0.0,0.0,0.0,0.0,0,0,0,0,0,0,0,3,3,0,0,3,1,0,0
113296417,0.0,0.0,0.6296612,0.0,0.0,0.0,0.0,0.0,0.0,0.0,0.0,0,0,0,0,0,0,0,3,3,0,0,3,1,0,0
113496561,0.0,0.0,0.6144427,0.0,0.0,0.0,0.0,0.0,0.0,0.0,0.0,0,0,0,0,0,0,0,3,3,0,0,3,1,0,0
113703549,0.0,0.0,0.59588706,0.0,0.0,0.0,0.0,0.0,0.0,0.0,0.0,0,0,0,0,0,0,0,3,3,0,0,3,1,0,0
113899539,0.0,0.0,0.60523236,0.0,0.0,0.0,0.0,0.0,0.0,0.0,0.0,0,0,0,0,0,0,0,3,3,0,0,3,1,0,0
114103588,0.0,0.0,0.62794787,0.0,0.0,0.0,0.0,0.0,0.0,0.0,0.0,0,0,0,0,0,0,0,3,3,0,0,3,1,0,0
114299561,0.0,0.0,0.62322485,0.0,0.0,0.0,0.0,0.0,0.0,0.0,0.0,0,0,0,0,0,0,0,3,3,0,0,3,1,0,0
114498766,0.0,0.0,0.49489564,0.0,0.0,0.0,0.0,0.0,0.0,0.0,0.0,0,0,0,0,0,0,0,3,3,0,0,3,1,0,0
114719112,0.0,0.0,0.49623734,0.0,0.0,0.0,0.0,0.0,0.0,0.0,0.0,0,0,0,0,0,0,0,3,3,0,0,3,1,0,0
114899130,0.0,0.0,0.49620244,0.0,0.0,0.0,0.0,0.0,0.0,0.0,0.0,0,0,0,0,0,0,0,3,3,0,0,3,1,0,0
115117968,0.0,0.0,0.4962025,0.0,0.0,0.0,0.0,0.0,0.0,0.0,0.0,0,0,0,0,0,0,0,3,3,0,0,3,1,0,0
115317968,0.0,0.0,0.4962025,0.0,0.0,0.0,0.0,0.0,0.0,0.0,0.0,0,0,0,0,0,0,0,3,3,0,0,3,1,0,0
115517967,0.0,0.0,0.4962025,0.0,0.0,0.0,0.0,0.0,0.0,0.0,0.0,0,0,0,0,0,0,0,3,3,0,0,3,1,0,0
115718009,0.0,0.0,0.49646398,0.0,0.0,0.0,0.0,0.0,0.0,0.0,0.0,0,0,0,0,0,0,0,3,3,0,0,3,1,0,0
115917356,0.0,0.0,0.49620202,0.0,0.0,0.0,0.0,0.0,0.0,0.0,0.0,0,0,0,0,0,0,0,3,3,0,0,3,1,0,0
116129162,0.0,0.0,0.49620256,0.0,0.0,0.0,0.0,0.0,0.0,0.0,0.0,0,0,0,0,0,0,0,3,3,0,0,3,1,0,0
116333142,0.0,0.0,0.49620256,0.0,0.0,0.0,0.0,0.0,0.0,0.0,0.0,0,0,0,0,0,0,0,3,3,0,0,3,1,0,0
116524547,0.0,0.0,0.49620256,0.0,0.0,0.0,0.0,0.0,0.0,0.0,0.0,0,0,0,0,0,0,0,3,3,0,0,3,1,0,0
116728413,0.0,0.0,0.49620256,0.0,0.0,0.0,0.0,0.0,0.0,0.0,0.0,0,0,0,0,0,0,0,3,3,0,0,3,1,0,0
116944514,0.0,0.0,0.49620256,0.0,0.0,0.0,0.0,0.0,0.0,0.0,0.0,0,0,0,0,0,0,0,3,3,0,0,3,1,0,0
117144402,0.0,0.0,0.4962324,0.0,0.0,0.0,0.0,0.0,0.0,0.0,0.0,0,0,0,0,0,0,0,3,3,0,0,3,1,0,0
117348336,0.0,0.0,0.49620238,0.0,0.0,0.0,0.0,0.0,0.0,0.0,0.0,0,0,0,0,0,0,0,3,3,0,0,3,1,0,0
117547747,0.0,0.0,0.49620256,0.0,0.0,0.0,0.0,0.0,0.0,0.0,0.0,0,0,0,0,0,0,0,3,3,0,0,3,1,0,0
117747747,0.0,0.0,0.49620256,0.0,0.0,0.0,0.0,0.0,0.0,0.0,0.0,0,0,0,0,0,0,0,3,3,0,0,3,1,0,0
117967558,0.0,0.0,0.49594107,0.0,0.0,0.0,0.0,0.0,0.0,0.0,0.0,0,0,0,0,0,0,0,3,3,0,0,3,1,0,0
118154926,0.0,0.0,0.49616206,0.0,0.0,0.0,0.0,0.0,0.0,0.0,0.0,0,0,0,0,0,0,0,3,3,0,0,3,1,0,0
118350763,0.0,0.0,0.49557447,0.0,0.0,0.0,0.0,0.0,0.0,0.0,0.0,0,0,0,0,0,0,0,3,3,0,0,3,1,0,0
118563150,0.0,0.0,0.49597535,0.0,0.0,0.0,0.0,0.0,0.0,0.0,0.0,0,0,0,0,0,0,0,3,3,0,0,3,1,0,0
118762856,0.0,0.0,0.4961994,0.0,0.0,0.0,0.0,0.0,0.0,0.0,0.0,0,0,0,0,0,0,0,3,3,0,0,3,1,0,0
118962004,0.0,0.0,0.4962025,0.0,0.0,0.0,0.0,0.0,0.0,0.0,0.0,0,0,0,0,0,0,0,3,3,0,0,3,1,0,0
119185962,0.0,0.0,0.4962025,0.0,0.0,0.0,0.0,0.0,0.0,0.0,0.0,0,0,0,0,0,0,0,3,3,0,0,3,1,0,0
119381968,0.0,0.0,0.4962025,0.0,0.0,0.0,0.0,0.0,0.0,0.0,0.0,0,0,0,0,0,0,0,3,3,0,0,3,1,0,0
119585349,0.0,0.0,0.49627337,0.0,0.0,0.0,0.0,0.0,0.0,0.0,0.0,0,0,0,0,0,0,0,3,3,0,0,3,1,0,0
119777196,0.0,0.0,0.495029,0.0,0.0,0.0,0.0,0.0,0.0,0.0,0.0,0,0,0,0,0,0,0,3,3,0,0,3,1,0,0
119985360,0.0,0.0,0.49620137,0.0,0.0,0.0,0.0,0.0,0.0,0.0,0.0,0,0,0,0,0,0,0,3,3,0,0,3,1,0,0
120181515,0.0,0.0,0.4962025,0.0,0.0,0.0,0.0,0.0,0.0,0.0,0.0,0,0,0,0,0,0,0,3,3,0,0,3,1,0,0
120384538,0.0,0.0,0.4962025,0.0,0.0,0.0,0.0,0.0,0.0,0.0,0.0,0,0,0,0,0,0,0,3,3,0,0,3,1,0,0
120600567,0.0,0.0,0.495941,0.0,0.0,0.0,0.0,0.0,0.0,0.0,0.0,0,0,0,0,0,0,0,3,3,0,0,3,1,0,0
120796332,0.0,0.0,0.49615964,0.0,0.0,0.0,0.0,0.0,0.0,0.0,0.0,0,0,0,0,0,0,0,3,3,0,0,3,1,0,0
120991559,0.0,0.0,0.4961941,0.0,0.0,0.0,0.0,0.0,0.0,0.0,0.0,0,0,0,0,0,0,0,3,3,0,0,3,1,0,0
121191748,0.0,0.0,0.49620256,0.0,0.0,0.0,0.0,0.0,0.0,0.0,0.0,0,0,0,0,0,0,0,3,3,0,0,3,1,0,0
121411610,0.0,0.0,0.49620256,0.0,0.0,0.0,0.0,0.0,0.0,0.0,0.0,0,0,0,0,0,0,0,3,3,0,0,3,1,0,0
121611727,0.0,0.0,0.49620256,0.0,0.0,0.0,0.0,0.0,0.0,0.0,0.0,0,0,0,0,0,0,0,3,3,0,0,3,1,0,0
121794786,0.0,0.0,0.49616152,0.0,0.0,0.0,0.0,0.0,0.0,0.0,0.0,0,0,0,0,0,0,0,3,3,0,0,3,1,0,0
122015165,0.0,0.0,0.49571985,0.0,0.0,0.0,0.0,0.0,0.0,0.0,0.0,0,0,0,0,0,0,0,3,3,0,0,3,1,0,0
122206760,0.0,0.0,0.49620137,0.0,0.0,0.0,0.0,0.0,0.0,0.0,0.0,0,0,0,0,0,0,0,3,3,0,0,3,1,0,0
122402757,0.0,0.0,0.4962025,0.0,0.0,0.0,0.0,0.0,0.0,0.0,0.0,0,0,0,0,0,0,0,3,3,0,0,3,1,0,0
122627117,0.0,0.0,0.4962025,0.0,0.0,0.0,0.0,0.0,0.0,0.0,0.0,0,0,0,0,0,0,0,3,3,0,0,3,1,0,0
122821970,0.0,0.0,0.4962025,0.0,0.0,0.0,0.0,0.0,0.0,0.0,0.0,0,0,0,0,0,0,0,3,3,0,0,3,1,0,0
123029958,0.0,0.0,0.49572235,0.0,0.0,0.0,0.0,0.0,0.0,0.0,0.0,0,0,0,0,0,0,0,3,3,0,0,3,1,0,0
123225960,0.0,0.0,0.49620262,0.0,0.0,0.0,0.0,0.0,0.0,0.0,0.0,0,0,0,0,0,0,0,3,3,0,0,3,1,0,0
123421192,0.022825876,0.0,0.49620256,0.0,0.0,0.0,0.0,0.0,0.0,0.0,0.0,0,0,0,0,0,0,0,3,3,0,0,3,1,0,0
123621181,0.10901544,0.0,0.49620256,0.0,0.0,0.0,0.0,0.0,0.0,0.0,0.0,0,0,0,0,0,0,0,3,3,0,0,3,1,0,0
123821326,0.13599423,0.0,0.49558294,0.0,0.0,0.0,0.0,0.0,0.0,0.0,0.0,0,0,0,0,0,0,0,3,3,0,0,3,1,0,0
124020525,0.10107814,0.0,0.49597594,0.0,0.0,0.0,0.0,0.0,0.0,0.0,0.0,0,0,0,0,0,0,0,3,3,0,0,3,1,0,0
124244696,0.00013180023,0.0,0.49627456,0.0,0.0,0.0,0.0,0.0,0.0,0.0,0.0,0,0,0,0,0,0,0,3,3,0,0,3,1,0,0
124428355,-1.7618811e-07,0.0,0.4958599,0.0,0.0,0.0,0.0,0.0,0.0,0.0,0.0,0,0,0,0,0,0,0,3,3,0,0,3,1,0,0
124652394,-0.0005296721,0.0,0.49557447,0.0,0.0,0.0,0.0,0.0,0.0,0.0,0.0,0,0,0,0,0,0,0,3,3,0,0,3,1,0,0
124843693,-0.07715967,0.0,0.49630827,0.0,0.0,0.0,0.0,0.0,0.0,0.0,0.0,0,0,0,0,0,0,0,3,3,0,0,3,1,0,0
125047533,-0.1507799,0.0,0.49576083,0.0,0.0,0.0,0.0,0.0,0.0,0.0,0.0,0,0,0,0,0,0,0,3,3,0,0,3,1,0,0
125247776,-0.15034422,0.0,0.49620146,0.0,0.0,0.0,0.0,0.0,0.0,0.0,0.0,0,0,0,0,0,0,0,3,3,0,0,3,1,0,0
125447747,-0.13911584,0.0,0.4962025,0.0,0.0,0.0,0.0,0.0,0.0,0.0,0.0,0,0,0,0,0,0,0,3,3,0,0,3,1,0,0
125662769,-0.13938425,0.0,0.4962025,0.0,0.0,0.0,0.0,0.0,0.0,0.0,0.0,0,0,0,0,0,0,0,3,3,0,0,3,1,0,0
125859020,-0.13241185,0.0,0.4962025,0.0,0.0,0.0,0.0,0.0,0.0,0.0,0.0,0,0,0,0,0,0,0,3,3,0,0,3,1,0,0
126058791,-0.15061545,0.0,0.4962013,0.0,0.0,0.0,0.0,0.0,0.0,0.0,0.0,0,0,0,0,0,0,0,3,3,0,0,3,1,0,0
126260416,-0.13472387,0.0,0.4962025,0.0,0.0,0.0,0.0,0.0,0.0,0.0,0.0,0,0,0,0,0,0,0,3,3,0,0,3,1,0,0
126457997,-0.17992708,0.0,0.4962025,0.0,0.0,0.0,0.0,0.0,0.0,0.0,0.0,0,0,0,0,0,0,0,3,3,0,0,3,1,0,0
126670023,-0.19850773,0.0,0.4962025,0.0,0.0,0.0,0.0,0.0,0.0,0.0,0.0,0,0,0,0,0,0,0,3,3,0,0,3,1,0,0
126874187,-0.1370246,0.0,0.495941,0.0,0.0,0.0,0.0,0.0,0.0,0.0,0.0,0,0,0,0,0,0,0,3,3,0,0,3,1,0,0
127073153,-0.03284245,0.0,0.49623293,0.0,0.0,0.0,0.0,0.0,0.0,0.0,0.0,0,0,0,0,0,0,0,3,3,0,0,3,1,0,0
127269273,-3.9575418e-05,0.0,0.4955744,0.0,0.0,0.0,0.0,0.0,0.0,0.0,0.0,0,0,0,0,0,0,0,3,3,0,0,3,1,0,0
127489185,1.2034969e-09,0.0,0.4962027,0.0,0.0,0.0,0.0,0.0,0.0,0.0,0.0,0,0,0,0,0,0,0,3,3,0,0,3,1,0,0
127685138,5.707304e-12,0.0,0.49627337,0.0,0.0,0.0,0.0,0.0,0.0,0.0,0.0,0,0,0,0,0,0,0,3,3,0,0,3,1,0,0
127884604,-5.489332e-15,0.0,0.4961953,0.0,0.0,0.0,0.0,0.0,0.0,0.0,0.0,0,0,0,0,0,0,0,3,3,0,0,3,1,0,0
128080491,2.373937e-18,-0.15096712,0.4962025,0.0,0.0,0.0,0.0,0.0,0.0,0.0,0.0,0,0,0,0,0,0,0,3,3,0,0,3,1,0,0
128284366,2.5214254e-22,-0.15608646,0.4962025,0.0,0.0,0.0,0.0,0.0,0.0,0.0,0.0,0,0,0,0,0,0,0,3,3,0,0,3,1,0,0
128500564,-5.8258034e-25,-0.14634456,0.4955829,0.0,0.0,0.0,0.0,0.0,0.0,0.0,0.0,0,0,0,0,0,0,0,3,3,0,0,3,1,0,0
128703541,9.5476695e-29,-0.18856972,0.49597594,0.0,0.0,0.0,0.0,0.0,0.0,0.0,0.0,0,0,0,0,0,0,0,3,3,0,0,3,1,0,0
128903574,1.6328631e-31,-0.17930563,0.49620065,0.0,0.0,0.0,0.0,0.0,0.0,0.0,0.0,0,0,0,0,0,0,0,3,3,0,0,3,1,0,0
129095785,-1.8288906e-34,-0.11678315,0.49620256,0.0,0.0,0.0,0.0,0.0,0.0,0.0,0.0,0,0,0,0,0,0,0,3,3,0,0,3,1,0,0
129294743,9.04643e-38,-3.929269e-05,0.49620256,0.0,0.0,0.0,0.0,0.0,0.0,0.0,0.0,0,0,0,0,0,0,0,3,3,0,0,3,1,0,0
129510939,3.1065e-41,0.16710828,0.4957223,0.0,0.0,0.0,0.0,0.0,0.0,0.0,0.0,0,0,0,0,0,0,0,3,3,0,0,3,1,0,0
129703118,-2.1e-44,0.19902498,0.49491528,0.0,0.0,0.0,0.0,0.0,0.0,0.0,0.0,0,0,0,0,0,0,0,3,3,0,0,3,1,0,0
129926959,0.0,0.17242369,0.49630833,0.0,0.0,0.0,0.0,0.0,0.0,0.0,0.0,0,0,0,0,0,0,0,3,3,0,0,3,1,0,0
130106194,0.029995289,0.13669571,0.49620238,0.0,0.0,0.0,0.0,0.0,0.0,0.0,0.0,0,0,0,0,0,0,0,3,3,0,0,3,1,0,0
130325939,0.06917748,0.15797354,0.49620256,0.0,0.0,0.0,0.0,0.0,0.0,0.0,0.0,0,0,0,0,0,0,0,3,3,0,0,3,1,0,0
130525974,0.13889918,0.1682895,0.49620256,0.0,0.0,0.0,0.0,0.0,0.0,0.0,0.0,0,0,0,0,0,0,0,3,3,0,0,3,1,0,0
130718011,0.13489069,0.1147753,0.4962097,0.0,0.0,0.0,0.0,0.0,0.0,0.0,0.0,0,0,0,0,0,0,0,3,3,0,0,3,1,0,0
130937185,0.10922468,0.042880256,0.49620256,0.0,0.0,0.0,0.0,0.0,0.0,0.0,0.0,0,0,0,0,0,0,0,3,3,0,0,3,1,0,0
131133185,0.10990625,0.017986525,0.4961977,0.0,0.0,0.0,0.0,0.0,0.0,0.0,0.0,0,0,0,0,0,0,0,3,3,0,0,3,1,0,0
131333422,0.08765252,-7.928376e-06,0.4957633,0.0,0.0,0.0,0.0,0.0,0.0,0.0,0.0,0,0,0,0,0,0,0,3,3,0,0,3,1,0,0
131536717,-0.00020189291,-6.9542105e-10,0.49597415,0.0,0.0,0.0,0.0,0.0,0.0,0.0,0.0,0,0,0,0,0,0,0,3,3,0,0,3,1,0,0
131740589,-1.11504264e-07,3.9627143e-12,0.49627393,0.0,0.0,0.0,0.0,0.0,0.0,0.0,0.0,0,0,0,0,0,0,0,3,3,0,0,3,1,0,0
131936548,1.8275044e-10,-3.163314e-15,0.49575365,0.0,0.0,0.0,0.0,0.0,0.0,0.0,0.0,0,0,0,0,0,0,0,3,3,0,0,3,1,0,0
132148715,2.8996705e-15,-5.2187233e-19,0.49557447,0.0,0.0,0.0,0.0,0.0,0.0,0.0,0.0,0,0,0,0,0,0,0,3,3,0,0,3,1,0,0
132347606,-0.024651472,5.979278e-22,0.49630827,0.0,0.0,0.0,0.0,0.0,0.0,0.0,0.0,0,0,0,0,0,0,0,3,3,0,0,3,1,0,0
132543538,-0.026427634,-0.10526772,0.49576083,0.0,0.0,0.0,0.0,0.0,0.0,0.0,0.0,0,0,0,0,0,0,0,3,3,0,0,3,1,0,0
132755926,-2.0522832e-06,0.00013141434,0.4955757,0.0,0.0,0.0,0.0,0.0,0.0,0.0,0.0,0,0,0,0,0,0,0,3,3,0,0,3,1,0,0
132954946,4.4661443e-09,-1.5967915e-07,0.49623743,0.0,0.0,0.0,0.0,0.0,0.0,0.0,0.0,0,0,0,0,0,0,0,3,3,0,0,3,1,0,0
133158961,-3.0282508e-12,8.37032e-11,0.4961591,0.0,0.0,0.0,0.0,0.0,0.0,0.0,0.0,0,0,0,0,0,0,0,3,3,0,0,3,1,0,0
133362773,7.51875e-16,-5.4463537e-15,0.4953967,0.0,0.0,0.0,0.0,0.0,0.0,0.0,0.0,0,0,0,0,0,0,0,3,3,0,0,3,1,0,0
133562963,6.2574864e-19,-3.067767e-17,0.55891913,0.0,0.0,0.0,0.0,0.0,0.0,0.0,0.0,0,0,0,0,0,0,0,3,3,0,0,3,1,0,0
133781950,-2.531444e-22,5.120632e-21,0.6328412,0.0,0.0,0.0,0.0,0.0,0.0,0.0,0.0,0,0,0,0,0,0,0,3,3,0,0,3,1,0,0
133966129,4.8923724e-25,-1.2382598e-23,0.6924012,0.0,0.0,0.0,0.0,0.0,0.0,0.0,0.0,0,0,0,0,0,0,0,3,3,0,0,3,1,0,0
134174151,-6.1064137e-29,-1.5016414e-27,0.63812166,0.0,0.0,0.0,0.0,0.0,0.0,0.0,0.0,0,0,0,0,0,0,0,3,3,0,0,3,1,0,0
134374331,-1.5380275e-31,6.5515675e-30,0.49729115,0.0,0.0,0.0,0.0,0.0,0.0,0.0,0.0,0,0,0,0,0,0,0,3,3,0,0,3,1,0,0
134589525,3.3506192e-35,-4.751986e-34,0.4712844,0.0,0.0,0.0,0.0,0.0,0.0,0.0,0.0,0,0,0,0,0,0,0,3,3,0,0,3,1,0,0
134785142,1.5569331e-38,-8.815394e-37,0.42646468,0.0,0.0,0.0,0.0,0.0,0.0,0.0,0.0,0,0,0,0,0,0,0,3,3,0,0,3,1,0,0
134989164,-2.7768e-41,9.7033e-40,0.42632082,0.0,0.0,0.0,0.0,0.0,0.0,0.0,0.0,0,0,0,0,0,0,0,3,3,0,0,3,1,0,0
135188364,1.8e-44,-4.74e-43,0.39155456,0.0,0.0,0.0,0.0,0.0,0.0,0.0,0.0,0,0,0,0,0,0,0,3,3,0,0,3,1,0,0
135396362,0.0,0.0,0.39426947,0.0,0.0,0.0,0.0,0.0,0.0,0.0,0.0,0,0,0,0,0,0,0,3,3,0,0,3,1,0,0
135596714,0.0,0.0,0.4581777,0.0,0.0,0.0,0.0,0.0,0.0,0.0,0.0,0,0,0,0,0,0,0,3,3,0,0,3,1,0,0
135792558,0.0,0.0,0.35426545,0.0,0.0,0.0,0.0,0.0,0.0,0.0,0.0,0,0,0,0,0,0,0,3,3,0,0,3,1,0,0
135999603,0.0,0.0,0.43180096,0.0,0.0,0.0,0.0,0.0,0.0,0.0,0.0,0,0,0,0,0,0,0,3,3,0,0,3,1,0,0
136199547,0.0,0.0,0.4144637,0.0,0.0,0.0,0.0,0.0,0.0,0.0,0.0,0,0,0,0,0,0,0,3,3,0,0,3,1,0,0
136403747,0.0,0.0,0.4611871,0.0,0.0,0.0,0.0,0.0,0.0,0.0,0.0,0,0,0,0,0,0,0,3,3,0,0,3,1,0,0
136607589,0.0,0.0,0.4947436,0.0,0.0,0.0,0.0,0.0,0.0,0.0,0.0,0,0,0,0,0,0,0,3,3,0,0,3,1,0,0
136810811,0.0,0.0,0.49493718,-0.1121109,0.0,0.0,0.0,0.0,0.0,0.0,0.0,0,0,0,0,0,0,0,3,3,0,0,3,1,0,0
137006936,0.0,0.0,0.49493673,-0.2369329,0.0,0.0,0.0,0.0,0.0,0.0,0.0,0,0,0,0,0,0,0,3,3,0,0,3,1,0,0
137206758,0.0,0.0,0.49493673,-0.25323328,0.0,0.0,0.0,0.0,0.0,0.0,0.0,0,0,0,0,0,0,0,3,3,0,0,3,1,0,0
137410786,0.0,0.0,0.49445647,-0.24993058,0.0,0.0,0.0,0.0,0.0,0.0,0.0,0,0,0,0,0,0,0,3,3,0,0,3,1,0,0
137626758,0.0,0.0,0.4938706,-0.25008506,0.0,0.0,0.0,0.0,0.0,0.0,0.0,0,0,0,0,0,0,0,3,3,0,0,3,1,0,0
137830130,0.0,0.0,0.49497172,-0.2512488,0.0,0.0,0.0,0.0,0.0,0.0,0.0,0,0,0,0,0,0,0,3,3,0,0,3,1,0,0
138017976,0.0,0.0,0.49466798,-0.27011582,0.0,0.0,0.0,0.0,0.0,0.0,0.0,0,0,0,0,0,0,0,3,3,0,0,3,1,0,0
138221181,0.0,0.0,0.49495634,-0.30990124,0.0,0.0,0.0,0.0,0.0,0.0,0.0,0,0,0,0,0,0,0,3,3,0,0,3,1,0,0
138441145,0.0,0.0,0.49493662,-0.33181143,0.0,0.0,0.0,0.0,0.0,0.0,0.0,0,0,0,0,0,0,0,3,3,0,0,3,1,0,0
138641145,0.0,0.0,0.49356824,-0.34944093,0.0,0.0,0.0,0.0,0.0,0.0,0.0,0,0,0,0,0,0,0,3,3,0,0,3,1,0,0
138821252,0.0,0.0,0.4950323,-0.37096903,0.0,0.0,0.0,0.0,0.0,0.0,0.0,0,0,0,0,0,0,0,3,3,0,0,3,1,0,0
139044646,0.0,0.0,0.49445647,-0.38383484,0.0,0.0,0.0,0.0,0.0,0.0,0.0,0,0,0,0,0,0,0,3,3,0,0,3,1,0,0
139248338,0.0,0.0,0.49496424,-0.382638,0.0,0.0,0.0,0.0,0.0,0.0,0.0,0,0,0,0,0,0,0,3,3,0,0,3,1,0,0
139440724,0.0,0.0,0.4943086,-0.38349494,0.0,0.0,0.0,0.0,0.0,0.0,0.0,0,0,0,0,0,0,0,3,3,0,0,3,1,0,0
139652332,0.0,0.0,0.49470955,-0.38265333,0.0,0.0,0.0,0.0,0.0,0.0,0.0,0,0,0,0,0,0,0,3,3,0,0,3,1,0,0
139847537,0.0,0.0,0.49489382,-0.37990963,0.0,0.0,0.0,0.0,0.0,0.0,0.0,0,0,0,0,0,0,0,3,3,0,0,3,1,0,0
140051846,0.0,0.0,0.4938694,-0.38011903,0.0,0.0,0.0,0.0,0.0,0.0,0.0,0,0,0,0,0,0,0,3,3,0,0,3,1,0,0
140255715,0.0,0.0,0.49474448,-0.37735856,0.0,0.0,0.0,0.0,0.0,0.0,0.0,0,0,0,0,0,0,0,3,3,0,0,3,1,0,0
140462784,0.0,0.0,0.4949671,-0.3775511,0.0,0.0,0.0,0.0,0.0,0.0,0.0,0,0,0,0,0,0,0,3,3,0,0,3,1,0,0
140662950,0.0,0.0,0.494156,-0.3811023,0.0,0.0,0.0,0.0,0.0,0.0,0.0,0,0,0,0,0,0,0,3,3,0,0,3,1,0,0
140859029,0.0,0.0,0.49408886,-0.38198334,0.0,0.0,0.0,0.0,0.0,0.0,0.0,0,0,0,0,0,0,0,3,3,0,0,3,1,0,0
141050755,0.0,0.0,0.49488735,-0.3765688,0.0,0.0,0.0,0.0,0.0,0.0,0.0,0,0,0,0,0,0,0,3,3,0,0,3,1,0,0
141266136,0.0,0.0,0.493641,-0.3775529,0.0,0.0,0.0,0.0,0.0,0.0,0.0,0,0,0,0,0,0,0,3,3,0,0,3,1,0,0
141469992,0.0,0.0,0.49467406,-0.36980262,0.0,0.0,0.0,0.0,0.0,0.0,0.0,0,0,0,0,0,0,0,3,3,0,0,3,1,0,0
141666304,0.0,0.0,0.4945279,-0.3666278,0.0,0.0,0.0,0.0,0.0,0.0,0.0,0,0,0,0,0,0,0,3,3,0,0,3,1,0,0
141861403,0.0,0.0,0.49492952,-0.35916173,0.0,0.0,0.0,0.0,0.0,0.0,0.0,0,0,0,0,0,0,0,3,3,0,0,3,1,0,0
142077208,0.0,0.0,0.4949283,-0.35353285,0.0,0.0,0.0,0.0,0.0,0.0,0.0,0,0,0,0,0,0,0,3,3,0,0,3,1,0,0
142277586,0.0,0.0,0.49367774,-0.3666715,0.0,0.0,0.0,0.0,0.0,0.0,0.0,0,0,0,0,0,0,0,3,3,0,0,3,1,0,0
142477323,0.0,0.0,0.49429053,-0.3652527,0.0,0.0,0.0,0.0,0.0,0.0,0.0,0,0,0,0,0,0,0,3,3,0,0,3,1,0,0
142683630,0.0,0.0,0.49433672,-0.36218125,0.0,0.0,0.0,0.0,0.0,0.0,0.0,0,0,0,0,0,0,0,3,3,0,0,3,1,0,0
142880554,0.0,0.0,0.49367264,-0.36301315,0.0,0.0,0.0,0.0,0.0,0.0,0.0,0,0,0,0,0,0,0,3,3,0,0,3,1,0,0
143084332,0.0,0.0,0.49362993,-0.3636427,0.0,0.0,0.0,0.0,0.0,0.0,0.0,0,0,0,0,0,0,0,3,3,0,0,3,1,0,0
143284716,0.0,0.0,0.4936624,-0.34763372,0.0,0.0,0.0,0.0,0.0,0.0,0.0,0,0,0,0,0,0,0,3,3,0,0,3,1,0,0
143487538,0.0,0.0,0.49371183,-0.33374402,0.0,0.0,0.0,0.0,0.0,0.0,0.0,0,0,0,0,0,0,0,3,3,0,0,3,1,0,0
143687553,0.0,0.0,0.49493796,0.0011840425,0.0,0.0,0.0,0.0,0.0,0.0,0.0,0,0,0,0,0,0,0,3,3,0,0,3,1,0,0
143903543,0.0,0.0,0.49493673,7.1422653e-07,0.0,0.0,0.0,0.0,0.0,0.0,0.0,0,0,0,0,0,0,0,3,3,0,0,3,1,0,0
144103772,0.0,0.0,0.49504545,-3.427984e-10,0.0,0.0,0.0,0.0,0.0,0.0,0.0,0,0,0,0,0,0,0,3,3,0,0,3,1,0,0
144298839,0.0,-0.27789012,0.49443725,-3.2086044e-15,0.0,0.0,0.0,0.0,0.0,0.0,0.0,0,0,0,0,0,0,0,3,3,0,0,3,1,0,0
144510763,0.0,-0.17870483,0.49493656,7.995106e-17,0.0,0.0,0.0,0.0,0.0,0.0,0.0,0,0,0,0,0,0,0,3,3,0,0,3,1,0,0
144714997,0.0,-0.001038793,0.49493673,-1.7849281e-20,0.0,0.0,0.0,0.0,0.0,0.0,0.0,0,0,0,0,0,0,0,3,3,0,0,3,1,0,0
144914158,0.0,8.338784e-07,0.49493673,-1.8267269e-23,0.0,0.0,0.0,0.0,0.0,0.0,0.0,0,0,0,0,0,0,0,3,3,0,0,3,1,0,0
145101975,0.0,-0.17299402,0.49493673,2.3494381e-26,0.0,0.0,0.0,0.0,0.0,0.0,0.0,0,0,0,0,0,0,0,3,3,0,0,3,1,0,0
145329975,0.0,0.004961698,0.49493673,1.2852848e-30,0.0,0.0,0.0,0.0,0.0,0.0,0.0,0,0,0,0,0,0,0,3,3,0,0,3,1,0,0
145518136,0.0,0.01942514,0.49449748,-3.846787e-33,0.0,0.0,0.0,0.0,0.0,0.0,0.0,0,0,0,0,0,0,0,3,3,0,0,3,1,0,0
145729150,0.0,0.1966233,0.49474132,2.8124843e-36,0.0,0.0,0.0,0.0,0.0,0.0,0.0,0,0,0,0,0,0,0,3,3,0,0,3,1,0,0
145929140,0.0,0.07735976,0.4950081,-8.25768e-40,0.0,0.0,0.0,0.0,0.0,0.0,0.0,0,0,0,0,0,0,0,3,3,0,0,3,1,0,0
146117520,0.0,-4.0942894e-05,0.49386826,-4.7e-43,0.0,0.0,0.0,0.0,0.0,0.0,0.0,0,0,0,0,0,0,0,3,3,0,0,3,1,0,0
146320555,0.0,-0.017029418,0.49519044,0.0,0.0,0.0,0.0,0.0,0.0,0.0,0.0,0,0,0,0,0,0,0,3,3,0,0,3,1,0,0
146524373,0.123421356,-0.0077274847,0.49500123,0.0,0.0,0.0,0.0,0.0,0.0,0.0,0.0,0,0,0,0,0,0,0,3,3,0,0,3,1,0,0
146744368,0.1637544,-0.002840982,0.4948938,0.0,0.0,0.0,0.0,0.0,0.0,0.0,0.0,0,0,0,0,0,0,0,3,3,0,0,3,1,0,0
146944716,0.16444117,2.1717995e-06,0.49493536,0.0,0.0,0.0,0.0,0.0,0.0,0.0,0.0,0,0,0,0,0,0,0,3,3,0,0,3,1,0,0
147131658,0.1809174,-2.201115e-09,0.4949367,0.0,0.0,0.0,0.0,0.0,0.0,0.0,0.0,0,0,0,0,0,0,0,3,3,0,0,3,1,0,0
147351732,0.21059647,7.156862e-13,0.4948938,0.0,0.0,0.0,0.0,0.0,0.0,0.0,0.0,0,0,0,0,0,0,0,3,3,0,0,3,1,0,0
147551788,0.24108936,1.686588e-16,0.49430987,0.0,0.0,0.0,0.0,0.0,0.0,0.0,0.0,0,0,0,0,0,0,0,3,3,0,0,3,1,0,0
147743589,0.27796912,-4.500992e-19,0.49497157,0.0,0.0,0.0,0.0,0.0,0.0,0.0,0.0,0,0,0,0,0,0,0,3,3,0,0,3,1,0,0
147954989,0.25806233,1.7448385e-23,0.4949666,0.0,0.0,0.0,0.0,0.0,0.0,0.0,0.0,0,0,0,0,0,0,0,3,3,0,0,3,1,0,0
148163053,0.2222076,6.404788e-26,0.49449018,0.0,0.0,0.0,0.0,0.0,0.0,0.0,0.0,0,0,0,0,0,0,0,3,3,0,0,3,1,0,0
148358767,-0.0038851388,-6.327064e-29,0.49470833,0.0,0.0,0.0,0.0,0.0,0.0,0.0,0.0,0,0,0,0,0,0,0,3,3,0,0,3,1,0,0
148566726,-0.24321613,2.8096698e-32,0.49507895,0.0,0.0,0.0,0.0,0.0,0.0,0.0,0.0,0,0,0,0,0,0,0,3,3,0,0,3,1,0,0
148761959,-0.41668513,2.265386e-36,0.4949366,0.0,0.0,0.0,0.0,0.0,0.0,0.0,0.0,0,0,0,0,0,0,0,3,3,0,0,3,1,0,0
148965928,-0.3533115,-0.0004899707,0.49493673,0.0,0.0,0.0,0.0,0.0,0.0,0.0,0.0,0,0,0,0,0,0,0,3,3,0,0,3,1,0,0
149165931,-0.3884777,0.0842125,0.4949666,0.0,0.0,0.0,0.0,0.0,0.0,0.0,0.0,0,0,0,0,0,0,0,3,3,0,0,3,1,0,0
149365214,-0.42596138,0.14600521,0.49448782,0.0,0.0,0.0,0.0,0.0,0.0,0.0,0.0,0,0,0,0,0,0,0,3,3,0,0,3,1,0,0
149581371,-0.37882105,0.1017652,0.49493665,0.0,0.0,0.0,0.0,0.0,0.0,0.0,0.0,0,0,0,0,0,0,0,3,3,0,0,3,1,0,0
149785287,-0.25752717,0.00043655833,0.5490211,0.0,0.0,0.0,0.0,0.0,0.0,0.0,0.0,0,0,0,0,0,0,0,3,3,0,0,3,1,0,0
149984620,-0.2519129,-3.3309126e-07,0.59604067,0.0,0.0,0.0,0.0,0.0,0.0,0.0,0.0,0,0,0,0,0,0,0,3,3,0,0,3,1,0,0
150188376,-0.2541173,1.0585283e-10,0.59873617,0.0,0.0,0.0,0.0,0.0,0.0,0.0,0.0,0,0,0,0,0,0,0,3,3,0,0,3,1,0,0
150392728,-0.23564647,4.862883e-14,0.5950776,0.0,0.0,0.0,0.0,0.0,0.0,0.0,0.0,0,0,0,0,0,0,0,3,3,0,0,3,1,0,0
150596560,0.003157393,-8.723656e-17,0.49194282,0.0,0.0,0.0,0.0,0.0,0.0,0.0,0.0,0,0,0,0,0,0,0,3,3,0,0,3,1,0,0
150799609,0.045496177,5.553478e-20,0.49504438,0.0,0.0,0.0,0.0,0.0,0.0,0.0,0.0,0,0,0,0,0,0,0,3,3,0,0,3,1,0,0
150995566,0.00017445665,-1.1531457e-23,0.49493423,0.0,0.0,0.0,0.0,0.0,0.0,0.0,0.0,0,0,0,0,0,0,0,3,3,0,0,3,1,0,0
151199575,-2.0258109e-07,-1.3444975e-26,0.49493673,0.0,0.0,0.0,0.0,0.0,0.0,0.0,0.0,0,0,0,0,0,0,0,3,3,0,0,3,1,0,0
151403788,0.07663444,1.6612468e-29,0.45410705,0.0,0.0,0.0,0.0,0.0,0.0,0.0,0.0,0,0,0,0,0,0,0,3,3,0,0,3,1,0,0
151602932,0.12404232,-8.804243e-33,0.4348224,0.0,0.0,0.0,0.0,0.0,0.0,0.0,0.0,0,0,0,0,0,0,0,3,3,0,0,3,1,0,0
151798726,0.1319632,6.5042813e-37,0.44306648,0.0,0.0,0.0,0.0,0.0,0.0,0.0,0.0,0,0,0,0,0,0,0,3,3,0,0,3,1,0,0
152014800,0.09127953,1.961287e-39,0.4638917,0.0,0.0,0.0,0.0,0.0,0.0,0.0,0.0,0,0,0,0,0,0,0,3,3,0,0,3,1,0,0
152222780,0.00031708012,-5.48e-43,0.49365082,0.0,0.0,0.0,0.0,0.0,0.0,0.0,0.0,0,0,0,0,0,0,0,3,3,0,0,3,1,0,0
152421941,-0.044933375,0.0,0.49367088,0.0,0.0,0.0,0.0,0.0,0.0,0.0,0.0,0,0,0,0,0,0,0,3,3,0,0,3,1,0,0
152617962,0.00014380644,0.0,0.5788533,0.0,0.0,0.0,0.0,0.0,0.0,0.0,0.0,0,0,0,0,0,0,0,3,3,0,0,3,1,0,0
152813967,8.844073e-08,0.0,0.6127207,0.0,0.0,0.0,0.0,0.0,0.0,0.0,0.0,0,0,0,0,0,0,0,3,3,0,0,3,1,0,0
153037171,-0.031341974,0.0,0.61770535,0.0,0.0,0.0,0.0,0.0,0.0,0.0,0.0,0,0,0,0,0,0,0,3,3,0,0,3,1,0,0
153233396,-0.3948236,0.0,0.51505905,0.0,0.0,0.0,0.0,0.0,0.0,0.0,0.0,0,0,0,0,0,0,0,3,3,0,0,3,1,0,0
153429169,-0.4785701,0.003670063,0.49557394,0.0,0.0,0.0,0.0,0.0,0.0,0.0,0.0,0,0,0,0,0,0,0,3,3,0,0,3,1,0,0
153632544,-0.43064034,0.14420846,0.49685702,0.0,0.0,0.0,0.0,0.0,0.0,0.0,0.0,0,0,0,0,0,0,0,3,3,0,0,3,1,0,0
153848358,-0.43471906,0.15909007,0.49757206,0.0,0.0,0.0,0.0,0.0,0.0,0.0,0.0,0,0,0,0,0,0,0,3,3,0,0,3,1,0,0
154048737,-0.45222548,0.14422092,0.50667363,0.0,0.0,0.0,0.0,0.0,0.0,0.0,0.0,0,0,0,0,0,0,0,3,3,0,0,3,1,0,0
154244553,-0.43101424,0.08686793,0.5385587,0.0,0.0,0.0,0.0,0.0,0.0,0.0,0.0,0,0,0,0,0,0,0,3,3,0,0,3,1,0,0
154439574,-0.3341367,-0.00066991686,0.54106045,0.0,0.0,0.0,0.0,0.0,0.0,0.0,0.0,0,0,0,0,0,0,0,3,3,0,0,3,1,0,0
154635614,-0.24208556,7.2010147e-07,0.5261481,0.0,0.0,0.0,0.0,0.0,0.0,0.0,0.0,0,0,0,0,0,0,0,3,3,0,0,3,1,0,0
154855771,-0.09433066,6.492586e-11,0.49531424,0.0,0.0,0.0,0.0,0.0,0.0,0.0,0.0,0,0,0,0,0,0,0,3,3,0,0,3,1,0,0
155055915,-0.020604512,-0.051947724,0.51848507,-0.04842125,0.0,0.0,0.0,0.0,0.0,0.0,0.0,0,0,0,0,0,0,0,3,3,0,0,3,1,0,0
155254774,1.4907142e-05,-0.19940601,0.53977096,-0.11455217,0.0,0.0,0.0,0.0,0.0,0.0,0.0,0,0,0,0,0,0,0,3,3,0,0,3,1,0,0
155458764,-6.5756733e-09,-0.26099747,0.49532694,-0.02212599,0.0,0.0,0.0,0.0,0.0,0.0,0.0,0,0,0,0,0,0,0,3,3,0,0,3,1,0,0
155650782,-5.722821e-13,-0.10671174,0.49627492,1.004559e-05,0.0,0.0,0.0,0.0,0.0,0.0,0.0,0,0,0,0,0,0,0,3,3,0,0,3,1,0,0
155873344,0.14796193,-0.13273604,0.4962025,3.8714925e-09,0.0,0.0,0.0,0.0,0.0,0.0,0.0,0,0,0,0,0,0,0,3,3,0,0,3,1,0,0
156069976,0.14774585,-0.26048043,0.49620494,-2.406574e-12,0.0,0.0,0.0,0.0,0.0,0.0,0.0,0,0,0,0,0,0,0,3,3,0,0,3,1,0,0
156262150,0.15242253,-0.1530336,0.49620256,4.6113395e-16,0.0,0.0,0.0,0.0,0.0,0.0,0.0,0,0,0,0,0,0,0,3,3,0,0,3,1,0,0
156470001,0.19101872,-0.030311763,0.49616152,6.162916e-19,0.0,0.0,0.0,0.0,0.0,0.0,0.0,0,0,0,0,0,0,0,3,3,0,0,3,1,0,0
157085186,0.34333578,-0.025156008,0.49576437,1.2247541e-28,0.0,0.0,0.0,0.0,0.0,0.0,0.0,0,0,0,0,0,0,0,3,3,0,0,3,1,0,0
157284724,0.35545394,-2.9806286e-05,0.49745765,-8.5334495e-32,0.0,0.0,0.0,0.0,0.0,0.0,0.0,0,0,0,0,0,0,0,3,3,0,0,3,1,0,0
157484359,0.31209835,2.7960686e-08,0.49745756,2.2617338e-35,0.0,0.0,0.0,0.0,0.0,0.0,0.0,0,0,0,0,0,0,0,3,3,0,0,3,1,0,0
157680715,0.1687793,-1.1780732e-11,0.4970279,1.6385602e-38,0.0,0.0,0.0,0.0,0.0,0.0,0.0,0,0,0,0,0,0,0,3,3,0,0,3,1,0,0
157880580,0.18069102,-1.5559059e-15,0.49757358,-2.387e-41,0.0,0.0,0.0,0.0,0.0,0.0,0.0,0,0,0,0,0,0,0,3,3,0,0,3,1,0,0
158100487,-0.0017835883,2.9293716e-18,0.49745932,-1e-45,0.0,0.0,0.0,0.0,0.0,0.0,0.0,0,0,0,0,0,0,0,3,3,0,0,3,1,0,0
158303777,1.7534428e-06,-4.3653144e-22,0.49636853,0.0,0.0,0.0,0.0,0.0,0.0,0.0,0.0,0,0,0,0,0,0,0,3,3,0,0,3,1,0,0
158499601,-7.7501183e-10,-8.590487e-25,0.49636686,0.0,0.0,0.0,0.0,0.0,0.0,0.0,0.0,0,0,0,0,0,0,0,3,3,0,0,3,1,0,0
158699571,-6.595966e-14,9.343392e-28,0.49702984,0.0,0.0,0.0,0.0,0.0,0.0,0.0,0.0,0,0,0,0,0,0,0,3,3,0,0,3,1,0,0
158918753,0.06960829,8.1880734e-32,0.49616355,0.0,0.0,0.0,0.0,0.0,0.0,0.0,0.0,0,0,0,0,0,0,0,3,3,0,0,3,1,0,0
159098952,0.12468409,-1.4072671e-36,0.4974588,0.0,0.0,0.0,0.0,0.0,0.0,0.0,0.0,0,0,0,0,0,0,0,3,3,0,0,3,1,0,0
159310976,0.15612362,1.049819e-37,0.49746835,0.0,0.0,0.0,0.0,0.0,0.0,0.0,0.0,0,0,0,0,0,0,0,3,3,0,0,3,1,0,0
159521960,0.21304101,-2.3863e-41,0.49746,0.0,0.0,0.0,0.0,0.0,0.0,0.0,0.0,0,0,0,0,0,0,0,3,3,0,0,3,1,0,0
159721948,0.3350659,-2.4e-44,0.49749824,0.0,0.0,0.0,0.0,0.0,0.0,0.0,0.0,0,0,0,0,0,0,0,3,3,0,0,3,1,0,0
159922129,0.36947808,0.11657132,0.49614078,0.0,0.0,0.0,0.0,0.0,0.0,0.0,0.0,0,0,0,0,0,0,0,3,3,0,0,3,1,0,0
160121967,0.33139047,0.0828153,0.4973049,0.0,0.0,0.0,0.0,0.0,0.0,0.0,0.0,0,0,0,0,0,0,0,3,3,0,0,3,1,0,0
160321265,0.18538018,0.033095837,0.49687663,0.0,0.0,0.0,0.0,0.0,0.0,0.0,0.0,0,0,0,0,0,0,0,3,3,0,0,3,1,0,0
160537212,0.127816,0.103413515,0.4971974,0.0,0.0,0.0,0.0,0.0,0.0,0.0,0.0,0,0,0,0,0,0,0,3,3,0,0,3,1,0,0
160725356,0.0006729694,3.3645985e-05,0.49757153,0.0,0.0,0.0,0.0,0.0,0.0,0.0,0.0,0,0,0,0,0,0,0,3,3,0,0,3,1,0,0
160941190,5.893136e-07,4.7684367e-08,0.49745932,0.0,0.0,0.0,0.0,0.0,0.0,0.0,0.0,0,0,0,0,0,0,0,3,3,0,0,3,1,0,0
161144521,-2.3688562e-10,-1.6021818e-11,0.49746835,0.0,0.0,0.0,0.0,0.0,0.0,0.0,0.0,0,0,0,0,0,0,0,3,3,0,0,3,1,0,0
161348780,-4.274972e-14,-6.2039793e-15,0.49720687,0.0,0.0,0.0,0.0,0.0,0.0,0.0,0.0,0,0,0,0,0,0,0,3,3,0,0,3,1,0,0
161548541,0.017790103,1.2195009e-17,0.49746886,0.0,0.0,0.0,0.0,0.0,0.0,0.0,0.0,0,0,0,0,0,0,0,3,3,0,0,3,1,0,0
161752331,-0.00030197072,-8.0147525e-21,0.4966237,0.0,0.0,0.0,0.0,0.0,0.0,0.0,0.0,0,0,0,0,0,0,0,3,3,0,0,3,1,0,0
161951565,1.1552767e-06,0.0073970547,0.4974687,0.0,0.0,0.0,0.0,0.0,0.0,0.0,0.0,0,0,0,0,0,0,0,3,3,0,0,3,1,0,0
162143595,0.001780179,0.04449887,0.49658728,0.0,0.0,0.0,0.0,0.0,0.0,0.0,0.0,0,0,0,0,0,0,0,3,3,0,0,3,1,0,0
162347575,0.06318495,0.069424674,0.4975025,0.0,0.0,0.0,0.0,0.0,0.0,0.0,0.0,0,0,0,0,0,0,0,3,3,0,0,3,1,0,0
162554970,0.092957325,0.100752614,0.49745998,0.0,0.0,0.0,0.0,0.0,0.0,0.0,0.0,0,0,0,0,0,0,0,3,3,0,0,3,1,0,0
162758730,0.05758661,0.0003848559,0.4969088,0.0,0.0,0.0,0.0,0.0,0.0,0.0,0.0,0,0,0,0,0,0,0,3,3,0,0,3,1,0,0
162954771,0.0631453,-1.3377542e-07,0.49749887,0.0,0.0,0.0,0.0,0.0,0.0,0.0,0.0,0,0,0,0,0,0,0,3,3,0,0,3,1,0,0
163154779,0.048006736,-4.6175886e-11,0.4975012,0.0,0.0,0.0,0.0,0.0,0.0,0.0,0.0,0,0,0,0,0,0,0,3,3,0,0,3,1,0,0
163369983,0.02273661,3.6848315e-14,0.49746835,0.0,0.0,0.0,0.0,0.0,0.0,0.0,0.0,0,0,0,0,0,0,0,3,3,0,0,3,1,0,0
163565940,-1.8960745e-05,-1.4688669e-18,0.49746835,0.0,0.0,0.0,0.0,0.0,0.0,0.0,0.0,0,0,0,0,0,0,0,3,3,0,0,3,1,0,0
163770015,1.3772418e-08,-1.4315495e-20,0.49658728,0.0,0.0,0.0,0.0,0.0,0.0,0.0,0.0,0,0,0,0,0,0,0,3,3,0,0,3,1,0,0
163965173,-3.991438e-12,1.3112749e-23,0.49720803,0.0,0.0,0.0,0.0,0.0,0.0,0.0,0.0,0,0,0,0,0,0,0,3,3,0,0,3,1,0,0
164181162,-2.6941403e-15,0.0041943574,0.4971665,0.0,0.0,0.0,0.0,0.0,0.0,0.0,0.0,0,0,0,0,0,0,0,3,3,0,0,3,1,0,0
164381142,0.07440096,0.21224217,0.49746165,0.0,0.0,0.0,0.0,0.0,0.0,0.0,0.0,0,0,0,0,0,0,0,3,3,0,0,3,1,0,0
164581523,-0.00012884334,0.29127234,0.49746835,0.0,0.0,0.0,0.0,0.0,0.0,0.0,0.0,0,0,0,0,0,0,0,3,3,0,0,3,1,0,0
164784331,-2.6844933e-07,0.28602728,0.4965489,0.0,0.0,0.0,0.0,0.0,0.0,0.0,0.0,0,0,0,0,0,0,0,3,3,0,0,3,1,0,0
164980548,2.8877264e-10,0.2508315,0.4968832,0.0,0.0,0.0,0.0,0.0,0.0,0.0,0.0,0,0,0,0,0,0,0,3,3,0,0,3,1,0,0
165192728,2.5990305e-14,0.14610007,0.49746853,0.0,0.0,0.0,0.0,0.0,0.0,0.0,0.0,0,0,0,0,0,0,0,3,3,0,0,3,1,0,0
165392379,-4.9618773e-17,0.17289925,0.49750257,0.0,0.0,0.0,0.0,0.0,0.0,0.0,0.0,0,0,0,0,0,0,0,3,3,0,0,3,1,0,0
165587942,3.2293755e-20,0.14281943,0.49753243,0.0,0.0,0.0,0.0,0.0,0.0,0.0,0.0,0,0,0,0,0,0,0,3,3,0,0,3,1,0,0
165795748,7.454266e-24,0.21940295,0.4974254,0.0,0.0,0.0,0.0,0.0,0.0,0.0,0.0,0,0,0,0,0,0,0,3,3,0,0,3,1,0,0
165999551,-6.5918095e-27,0.2182304,0.4974683,0.0,0.0,0.0,0.0,0.0,0.0,0.0,0.0,0,0,0,0,0,0,0,3,3,0,0,3,1,0,0
166199118,2.596451e-30,0.027075993,0.49746835,0.0,0.0,0.0,0.0,0.0,0.0,0.0,0.0,0,0,0,0,0,0,0,3,3,0,0,3,1,0,0
166398793,5.2464457e-34,2.9165976e-06,0.49742737,0.0,0.0,0.0,0.0,0.0,0.0,0.0,0.0,0,0,0,0,0,0,0,3,3,0,0,3,1,0,0
166598985,-1.5568056e-36,-1.4005612e-08,0.4972752,0.0,0.0,0.0,0.0,0.0,0.0,0.0,0.0,0,0,0,0,0,0,0,3,3,0,0,3,1,0,0
166794874,1.136321e-39,1.0986079e-11,0.49748918,0.0,0.0,0.0,0.0,0.0,0.0,0.0,0.0,0,0,0,0,0,0,0,3,3,0,0,3,1,0,0
168013348,8.943978e-08,1.6703881e-14,0.51225,0.0,0.0,0.0,0.0,0.0,0.0,0.0,0.0,0,0,0,0,0,0,0,3,3,0,0,3,1,0,0
168225198,4.876498e-11,-2.8670758e-17,0.49532756,0.0,0.0,0.0,0.0,0.0,0.0,0.0,0.0,0,0,0,0,0,0,0,3,3,0,0,3,1,0,0
168440559,-8.0408045e-14,1.794629e-20,0.59262395,0.0,0.0,0.0,0.0,0.0,0.0,0.0,0.0,0,0,0,0,0,0,0,3,3,0,0,3,1,0,0
168624407,-0.08789264,-2.9103452e-23,0.5924162,0.0,0.0,0.0,0.0,0.0,0.0,0.0,0.0,0,0,0,0,0,0,0,3,3,0,0,3,1,0,0
168844337,-0.16810739,-4.5220446e-27,0.4938691,0.0,0.0,0.0,0.0,0.0,0.0,0.0,0.0,0,0,0,0,0,0,0,3,3,0,0,3,1,0,0
169039915,-0.22280128,5.4370593e-30,0.49619985,0.0,0.0,0.0,0.0,0.0,0.0,0.0,0.0,0,0,0,0,0,0,0,3,3,0,0,3,1,0,0
169235729,-0.24995622,-2.8300225e-33,0.4962025,0.0,0.0,0.0,0.0,0.0,0.0,0.0,0.0,0,0,0,0,0,0,0,3,3,0,0,3,1,0,0
169443531,-0.3025084,1.6794161e-37,0.49646398,0.0,0.0,0.0,0.0,0.0,0.0,0.0,0.0,0,0,0,0,0,0,0,3,3,0,0,3,1,0,0
169643570,-0.39242145,1.051354e-39,0.4962044,0.0,0.0,0.0,0.0,0.0,0.0,0.0,0.0,0,0,0,0,0,0,0,3,3,0,0,3,1,0,0
169838726,-0.36638913,-9.88e-43,0.4962025,0.0,0.0,0.0,0.0,0.0,0.0,0.0,0.0,0,0,0,0,0,0,0,3,3,0,0,3,1,0,0
170054955,-0.2680328,0.0,0.4962025,0.0,0.0,0.0,0.0,0.0,0.0,0.0,0.0,0,0,0,0,0,0,0,3,3,0,0,3,1,0,0
170250773,-0.26836106,-0.06141414,0.4962025,0.0,0.0,0.0,0.0,0.0,0.0,0.0,0.0,0,0,0,0,0,0,0,3,3,0,0,3,1,0,0
170454796,-0.24716213,-0.12817428,0.4962025,0.0,0.0,0.0,0.0,0.0,0.0,0.0,0.0,0,0,0,0,0,0,0,3,3,0,0,3,1,0,0
170658307,-0.19024362,-0.08270585,0.4962025,0.0,0.0,0.0,0.0,0.0,0.0,0.0,0.0,0,0,0,0,0,0,0,3,3,0,0,3,1,0,0
170866091,-0.2785011,-0.082722075,0.4962025,0.0,0.0,0.0,0.0,0.0,0.0,0.0,0.0,0,0,0,0,0,0,0,3,3,0,0,3,1,0,0
171054341,-0.27739143,-0.06436248,0.49623674,0.0,0.0,0.0,0.0,0.0,0.0,0.0,0.0,0,0,0,0,0,0,0,3,3,0,0,3,1,0,0
171249213,-0.24049853,-0.085743755,0.4962025,0.0,0.0,0.0,0.0,0.0,0.0,0.0,0.0,0,0,0,0,0,0,0,3,3,0,0,3,1,0,0
171469182,-0.25477627,-0.2321503,0.495941,0.0,0.0,0.0,0.0,0.0,0.0,0.0,0.0,0,0,0,0,0,0,0,3,3,0,0,3,1,0,0
171669129,-0.24417448,-0.21625206,0.4962739,0.0,0.0,0.0,0.0,0.0,0.0,0.0,0.0,0,0,0,0,0,0,0,3,3,0,0,3,1,0,0
171877156,-0.1703388,-0.07026691,0.4962025,0.0,0.0,0.0,0.0,0.0,0.0,0.0,0.0,0,0,0,0,0,0,0,3,3,0,0,3,1,0,0
172072366,-0.22702971,-0.1448934,0.4962025,0.0,0.0,0.0,0.0,0.0,0.0,0.0,0.0,0,0,0,0,0,0,0,3,3,0,0,3,1,0,0
172276715,-0.28842652,-0.0002676377,0.49615914,0.0,0.0,0.0,0.0,0.0,0.0,0.0,0.0,0,0,0,0,0,0,0,3,3,0,0,3,1,0,0
172464331,-0.17512353,3.6203943e-07,0.4962027,0.0,0.0,0.0,0.0,0.0,0.0,0.0,0.0,0,0,0,0,0,0,0,3,3,0,0,3,1,0,0
172680555,-0.00068168447,-1.3908097e-12,0.4962025,0.0,0.0,0.0,0.0,0.0,0.0,0.0,0.0,0,0,0,0,0,0,0,3,3,0,0,3,1,0,0
172875524,5.303831e-07,-5.4416714e-14,0.4951437,0.0,0.0,0.0,0.0,0.0,0.0,0.0,0.0,0,0,0,0,0,0,0,3,3,0,0,3,1,0,0
173075545,-1.7424309e-10,4.8070083e-17,0.49623752,0.0,0.0,0.0,0.0,0.0,0.0,0.0,0.0,0,0,0,0,0,0,0,3,3,0,0,3,1,0,0
173279529,-7.246451e-14,-1.8910113e-20,0.4962025,0.0,0.0,0.0,0.0,0.0,0.0,0.0,0.0,0,0,0,0,0,0,0,3,3,0,0,3,1,0,0
173478049,1.3698266e-16,-3.8470616e-24,0.4962025,0.0,0.0,0.0,0.0,0.0,0.0,0.0,0.0,0,0,0,0,0,0,0,3,3,0,0,3,1,0,0
173682758,-0.00052967214,1.1361033e-26,0.4962025,0.0,0.0,0.0,0.0,0.0,0.0,0.0,0.0,0,0,0,0,0,0,0,3,3,0,0,3,1,0,0
173898725,-0.24632782,-5.355792e-31,0.49615964,0.0,0.0,0.0,0.0,0.0,0.0,0.0,0.0,0,0,0,0,0,0,0,3,3,0,0,3,1,0,0
174106735,-0.078320965,-1.0631903e-33,0.49567232,0.0,0.0,0.0,0.0,0.0,0.0,0.0,0.0,0,0,0,0,0,0,0,3,3,0,0,3,1,0,0
174301938,5.5566303e-05,3.2478354e-37,0.48857635,0.0,0.0,0.0,0.0,0.0,0.0,0.0,0.0,0,0,0,0,0,0,0,3,3,0,0,3,1,0,0
174510016,-2.6782278e-08,1.66635e-40,0.38623878,0.0,0.0,0.0,0.0,0.0,0.0,0.0,0.0,0,0,0,0,0,0,0,3,3,0,0,3,1,0,0
174709946,-1.5119331e-13,-2.83e-43,0.34937438,0.0,0.0,0.0,0.0,0.0,0.0,0.0,0.0,0,0,0,0,0,0,0,3,3,0,0,3,1,0,0
174909281,1.1468327e-14,0.0,0.3496286,0.0,0.0,0.0,0.0,0.0,0.0,0.0,0.0,0,0,0,0,0,0,0,3,3,0,0,3,1,0,0
175117548,-9.9427085e-18,0.0,0.35273144,0.0,0.0,0.0,0.0,0.0,0.0,0.0,0.0,0,0,0,0,0,0,0,3,3,0,0,3,1,0,0
175317139,3.8212105e-21,0.0,0.35140136,0.0,0.0,0.0,0.0,0.0,0.0,0.0,0.0,0,0,0,0,0,0,0,3,3,0,0,3,1,0,0
175513523,8.743468e-25,0.0,0.34468544,0.0,0.0,0.0,0.0,0.0,0.0,0.0,0.0,0,0,0,0,0,0,0,3,3,0,0,3,1,0,0
175720567,-2.3803554e-27,0.0,0.3129616,0.0,0.0,0.0,0.0,0.0,0.0,0.0,0.0,0,0,0,0,0,0,0,3,3,0,0,3,1,0,0
175920549,1.706889e-30,0.0,0.3123428,0.0,0.0,0.0,0.0,0.0,0.0,0.0,0.0,0,0,0,0,0,0,0,3,3,0,0,3,1,0,0
176116355,-4.817915e-34,0.0,0.29464665,0.0,0.0,0.0,0.0,0.0,0.0,0.0,0.0,0,0,0,0,0,0,0,3,3,0,0,3,1,0,0
176323667,-3.021042e-37,0.0,0.28381702,0.0,0.0,0.0,0.0,0.0,0.0,0.0,0.0,0,0,0,0,0,0,0,3,3,0,0,3,1,0,0
176523747,4.67535e-40,0.0,0.27948242,0.0,0.0,0.0,0.0,0.0,0.0,0.0,0.0,0,0,0,0,0,0,0,3,3,0,0,3,1,0,0
176727774,-2.8e-43,0.0,0.25560045,0.0,0.0,0.0,0.0,0.0,0.0,0.0,0.0,0,0,0,0,0,0,0,3,3,0,0,3,1,0,0
176927569,0.0,0.0,0.276162,0.0,0.0,0.0,0.0,0.0,0.0,0.0,0.0,0,0,0,0,0,0,0,3,3,0,0,3,1,0,0
177146765,0.0,0.0,0.27969408,0.0,0.0,0.0,0.0,0.0,0.0,0.0,0.0,0,0,0,0,0,0,0,3,3,0,0,3,1,0,0
177350759,0.0,0.0,0.27609926,0.0,0.0,0.0,0.0,0.0,0.0,0.0,0.0,0,0,0,0,0,0,0,3,3,0,0,3,1,0,0
177546777,0.0,0.0,0.2781288,0.0,0.0,0.0,0.0,0.0,0.0,0.0,0.0,0,0,0,0,0,0,0,3,3,0,0,3,1,0,0
177754761,0.0,0.0,0.30834723,0.0,0.0,0.0,0.0,0.0,0.0,0.0,0.0,0,0,0,0,0,0,0,3,3,0,0,3,1,0,0
177934150,0.0,0.0,0.49236444,0.0,0.0,0.0,0.0,0.0,0.0,0.0,0.0,0,0,0,0,0,0,0,3,3,0,0,3,1,0,0
178134315,-0.04103588,0.0,0.49492392,0.0,0.0,0.0,0.0,0.0,0.0,0.0,0.0,0,0,0,0,0,0,0,3,3,0,0,3,1,0,0
178350355,-0.10387253,0.0,0.49405566,0.0,0.0,0.0,0.0,0.0,0.0,0.0,0.0,0,0,0,0,0,0,0,3,3,0,0,3,1,0,0
178561968,-0.12813826,0.04962327,0.49493754,0.0,0.0,0.0,0.0,0.0,0.0,0.0,0.0,0,0,0,0,0,0,0,3,3,0,0,3,1,0,0
178753182,-0.08548418,0.09438216,0.49445647,0.0,0.0,0.0,0.0,0.0,0.0,0.0,0.0,0,0,0,0,0,0,0,3,3,0,0,3,1,0,0
178957127,-0.12642097,0.106812544,0.49491757,0.0,0.0,0.0,0.0,0.0,0.0,0.0,0.0,0,0,0,0,0,0,0,3,3,0,0,3,1,0,0
179169291,-0.13645995,0.0522878,0.49493673,0.0,0.0,0.0,0.0,0.0,0.0,0.0,0.0,0,0,0,0,0,0,0,3,3,0,0,3,1,0,0
179368345,-0.14886193,0.018034713,0.49449748,0.0,0.0,0.0,0.0,0.0,0.0,0.0,0.0,0,0,0,0,0,0,0,3,3,0,0,3,1,0,0
179568352,-0.15671092,0.016785596,0.4949722,0.0,0.0,0.0,0.0,0.0,0.0,0.0,0.0,0,0,0,0,0,0,0,3,3,0,0,3,1,0,0
179784374,-0.16440763,4.654233e-05,0.49493673,0.0,0.0,0.0,0.0,0.0,0.0,0.0,0.0,0,0,0,0,0,0,0,3,3,0,0,3,1,0,0
179964557,-0.17794096,-6.768174e-08,0.49405566,0.0,0.0,0.0,0.0,0.0,0.0,0.0,0.0,0,0,0,0,0,0,0,3,3,0,0,3,1,0,0
180183916,-0.15373951,-0.0062133,0.49500158,0.0,0.0,0.0,0.0,0.0,0.0,0.0,0.0,0,0,0,0,0,0,0,3,3,0,0,3,1,0,0
180367602,-0.10149192,-0.15111399,0.4949367,0.0,0.0,0.0,0.0,0.0,0.0,0.0,0.0,0,0,0,0,0,0,0,3,3,0,0,3,1,0,0
180587526,0.0021164187,-0.21404213,0.49493673,0.0,0.0,0.0,0.0,0.0,0.0,0.0,0.0,0,0,0,0,0,0,0,3,3,0,0,3,1,0,0
180778971,0.003490537,0.0015702391,0.49493673,0.0,0.0,0.0,0.0,0.0,0.0,0.0,0.0,0,0,0,0,0,0,0,3,3,0,0,3,1,0,0
180994768,0.007983802,4.820027e-07,0.49445406,0.0,0.0,0.0,0.0,0.0,0.0,0.0,0.0,0,0,0,0,0,0,0,3,3,0,0,3,1,0,0
181174984,0.09684608,-0.0016394618,0.49493754,0.0,0.0,0.0,0.0,0.0,0.0,0.0,0.0,0,0,0,0,0,0,0,3,3,0,0,3,1,0,0
181378743,0.14218159,-0.04492331,0.49493673,0.0,0.0,0.0,0.0,0.0,0.0,0.0,0.0,0,0,0,0,0,0,0,3,3,0,0,3,1,0,0
181594155,0.14936416,-0.044973634,0.49493673,0.0,0.0,0.0,0.0,0.0,0.0,0.0,0.0,0,0,0,0,0,0,0,3,3,0,0,3,1,0,0
181789975,0.17286266,-0.028184354,0.49493673,0.0,0.0,0.0,0.0,0.0,0.0,0.0,0.0,0,0,0,0,0,0,0,3,3,0,0,3,1,0,0
182005971,0.20404792,-0.005334623,0.4948938,0.0,0.0,0.0,0.0,0.0,0.0,0.0,0.0,0,0,0,0,0,0,0,3,3,0,0,3,1,0,0
182209168,0.23330703,-3.7930506e-05,0.49492946,0.0,0.0,0.0,0.0,0.0,0.0,0.0,0.0,0,0,0,0,0,0,0,3,3,0,0,3,1,0,0
182401225,0.25579867,3.243265e-08,0.49493673,0.0,0.0,0.0,0.0,0.0,0.0,0.0,0.0,0,0,0,0,0,0,0,3,3,0,0,3,1,0,0
182601393,0.24471237,-1.2243928e-11,0.49493673,0.0,0.0,0.0,0.0,0.0,0.0,0.0,0.0,0,0,0,0,0,0,0,3,3,0,0,3,1,0,0
182805181,0.2372092,-0.00054648705,0.49493673,0.0,0.0,0.0,0.0,0.0,0.0,0.0,0.0,0,0,0,0,0,0,0,3,3,0,0,3,1,0,0
183004378,0.22889277,-0.053272456,0.49493673,0.0,0.0,0.0,0.0,0.0,0.0,0.0,0.0,0,0,0,0,0,0,0,3,3,0,0,3,1,0,0
183224397,0.22925636,-0.06454617,0.49493673,0.0,0.0,0.0,0.0,0.0,0.0,0.0,0.0,0,0,0,0,0,0,0,3,3,0,0,3,1,0,0
183408547,0.25113443,-0.023930319,0.49464223,0.0,0.0,0.0,0.0,0.0,0.0,0.0,0.0,0,0,0,0,0,0,0,3,3,0,0,3,1,0,0
183615530,0.32348362,1.12885755e-05,0.49394923,0.0,0.0,0.0,0.0,0.0,0.0,0.0,0.0,0,0,0,0,0,0,0,3,3,0,0,3,1,0,0
183815916,0.34351137,2.7936511e-10,0.49448866,0.0,0.0,0.0,0.0,0.0,0.0,0.0,0.0,0,0,0,0,0,0,0,3,3,0,0,3,1,0,0
184031934,0.3436864,-2.6546783e-12,0.49430865,0.0,0.0,0.0,0.0,0.0,0.0,0.0,0.0,0,0,0,0,0,0,0,3,3,0,0,3,1,0,0
184215756,0.3377505,4.263694e-15,0.49500808,0.0,0.0,0.0,0.0,0.0,0.0,0.0,0.0,0,0,0,0,0,0,0,3,3,0,0,3,1,0,0
184435533,0.3355877,6.2934165e-19,0.4948938,0.0,0.0,0.0,0.0,0.0,0.0,0.0,0.0,0,0,0,0,0,0,0,3,3,0,0,3,1,0,0
184642763,0.33446768,-7.889359e-22,0.49387065,0.0,0.0,0.0,0.0,0.0,0.0,0.0,0.0,0,0,0,0,0,0,0,3,3,0,0,3,1,0,0
184838940,0.33196807,4.2199937e-25,0.49471024,0.0,0.0,0.0,0.0,0.0,0.0,0.0,0.0,0,0,0,0,0,0,0,3,3,0,0,3,1,0,0
185030802,0.29266232,-3.4275312e-29,0.4948938,0.0,0.0,0.0,0.0,0.0,0.0,0.0,0.0,0,0,0,0,0,0,0,3,3,0,0,3,1,0,0
185229977,-0.004321785,-1.4871695e-31,0.49430865,0.0,0.0,0.0,0.0,0.0,0.0,0.0,0.0,0,0,0,0,0,0,0,3,3,0,0,3,1,0,0
185450141,-9.666533e-07,2.6650354e-35,0.49470833,0.0,0.0,0.0,0.0,0.0,0.0,0.0,0.0,0,0,0,0,0,0,0,3,3,0,0,3,1,0,0
185653971,-0.080489054,1.6372613e-38,0.49500808,0.0,0.0,0.0,0.0,0.0,0.0,0.0,0.0,0,0,0,0,0,0,0,3,3,0,0,3,1,0,0
185850014,-0.22151874,-2.5567e-41,0.49449503,0.0,0.0,0.0,0.0,0.0,0.0,0.0,0.0,0,0,0,0,0,0,0,3,3,0,0,3,1,0,0
186045152,-0.24838394,1.5e-44,0.49493685,0.0,0.0,0.0,0.0,0.0,0.0,0.0,0.0,0,0,0,0,0,0,0,3,3,0,0,3,1,0,0
186261325,-0.19123448,0.0,0.49489573,0.0,0.0,0.0,0.0,0.0,0.0,0.0,0.0,0,0,0,0,0,0,0,3,3,0,0,3,1,0,0
186461153,-3.18564e-05,0.0,0.49492824,0.0,0.0,0.0,0.0,0.0,0.0,0.0,0.0,0,0,0,0,0,0,0,3,3,0,0,3,1,0,0
186668338,2.87135e-07,0.0,0.49493673,0.0,0.0,0.0,0.0,0.0,0.0,0.0,0.0,0,0,0,0,0,0,0,3,3,0,0,3,1,0,0
186864549,-6.102956e-11,0.0,0.49449748,0.0,0.0,0.0,0.0,0.0,0.0,0.0,0.0,0,0,0,0,0,0,0,3,3,0,0,3,1,0,0
187068328,-6.8287085e-14,0.0,0.55273545,0.0,0.0,0.0,0.0,0.0,0.0,0.0,0.0,0,0,0,0,0,0,0,3,3,0,0,3,1,0,0
187272487,8.541661e-17,0.0,0.5404479,0.0,0.0,0.0,0.0,0.0,0.0,0.0,0.0,0,0,0,0,0,0,0,3,3,0,0,3,1,0,0
187475547,-0.08026251,0.0,0.49492598,0.0,0.0,0.0,0.0,0.0,0.0,0.0,0.0,0,0,0,0,0,0,0,3,3,0,0,3,1,0,0
187675792,-0.16375975,0.0,0.49634305,0.0,0.0,0.0,0.0,0.0,0.0,0.0,0.0,0,0,0,0,0,0,0,3,3,0,0,3,1,0,0
187871571,-0.025727293,0.0,0.49620003,0.0,0.0,0.0,0.0,0.0,0.0,0.0,0.0,0,0,0,0,0,0,0,3,3,0,0,3,1,0,0
188074747,9.442339e-06,0.0,0.4962025,0.0,0.0,0.0,0.0,0.0,0.0,0.0,0.0,0,0,0,0,0,0,0,3,3,0,0,3,1,0,0
188278761,2.6509217e-09,0.0,0.4962025,0.0,0.0,0.0,0.0,0.0,0.0,0.0,0.0,0,0,0,0,0,0,0,3,3,0,0,3,1,0,0
188474740,-6.3098203e-12,0.012115707,0.4955829,0.0,0.0,0.0,0.0,0.0,0.0,0.0,0.0,0,0,0,0,0,0,0,3,3,0,0,3,1,0,0
188678792,4.3835607e-15,0.25294584,0.49623743,0.0,0.0,0.0,0.0,0.0,0.0,0.0,0.0,0,0,0,0,0,0,0,3,3,0,0,3,1,0,0
188897946,9.131182e-19,0.23817642,0.4962025,0.0,0.0,0.0,0.0,0.0,0.0,0.0,0.0,0,0,0,0,0,0,0,3,3,0,0,3,1,0,0
189077938,-8.48496e-22,0.19365236,0.49627337,0.0,0.0,0.0,0.0,0.0,0.0,0.0,0.0,0,0,0,0,0,0,0,3,3,0,0,3,1,0,0
189298086,3.7447688e-25,0.17061175,0.4962025,0.0,0.0,0.0,0.0,0.0,0.0,0.0,0.0,0,0,0,0,0,0,0,3,3,0,0,3,1,0,0
189501959,4.2406468e-29,0.12373697,0.4961711,0.0,0.0,0.0,0.0,0.0,0.0,0.0,0.0,0,0,0,0,0,0,0,3,3,0,0,3,1,0,0
189705521,-1.9551042e-31,-0.0005914557,0.49557447,0.0,0.0,0.0,0.0,0.0,0.0,0.0,0.0,0,0,0,0,0,0,0,3,3,0,0,3,1,0,0
189905156,1.526431e-34,-2.1788031e-07,0.49623743,0.0,0.0,0.0,0.0,0.0,0.0,0.0,0.0,0,0,0,0,0,0,0,3,3,0,0,3,1,0,0
190089163,-2.288641e-37,-9.591787e-12,0.49620244,0.0,0.0,0.0,0.0,0.0,0.0,0.0,0.0,0,0,0,0,0,0,0,3,3,0,0,3,1,0,0
190304337,-2.0606e-41,0.006507602,0.4962025,0.0,0.0,0.0,0.0,0.0,0.0,0.0,0.0,0,0,0,0,0,0,0,3,3,0,0,3,1,0,0
190504345,-0.01801012,0.050601915,0.4962025,0.0,0.0,0.0,0.0,0.0,0.0,0.0,0.0,0,0,0,0,0,0,0,3,3,0,0,3,1,0,0
190700543,-0.0059375763,0.06752186,0.4962025,0.0,0.0,0.0,0.0,0.0,0.0,0.0,0.0,0,0,0,0,0,0,0,3,3,0,0,3,1,0,0
190900412,4.5971433e-06,0.08366611,0.4962025,0.0,0.0,0.0,0.0,0.0,0.0,0.0,0.0,0,0,0,0,0,0,0,3,3,0,0,3,1,0,0
191123553,1.7219139e-10,0.00042688794,0.4962025,0.0,0.0,0.0,0.0,0.0,0.0,0.0,0.0,0,0,0,0,0,0,0,3,3,0,0,3,1,0,0
191319572,-7.3451526e-13,-2.3076115e-07,0.4962025,0.0,0.0,0.0,0.0,0.0,0.0,0.0,0.0,0,0,0,0,0,0,0,3,3,0,0,3,1,0,0
191519580,5.6801717e-16,2.0657797e-11,0.4962025,0.0,0.0,0.0,0.0,0.0,0.0,0.0,0.0,0,0,0,0,0,0,0,3,3,0,0,3,1,0,0
191722768,-1.8471856e-19,7.9651583e-14,0.49631435,0.0,0.0,0.0,0.0,0.0,0.0,0.0,0.0,0,0,0,0,0,0,0,3,3,0,0,3,1,0,0
191938737,-1.0858779e-22,-1.4807486e-17,0.4961621,0.0,0.0,0.0,0.0,0.0,0.0,0.0,0.0,0,0,0,0,0,0,0,3,3,0,0,3,1,0,0
192118749,1.4734077e-25,3.4557115e-20,0.49532035,0.0,0.0,0.0,0.0,0.0,0.0,0.0,0.0,0,0,0,0,0,0,0,3,3,0,0,3,1,0,0
192331176,-9.501583e-29,2.9663195e-24,0.49626783,0.0,0.0,0.0,0.0,0.0,0.0,0.0,0.0,0,0,0,0,0,0,0,3,3,0,0,3,1,0,0
192542057,-2.2245633e-32,-8.3920356e-27,0.49623284,0.0,0.0,0.0,0.0,0.0,0.0,0.0,0.0,0,0,0,0,0,0,0,3,3,0,0,3,1,0,0
192737930,-0.0015890163,1.4759938e-30,0.49619526,0.0,0.0,0.0,0.0,0.0,0.0,0.0,0.0,0,0,0,0,0,0,0,3,3,0,0,3,1,0,0
192942322,-0.19312038,2.2643008e-33,0.49682212,0.0,0.0,0.0,0.0,0.0,0.0,0.0,0.0,0,0,0,0,0,0,0,3,3,0,0,3,1,0,0
193141207,-0.13610694,0.0900586,0.49620184,0.0,0.0,0.0,0.0,0.0,0.0,0.0,0.0,0,0,0,0,0,0,0,3,3,0,0,3,1,0,0
193341199,-0.13994841,0.13794464,0.4951437,0.0,0.0,0.0,0.0,0.0,0.0,0.0,0.0,0,0,0,0,0,0,0,3,3,0,0,3,1,0,0
193561187,-0.14535369,0.15295713,0.49620262,0.0,0.0,0.0,0.0,0.0,0.0,0.0,0.0,0,0,0,0,0,0,0,3,3,0,0,3,1,0,0
193749162,-0.14923778,0.14487687,0.49620256,0.0,0.0,0.0,0.0,0.0,0.0,0.0,0.0,0,0,0,0,0,0,0,3,3,0,0,3,1,0,0
193945516,-0.15561506,0.13584113,0.49532023,0.0,0.0,0.0,0.0,0.0,0.0,0.0,0.0,0,0,0,0,0,0,0,3,3,0,0,3,1,0,0
194144340,-0.18718752,0.09129211,0.49620372,0.0,0.0,0.0,0.0,0.0,0.0,0.0,0.0,0,0,0,0,0,0,0,3,3,0,0,3,1,0,0
194348354,-0.2264222,0.0381897,0.49620256,0.0,0.0,0.0,0.0,0.0,0.0,0.0,0.0,0,0,0,0,0,0,0,3,3,0,0,3,1,0,0
194556624,-0.24406612,-0.00014867005,0.4959657,0.0,0.0,0.0,0.0,0.0,0.0,0.0,0.0,0,0,0,0,0,0,0,3,3,0,0,3,1,0,0
194759574,-0.23812658,5.8999746e-07,0.49620065,0.0,0.0,0.0,0.0,0.0,0.0,0.0,0.0,0,0,0,0,0,0,0,3,3,0,0,3,1,0,0
194955750,-0.19564575,0.035706915,0.49620256,0.0,0.0,0.0,0.0,0.0,0.0,0.0,0.0,0,0,0,0,0,0,0,3,3,0,0,3,1,0,0
195159785,-0.1938334,0.037986305,0.4962121,0.0,0.0,0.0,0.0,0.0,0.0,0.0,0.0,0,0,0,0,0,0,0,3,3,0,0,3,1,0,0
195366949,-0.16107726,0.048462763,0.49575377,0.0,0.0,0.0,0.0,0.0,0.0,0.0,0.0,0,0,0,0,0,0,0,3,3,0,0,3,1,0,0
195582806,-0.14944728,0.050009854,0.49620247,0.0,0.0,0.0,0.0,0.0,0.0,0.0,0.0,0,0,0,0,0,0,0,3,3,0,0,3,1,0,0
195762757,-0.19049083,0.08530702,0.4962025,0.0,0.0,0.0,0.0,0.0,0.0,0.0,0.0,0,0,0,0,0,0,0,3,3,0,0,3,1,0,0
195990730,-0.22541289,0.13944198,0.4962025,0.0,0.0,0.0,0.0,0.0,0.0,0.0,0.0,0,0,0,0,0,0,0,3,3,0,0,3,1,0,0
196177977,-0.19776139,0.10859601,0.49571377,0.0,0.0,0.0,0.0,0.0,0.0,0.0,0.0,0,0,0,0,0,0,0,3,3,0,0,3,1,0,0
196381985,-0.19487445,0.103353225,0.49622864,0.0,0.0,0.0,0.0,0.0,0.0,0.0,0.0,0,0,0,0,0,0,0,3,3,0,0,3,1,0,0
196582128,-0.19434701,0.11560669,0.49620238,0.0,0.0,0.0,0.0,0.0,0.0,0.0,0.0,0,0,0,0,0,0,0,3,3,0,0,3,1,0,0
196801326,-0.1308791,0.2780699,0.49620256,0.0,0.0,0.0,0.0,0.0,0.0,0.0,0.0,0,0,0,0,0,0,0,3,3,0,0,3,1,0,0
196993173,-0.009307011,0.20583153,0.49620256,0.0,0.0,0.0,0.0,0.0,0.0,0.0,0.0,0,0,0,0,0,0,0,3,3,0,0,3,1,0,0
197185232,2.6746598e-06,-0.00017159268,0.49594107,0.0,0.0,0.0,0.0,0.0,0.0,0.0,0.0,0,0,0,0,0,0,0,3,3,0,0,3,1,0,0
197405347,1.8234702e-09,-0.017891463,0.49597594,0.0,0.0,0.0,0.0,0.0,0.0,0.0,0.0,0,0,0,0,0,0,0,3,3,0,0,3,1,0,0
197588568,0.050505742,-0.26849562,0.49575365,0.0,0.0,0.0,0.0,0.0,0.0,0.0,0.0,0,0,0,0,0,0,0,3,3,0,0,3,1,0,0
197800581,0.1599322,-0.29213682,0.49620247,0.0,0.0,0.0,0.0,0.0,0.0,0.0,0.0,0,0,0,0,0,0,0,3,3,0,0,3,1,0,0
197996365,0.14540866,-0.001241255,0.4962025,0.0,0.0,0.0,0.0,0.0,0.0,0.0,0.0,0,0,0,0,0,0,0,3,3,0,0,3,1,0,0
198200414,0.29995337,3.6809163e-07,0.4962025,0.0,0.0,0.0,0.0,0.0,0.0,0.0,0.0,0,0,0,0,0,0,0,3,3,0,0,3,1,0,0
198407749,0.21861379,2.0421963e-10,0.4962025,0.0,0.0,0.0,0.0,0.0,0.0,0.0,0.0,0,0,0,0,0,0,0,3,3,0,0,3,1,0,0
198607544,0.00035782825,-3.33998e-13,0.4962025,0.0,0.0,0.0,0.0,0.0,0.0,0.0,0.0,0,0,0,0,0,0,0,3,3,0,0,3,1,0,0
198815530,-0.07842913,2.0498835e-16,0.4962025,0.0,0.0,0.0,0.0,0.0,0.0,0.0,0.0,0,0,0,0,0,0,0,3,3,0,0,3,1,0,0
199015921,-0.00043248397,-3.7488184e-20,0.4962025,0.0,0.0,0.0,0.0,0.0,0.0,0.0,0.0,0,0,0,0,0,0,0,3,3,0,0,3,1,0,0
199222801,3.096034e-07,-5.405713e-23,0.49634424,0.0,0.0,0.0,0.0,0.0,0.0,0.0,0.0,0,0,0,0,0,0,0,3,3,0,0,3,1,0,0
199426758,-8.7083035e-11,6.3035625e-26,0.49620247,0.0,0.0,0.0,0.0,0.0,0.0,0.0,0.0,0,0,0,0,0,0,0,3,3,0,0,3,1,0,0
199630969,-5.5064514e-14,-3.212052e-29,0.4962121,0.0,0.0,0.0,0.0,0.0,0.0,0.0,0.0,0,0,0,0,0,0,0,3,3,0,0,3,1,0,0
199834756,8.490713e-17,1.3450829e-33,0.4962025,0.0,0.0,0.0,0.0,0.0,0.0,0.0,0.0,0,0,0,0,0,0,0,3,3,0,0,3,1,0,0
200041931,-5.077813e-20,1.2422322e-35,0.4962025,0.0,0.0,0.0,0.0,0.0,0.0,0.0,0.0,0,0,0,0,0,0,0,3,3,0,0,3,1,0,0
200242131,8.36704e-24,-1.1408461e-38,0.4962025,0.0,0.0,0.0,0.0,0.0,0.0,0.0,0.0,0,0,0,0,0,0,0,3,3,0,0,3,1,0,0
200442030,1.4192699e-26,4.697e-42,0.49682212,0.0,0.0,0.0,0.0,0.0,0.0,0.0,0.0,0,0,0,0,0,0,0,3,3,0,0,3,1,0,0
200633147,-1.5925462e-29,0.0,0.50747764,0.0,0.0,0.0,0.0,0.0,0.0,0.0,0.0,0,0,0,0,0,0,0,3,3,0,0,3,1,0,0
200841156,7.8883e-33,0.0,0.49687526,0.0,0.0,0.0,0.0,0.0,0.0,0.0,0.0,0,0,0,0,0,0,0,3,3,0,0,3,1,0,0
201049129,-0.085408226,0.0,0.49647442,0.0,0.0,0.0,0.0,0.0,0.0,0.0,0.0,0,0,0,0,0,0,0,3,3,0,0,3,1,0,0
201249148,-0.18622921,0.25248218,0.49681205,0.0,0.0,0.0,0.0,0.0,0.0,0.0,0.0,0,0,0,0,0,0,0,3,3,0,0,3,1,0,0
201448371,-0.21865183,0.34085393,0.4966411,0.0,0.0,0.0,0.0,0.0,0.0,0.0,0.0,0,0,0,0,0,0,0,3,3,0,0,3,1,0,0
201656356,-0.255836,0.38462377,0.49616942,0.0,0.0,0.0,0.0,0.0,0.0,0.0,0.0,0,0,0,0,0,0,0,3,3,0,0,3,1,0,0
201860549,-0.27476352,0.35967425,0.4961245,0.0,0.0,0.0,0.0,0.0,0.0,0.0,0.0,0,0,0,0,0,0,0,3,3,0,0,3,1,0,0
202063692,-0.117731184,0.025375599,0.49752966,0.0,0.0,0.0,0.0,0.0,0.0,0.0,0.0,0,0,0,0,0,0,0,3,3,0,0,3,1,0,0
202263526,-0.09006443,-0.41165575,0.49750125,0.0,0.0,0.0,0.0,0.0,0.0,0.0,0.0,0,0,0,0,0,0,0,3,3,0,0,3,1,0,0
202467548,-0.059938487,-0.5561905,0.49584433,0.0,0.0,0.0,0.0,0.0,0.0,0.0,0.0,0,0,0,0,0,0,0,3,3,0,0,3,1,0,0
202682777,0.0069966787,-0.3465506,0.49712926,0.0,0.0,0.0,0.0,0.0,0.0,0.0,0.0,0,0,0,0,0,0,0,3,3,0,0,3,1,0,0
202882771,0.07913829,0.012004982,0.49644008,0.0,0.0,0.0,0.0,0.0,0.0,0.0,0.0,0,0,0,0,0,0,0,3,3,0,0,3,1,0,0
203078870,0.046282887,-0.010392233,0.49723586,0.0,0.0,0.0,0.0,0.0,0.0,0.0,0.0,0,0,0,0,0,0,0,3,3,0,0,3,1,0,0
203278728,0.20338504,-0.23381777,0.49702725,0.0,0.0,0.0,0.0,0.0,0.0,0.0,0.0,0,0,0,0,0,0,0,3,3,0,0,3,1,0,0
203478764,0.20184097,-0.34338102,0.4961386,0.0,0.0,0.0,0.0,0.0,0.0,0.0,0.0,0,0,0,0,0,0,0,3,3,0,0,3,1,0,0
203678171,0.19468397,-0.024321245,0.497267,0.0,0.0,0.0,0.0,0.0,0.0,0.0,0.0,0,0,0,0,0,0,0,3,3,0,0,3,1,0,0
203890157,0.17770356,-0.004925194,0.49636135,0.0,0.0,0.0,0.0,0.0,0.0,0.0,0.0,0,0,0,0,0,0,0,3,3,0,0,3,1,0,0
204097964,0.2955145,-0.19585052,0.4975321,0.0,0.0,0.0,0.0,0.0,0.0,0.0,0.0,0,0,0,0,0,0,0,3,3,0,0,3,1,0,0
204293141,0.29360366,-0.2834926,0.4975324,0.0,0.0,0.0,0.0,0.0,0.0,0.0,0.0,0,0,0,0,0,0,0,3,3,0,0,3,1,0,0
204509366,0.31122103,-0.2273716,0.49752805,0.0,0.0,0.0,0.0,0.0,0.0,0.0,0.0,0,0,0,0,0,0,0,3,3,0,0,3,1,0,0
204705339,0.31121552,-0.23905191,0.4961705,0.0,0.0,0.0,0.0,0.0,0.0,0.0,0.0,0,0,0,0,0,0,0,3,3,0,0,3,1,0,0
204904413,0.30804944,-0.2544697,0.4969141,0.0,0.0,0.0,0.0,0.0,0.0,0.0,0.0,0,0,0,0,0,0,0,3,3,0,0,3,1,0,0
205104591,0.3352511,-0.06775121,0.4974279,0.0,0.0,0.0,0.0,0.0,0.0,0.0,0.0,0,0,0,0,0,0,0,3,3,0,0,3,1,0,0
205324364,0.23920855,-0.004631471,0.49714702,0.0,0.0,0.0,0.0,0.0,0.0,0.0,0.0,0,0,0,0,0,0,0,3,3,0,0,3,1,0,0
205500547,0.023178946,8.6146065e-06,0.49741766,0.0,0.0,0.0,0.0,0.0,0.0,0.0,0.0,0,0,0,0,0,0,0,3,3,0,0,3,1,0,0
205723837,-3.02798e-06,2.222352e-09,0.49753916,0.0,0.0,0.0,0.0,0.0,0.0,0.0,0.0,0,0,0,0,0,0,0,3,3,0,0,3,1,0,0
205931570,-3.625326e-10,-1.8120466e-12,0.4974683,0.0,0.0,0.0,0.0,0.0,0.0,0.0,0.0,0,0,0,0,0,0,0,3,3,0,0,3,1,0,0
206111543,-8.0546534e-13,2.6787974e-15,0.49746835,0.0,0.0,0.0,0.0,0.0,0.0,0.0,0.0,0,0,0,0,0,0,0,3,3,0,0,3,1,0,0
206334761,-1.2408948e-15,2.0819806e-19,0.49757344,0.0,0.0,0.0,0.0,0.0,0.0,0.0,0.0,0,0,0,0,0,0,0,3,3,0,0,3,1,0,0
206530950,-0.0015890163,0.013882332,0.49746832,0.0,0.0,0.0,0.0,0.0,0.0,0.0,0.0,0,0,0,0,0,0,0,3,3,0,0,3,1,0,0
206734779,-5.996192e-05,0.093052074,0.4970291,0.0,0.0,0.0,0.0,0.0,0.0,0.0,0.0,0,0,0,0,0,0,0,3,3,0,0,3,1,0,0
206923135,5.6620944e-08,0.0054692575,0.4974685,0.0,0.0,0.0,0.0,0.0,0.0,0.0,0.0,0,0,0,0,0,0,0,3,3,0,0,3,1,0,0
207130128,-2.402401e-11,0.24226715,0.49746835,0.0,0.0,0.0,0.0,0.0,0.0,0.0,0.0,0,0,0,0,0,0,0,3,3,0,0,3,1,0,0
207329948,-3.004336e-15,-0.0027171923,0.49658728,0.0,0.0,0.0,0.0,0.0,0.0,0.0,0.0,0,0,0,0,0,0,0,3,3,0,0,3,1,0,0
207541999,5.9525675e-18,0.16212267,0.49658808,0.0,0.0,0.0,0.0,0.0,0.0,0.0,0.0,0,0,0,0,0,0,0,3,3,0,0,3,1,0,0
207730176,-9.108267e-22,0.19675308,0.49688414,0.0,0.0,0.0,0.0,0.0,0.0,0.0,0.0,0,0,0,0,0,0,0,3,3,0,0,3,1,0,0
207933342,-1.7248596e-24,0.15976833,0.49757284,0.0,0.0,0.0,0.0,0.0,0.0,0.0,0.0,0,0,0,0,0,0,0,3,3,0,0,3,1,0,0
208133187,1.8905637e-27,0.24353848,0.49747074,0.0,0.0,0.0,0.0,0.0,0.0,0.0,0.0,0,0,0,0,0,0,0,3,3,0,0,3,1,0,0
208349174,1.6257929e-31,0.1590911,0.4965463,0.0,0.0,0.0,0.0,0.0,0.0,0.0,0.0,0,0,0,0,0,0,0,3,3,0,0,3,1,0,0
208541515,-3.2311135e-34,0.06496368,0.49746943,0.0,0.0,0.0,0.0,0.0,0.0,0.0,0.0,0,0,0,0,0,0,0,3,3,0,0,3,1,0,0
208760417,2.894301e-39,0.02714883,0.49640763,0.0,0.0,0.0,0.0,0.0,0.0,0.0,0.0,0,0,0,0,0,0,0,3,3,0,0,3,1,0,0
208944546,-4.9187e-41,0.071266145,0.49754038,0.0,0.0,0.0,0.0,0.0,0.0,0.0,0.0,0,0,0,0,0,0,0,3,3,0,0,3,1,0,0
209140360,-4.6e-44,0.16515787,0.49746588,0.0,0.0,0.0,0.0,0.0,0.0,0.0,0.0,0,0,0,0,0,0,0,3,3,0,0,3,1,0,0
209343579,0.0,0.15587163,0.49750257,0.0,0.0,0.0,0.0,0.0,0.0,0.0,0.0,0,0,0,0,0,0,0,3,3,0,0,3,1,0,0
209543550,0.0024802666,0.14435166,0.49746835,0.0,0.0,0.0,0.0,0.0,0.0,0.0,0.0,0,0,0,0,0,0,0,3,3,0,0,3,1,0,0
209747780,0.07067895,0.028837021,0.4962208,0.0,0.0,0.0,0.0,0.0,0.0,0.0,0.0,0,0,0,0,0,0,0,3,3,0,0,3,1,0,0
209966733,0.26113042,-1.4757217e-05,0.49746865,0.0,0.0,0.0,0.0,0.0,0.0,0.0,0.0,0,0,0,0,0,0,0,3,3,0,0,3,1,0,0
210154810,0.26073217,3.4771646e-09,0.49746835,0.0,0.0,0.0,0.0,0.0,0.0,0.0,0.0,0,0,0,0,0,0,0,3,3,0,0,3,1,0,0
210358741,0.056411963,3.2124314e-12,0.49669236,0.0,0.0,0.0,0.0,0.0,0.0,0.0,0.0,0,0,0,0,0,0,0,3,3,0,0,3,1,0,0
210558769,-1.2584054e-05,-4.274826e-15,0.49754032,0.0,0.0,0.0,0.0,0.0,0.0,0.0,0.0,0,0,0,0,0,0,0,3,3,0,0,3,1,0,0
210757962,2.871249e-08,2.3702482e-18,0.49745876,0.0,0.0,0.0,0.0,0.0,0.0,0.0,0.0,0,0,0,0,0,0,0,3,3,0,0,3,1,0,0
210981949,-0.04538287,6.9400317e-22,0.49746835,0.0,0.0,0.0,0.0,0.0,0.0,0.0,0.0,0,0,0,0,0,0,0,3,3,0,0,3,1,0,0
211177974,-0.18540534,-5.174996e-25,0.49746835,0.0,0.0,0.0,0.0,0.0,0.0,0.0,0.0,0,0,0,0,0,0,0,3,3,0,0,3,1,0,0
211382370,-0.21820045,1.5778734e-28,0.4970291,0.0,0.0,0.0,0.0,0.0,0.0,0.0,0.0,0,0,0,0,0,0,0,3,3,0,0,3,1,0,0
211581131,-0.21028942,8.1369676e-32,0.4972376,0.0,0.0,0.0,0.0,0.0,0.0,0.0,0.0,0,0,0,0,0,0,0,3,3,0,0,3,1,0,0
211777523,-0.21541506,-1.3778749e-34,0.49686962,0.0,0.0,0.0,0.0,0.0,0.0,0.0,0.0,0,0,0,0,0,0,0,3,3,0,0,3,1,0,0
211985360,-0.24158576,0.028539628,0.49727783,0.0,0.0,0.0,0.0,0.0,0.0,0.0,0.0,0,0,0,0,0,0,0,3,3,0,0,3,1,0,0
212197404,-0.3089227,0.16053793,0.4974695,0.0,0.0,0.0,0.0,0.0,0.0,0.0,0.0,0,0,0,0,0,0,0,3,3,0,0,3,1,0,0
212392575,-0.3053349,0.110717416,0.49746835,0.0,0.0,0.0,0.0,0.0,0.0,0.0,0.0,0,0,0,0,0,0,0,3,3,0,0,3,1,0,0
212588350,-0.29658002,0.0871485,0.4968392,0.0,0.0,0.0,0.0,0.0,0.0,0.0,0.0,0,0,0,0,0,0,0,3,3,0,0,3,1,0,0
212800520,-0.29873022,0.08577035,0.4972779,0.0,0.0,0.0,0.0,0.0,0.0,0.0,0.0,0,0,0,0,0,0,0,3,3,0,0,3,1,0,0
212991770,-0.30328855,0.083565935,0.49741825,0.0,0.0,0.0,0.0,0.0,0.0,0.0,0.0,0,0,0,0,0,0,0,3,3,0,0,3,1,0,0
213195538,-0.30844593,0.06340898,0.4968403,0.0,0.0,0.0,0.0,0.0,0.0,0.0,0.0,0,0,0,0,0,0,0,3,3,0,0,3,1,0,0
213403591,-0.29134306,0.023608373,0.49662217,0.0,0.0,0.0,0.0,0.0,0.0,0.0,0.0,0,0,0,0,0,0,0,3,3,0,0,3,1,0,0
213599556,-0.23567598,0.00010044454,0.49753124,0.0,0.0,0.0,0.0,0.0,0.0,0.0,0.0,0,0,0,0,0,0,0,3,3,0,0,3,1,0,0
213798988,-0.07729722,-3.69106e-08,0.4964022,0.0,0.0,0.0,0.0,0.0,0.0,0.0,0.0,0,0,0,0,0,0,0,3,3,0,0,3,1,0,0
214018733,-0.000104984756,-1.866815e-11,0.4975014,0.0,0.0,0.0,0.0,0.0,0.0,0.0,0.0,0,0,0,0,0,0,0,3,3,0,0,3,1,0,0
214214748,3.614157e-08,9.8613854e-15,0.49636856,0.0,0.0,0.0,0.0,0.0,0.0,0.0,0.0,0,0,0,0,0,0,0,3,3,0,0,3,1,0,0
