timestamp,vel_pos_innov[0],vel_pos_innov[1],vel_pos_innov[2],vel_pos_innov[3],vel_pos_innov[4],vel_pos_innov[5],mag_innov[0],mag_innov[1],mag_innov[2],heading_innov,airspeed_innov,beta_innov,flow_innov[0],flow_innov[1],hagl_innov,vel_pos_innov_var[0],vel_pos_innov_var[1],vel_pos_innov_var[2],vel_pos_innov_var[3],vel_pos_innov_var[4],vel_pos_innov_var[5],mag_innov_var[0],mag_innov_var[1],mag_innov_var[2],heading_innov_var,airspeed_innov_var,beta_innov_var,flow_innov_var[0],flow_innov_var[1],hagl_innov_var,output_tracking_error[0],output_tracking_error[1],output_tracking_error[2],drag_innov[0],drag_innov[1],drag_innov_var[0],drag_innov_var[1],aux_vel_innov[0],aux_vel_innov[1]
93443869,0.0,0.0,0.0,0.00021974517,-0.0018121543,-0.25435257,0.0,0.0,0.0,0.03034854,0.0,0.0,0.0,0.0,0.0,0.0,0.0,0.0,0.25761485,0.25761473,4.062325,0.0,0.0,0.0,0.09015555,0.0,0.0,0.0,0.0,0.0,0.00021506914,0.0018674161,0.0054645897,0.0,0.0,0.0,0.0,0.0,0.0
93647890,0.0,0.0,0.0,0.00020936762,-0.0019939684,0.22352982,0.0,0.0,0.0,0.033626556,0.0,0.0,0.0,0.0,0.0,0.0,0.0,0.0,0.25763687,0.25763676,4.062493,0.0,0.0,0.0,0.0901555,0.0,0.0,0.0,0.0,0.0,0.00044729808,0.0010498522,0.003043778,0.0,0.0,0.0,0.0,0.0,0.0
93847118,0.0,0.0,0.0,0.00021281489,-0.0021699711,0.17365456,0.0,0.0,0.0,0.04850298,0.0,0.0,0.0,0.0,0.0,0.0,0.0,0.0,0.25753796,0.2575379,4.0621853,0.0,0.0,0.0,0.09015538,0.0,0.0,0.0,0.0,0.0,0.00015763222,0.0013238904,0.0031821812,0.0,0.0,0.0,0.0,0.0,0.0
94047068,0.0,0.0,0.0,0.00018313387,-0.0023238335,0.15458298,0.0,0.0,0.0,0.045509934,0.0,0.0,0.0,0.0,0.0,0.0,0.0,0.0,0.257639,0.25763893,4.0626698,0.0,0.0,0.0,0.09015533,0.0,0.0,0.0,0.0,0.0,0.00065771193,0.0033394867,0.009619871,0.0,0.0,0.0,0.0,0.0,0.0
94255114,0.0,0.0,0.0,0.00016902164,-0.0024858592,-0.12804794,0.0,0.0,0.0,0.021747053,0.0,0.0,0.0,0.0,0.0,0.0,0.0,0.0,0.25764814,0.25764808,4.0628076,0.0,0.0,0.0,0.090155184,0.0,0.0,0.0,0.0,0.0,0.0005458214,0.0018587623,0.0051884563,0.0,0.0,0.0,0.0,0.0,0.0
94454290,0.0,0.0,0.0,0.00020147892,-0.0026202826,-0.6036377,0.0,0.0,0.0,0.04814911,0.0,0.0,0.0,0.0,0.0,0.0,0.0,0.0,0.257517,0.25751695,4.06229,0.0,0.0,0.0,0.09015505,0.0,0.0,0.0,0.0,0.0,0.0006901812,0.0007808777,0.0017860151,0.0,0.0,0.0,0.0,0.0,0.0
94662282,0.0,0.0,0.0,0.00019407914,-0.002706946,-0.17518997,0.0,0.0,0.0,0.011602342,0.0,0.0,0.0,0.0,0.0,0.0,0.0,0.0,0.25749043,0.25749037,4.0621758,0.0,0.0,0.0,0.09015491,0.0,0.0,0.0,0.0,0.0,0.0011005567,0.0024115017,0.0072221663,0.0,0.0,0.0,0.0,0.0,0.0
94862269,0.0,0.0,0.0,6.433072e-05,-0.00270932,-0.14419174,0.0,0.0,0.0,0.045937,0.0,0.0,0.0,0.0,0.0,0.0,0.0,0.0,0.2574673,0.2574672,4.062055,0.0,0.0,0.0,0.09015478,0.0,0.0,0.0,0.0,0.0,0.0009921804,0.0007937327,0.0014617488,0.0,0.0,0.0,0.0,0.0,0.0
95062269,0.0,0.0,0.0,-0.00013892388,-0.0027632029,-0.1139164,0.0,0.0,0.0,0.050055683,0.0,0.0,0.0,0.0,0.0,0.0,0.0,0.0,0.25737932,0.25737923,4.061626,0.0,0.0,0.0,0.090154745,0.0,0.0,0.0,0.0,0.0,0.0008423737,0.0030326748,0.008764565,0.0,0.0,0.0,0.0,0.0,0.0
95265469,0.0,0.0,0.0,-0.00042043361,-0.0029423116,-0.10165787,0.0,0.0,0.0,0.03637737,0.0,0.0,0.0,0.0,0.0,0.0,0.0,0.0,0.25738397,0.25738388,4.0615735,0.0,0.0,0.0,0.0901546,0.0,0.0,0.0,0.0,0.0,0.0007869781,0.0032499223,0.009275869,0.0,0.0,0.0,0.0,0.0,0.0
95465512,0.0,0.0,0.0,-0.0007448611,-0.0030306992,0.35154915,0.0,0.0,0.0,0.04459822,0.0,0.0,0.0,0.0,0.0,0.0,0.0,0.0,0.2574739,0.25747377,4.061942,0.0,0.0,0.0,0.09015458,0.0,0.0,0.0,0.0,0.0,0.0006707823,0.001590688,0.0046680295,0.0,0.0,0.0,0.0,0.0,0.0
95673469,0.0,0.0,0.0,-0.0010070269,-0.0030715866,0.22134018,0.0,0.0,0.0,0.03543043,0.0,0.0,0.0,0.0,0.0,0.0,0.0,0.0,0.25746205,0.25746188,4.061853,0.0,0.0,0.0,0.09015454,0.0,0.0,0.0,0.0,0.0,0.0008401077,0.0009799732,0.00246232,0.0,0.0,0.0,0.0,0.0,0.0
95873469,0.0,0.0,0.0,-0.0011870093,-0.0030528705,-0.2689247,0.0,0.0,0.0,0.03306818,0.0,0.0,0.0,0.0,0.0,0.0,0.0,0.0,0.25738683,0.25738665,4.061467,0.0,0.0,0.0,0.090154424,0.0,0.0,0.0,0.0,0.0,0.00091788697,0.005654998,0.016865592,0.0,0.0,0.0,0.0,0.0,0.0
96076669,0.0,0.0,0.0,-0.0012200464,-0.0029483072,-0.3402691,0.0,0.0,0.0,0.014896929,0.0,0.0,0.0,0.0,0.0,0.0,0.0,0.0,0.257347,0.25734678,4.0612006,0.0,0.0,0.0,0.09015429,0.0,0.0,0.0,0.0,0.0,0.0006589816,0.005170867,0.016470624,0.0,0.0,0.0,0.0,0.0,0.0
96280669,0.0,0.0,0.0,-0.0010603816,-0.0027777958,-0.007801056,0.0,0.0,0.0,0.053736746,0.0,0.0,0.0,0.0,0.0,0.0,0.0,0.0,0.2573085,0.25730827,4.0609484,0.0,0.0,0.0,0.09015426,0.0,0.0,0.0,0.0,0.0,0.0009876972,0.0015153645,0.005922834,0.0,0.0,0.0,0.0,0.0,0.0
96480675,0.0,0.0,0.0,-0.00078349025,-0.0025232853,-0.28962326,0.0,0.0,0.0,0.02541548,0.0,0.0,0.0,0.0,0.0,0.0,0.0,0.0,0.2573162,0.25731596,4.0608964,0.0,0.0,0.0,0.09015422,0.0,0.0,0.0,0.0,0.0,0.0010115196,0.00398198,0.013108226,0.0,0.0,0.0,0.0,0.0,0.0
96681480,0.0,0.0,0.0,-0.00038565972,-0.0021553035,-0.13386917,0.0,0.0,0.0,-0.036247313,0.0,0.0,0.0,0.0,0.0,0.0,0.0,0.0,0.25729385,0.25729358,4.060713,0.0,0.0,0.0,0.09015411,0.0,0.0,0.0,0.0,0.0,0.0006668016,0.0013328013,0.0030183722,0.0,0.0,0.0,0.0,0.0,0.0
96887876,0.0,0.0,0.0,3.8358103e-05,-0.001861461,0.059488297,0.0,0.0,0.0,0.022780538,0.0,0.0,0.0,0.0,0.0,0.0,0.0,0.0,0.2573305,0.25733024,4.0608006,0.0,0.0,0.0,0.09015406,0.0,0.0,0.0,0.0,0.0,0.0008887719,0.00424483,0.012515234,0.0,0.0,0.0,0.0,0.0,0.0
97087869,0.0,0.0,0.0,0.00037159186,-0.0015852113,-0.029712677,0.0,0.0,0.0,0.021378636,0.0,0.0,0.0,0.0,0.0,0.0,0.0,0.0,0.25728464,0.25728434,4.0605407,0.0,0.0,0.0,0.09015404,0.0,0.0,0.0,0.0,0.0,0.00067151594,0.0023048208,0.0075862054,0.0,0.0,0.0,0.0,0.0,0.0
97287869,0.0,0.0,0.0,0.0006600842,-0.0012940889,-0.684391,0.0,0.0,0.0,0.027407348,0.0,0.0,0.0,0.0,0.0,0.0,0.0,0.0,0.25751874,0.2575184,4.061533,0.0,0.0,0.0,0.09015401,0.0,0.0,0.0,0.0,0.0,0.00062821823,0.0051475237,0.014217756,0.0,0.0,0.0,0.0,0.0,0.0
97494294,0.0,0.0,0.0,0.0009861003,-0.0009279322,-0.3381157,0.0,0.0,0.0,0.03486502,0.0,0.0,0.0,0.0,0.0,0.0,0.0,0.0,0.25756392,0.25756362,4.0618243,0.0,0.0,0.0,0.09015398,0.0,0.0,0.0,0.0,0.0,0.0006588509,0.0056375233,0.016589887,0.0,0.0,0.0,0.0,0.0,0.0
97695070,0.0,0.0,0.0,0.0014213097,-0.00063394784,0.41711998,0.0,0.0,0.0,0.029056191,0.0,0.0,0.0,0.0,0.0,0.0,0.0,0.0,0.2576696,0.2576693,4.0623918,0.0,0.0,0.0,0.09015395,0.0,0.0,0.0,0.0,0.0,0.0006462119,0.0020152964,0.0068348064,0.0,0.0,0.0,0.0,0.0,0.0
97903068,0.0,0.0,0.0,0.0018471597,-0.00034555802,0.45446968,0.0,0.0,0.0,0.024556756,0.0,0.0,0.0,0.0,0.0,0.0,0.0,0.0,0.25753307,0.25753278,4.0619364,0.0,0.0,0.0,0.09015392,0.0,0.0,0.0,0.0,0.0,0.00047948177,0.0009833552,0.0019806174,0.0,0.0,0.0,0.0,0.0,0.0
98103115,0.0,0.0,0.0,0.002261808,6.342719e-05,-0.111349106,0.0,0.0,0.0,-0.052261353,0.0,0.0,0.0,0.0,0.0,0.0,0.0,0.0,0.25743738,0.25743708,4.0615954,0.0,0.0,0.0,0.09015389,0.0,0.0,0.0,0.0,0.0,0.0005834867,0.0052661244,0.01538122,0.0,0.0,0.0,0.0,0.0,0.0
98302281,0.0,0.0,0.0,0.00268368,0.00046275728,-0.111219406,0.0,0.0,0.0,-0.0149306655,0.0,0.0,0.0,0.0,0.0,0.0,0.0,0.0,0.25748384,0.25748357,4.0618186,0.0,0.0,0.0,0.09015377,0.0,0.0,0.0,0.0,0.0,0.0005766238,0.0013990512,0.0048349192,0.0,0.0,0.0,0.0,0.0,0.0
98510316,0.0,0.0,0.0,0.003148826,0.0010545034,0.014614105,0.0,0.0,0.0,0.006452322,0.0,0.0,0.0,0.0,0.0,0.0,0.0,0.0,0.2575145,0.25751424,4.06202,0.0,0.0,0.0,0.090153664,0.0,0.0,0.0,0.0,0.0,0.00010877462,0.0006721921,0.0014174999,0.0,0.0,0.0,0.0,0.0,0.0
98710269,0.0,0.0,0.0,0.003569823,0.0017449178,-0.28734016,0.0,0.0,0.0,0.03227508,0.0,0.0,0.0,0.0,0.0,0.0,0.0,0.0,0.25762334,0.2576231,4.0625677,0.0,0.0,0.0,0.090153635,0.0,0.0,0.0,0.0,0.0,0.00038058296,0.00092495466,0.002336729,0.0,0.0,0.0,0.0,0.0,0.0
98910275,0.0,0.0,0.0,0.003770801,0.0023388974,0.052545547,0.0,0.0,0.0,0.027495801,0.0,0.0,0.0,0.0,0.0,0.0,0.0,0.0,0.25763062,0.25763035,4.0626802,0.0,0.0,0.0,0.09015361,0.0,0.0,0.0,0.0,0.0,0.00038751916,0.0020506156,0.005267447,0.0,0.0,0.0,0.0,0.0,0.0
99117516,0.0,0.0,0.0,0.0038603742,0.0029282756,-0.05296135,0.0,0.0,0.0,0.010843575,0.0,0.0,0.0,0.0,0.0,0.0,0.0,0.0,0.25771135,0.25771108,4.06314,0.0,0.0,0.0,0.09015358,0.0,0.0,0.0,0.0,0.0,0.00056940597,0.0029965178,0.008820195,0.0,0.0,0.0,0.0,0.0,0.0
99317475,0.0,0.0,0.0,0.0037923637,0.0033669586,0.4569435,0.0,0.0,0.0,0.06202662,0.0,0.0,0.0,0.0,0.0,0.0,0.0,0.0,0.25775567,0.25775543,4.0634575,0.0,0.0,0.0,0.09015357,0.0,0.0,0.0,0.0,0.0,0.000805243,0.0019133626,0.005275394,0.0,0.0,0.0,0.0,0.0,0.0
99517468,0.0,0.0,0.0,0.003582537,0.0036635662,-0.2876072,0.0,0.0,0.0,0.021269321,0.0,0.0,0.0,0.0,0.0,0.0,0.0,0.0,0.25760186,0.25760162,4.062888,0.0,0.0,0.0,0.09015363,0.0,0.0,0.0,0.0,0.0,0.0007287498,0.0045094197,0.013059811,0.0,0.0,0.0,0.0,0.0,0.0
99725509,0.0,0.0,0.0,0.003373672,0.0037766541,-0.15885353,0.0,0.0,0.0,0.02992177,0.0,0.0,0.0,0.0,0.0,0.0,0.0,0.0,0.25747612,0.25747588,4.062341,0.0,0.0,0.0,0.09015351,0.0,0.0,0.0,0.0,0.0,0.00084412703,0.0032738443,0.00982714,0.0,0.0,0.0,0.0,0.0,0.0
99924668,0.0,0.0,0.0,0.0032647364,0.0037759738,-0.027723312,0.0,0.0,0.0,0.04822749,0.0,0.0,0.0,0.0,0.0,0.0,0.0,0.0,0.25745678,0.25745654,4.0621967,0.0,0.0,0.0,0.09015349,0.0,0.0,0.0,0.0,0.0,0.00054402667,0.0032423718,0.010053566,0.0,0.0,0.0,0.0,0.0,0.0
100132682,0.0,0.0,0.0,0.0031556946,0.0038155382,-0.032274246,0.0,0.0,0.0,-0.0015890598,0.0,0.0,0.0,0.0,0.0,0.0,0.0,0.0,0.25757378,0.25757354,4.062672,0.0,0.0,0.0,0.09015338,0.0,0.0,0.0,0.0,0.0,0.00058457465,0.0008805283,0.001448748,0.0,0.0,0.0,0.0,0.0,0.0
100332669,0.0,0.0,0.0,0.0029938645,0.0038620995,0.16485023,0.0,0.0,0.0,-0.044216514,0.0,0.0,0.0,0.0,0.0,0.0,0.0,0.0,0.25766405,0.25766382,4.0630755,0.0,0.0,0.0,0.09015335,0.0,0.0,0.0,0.0,0.0,0.0004361866,0.0042774384,0.012178691,0.0,0.0,0.0,0.0,0.0,0.0
100535890,0.0,0.0,0.0,0.0026537597,0.0038230421,0.07741928,0.0,0.0,0.0,0.011226177,0.0,0.0,0.0,0.0,0.0,0.0,0.0,0.0,0.2575366,0.25753638,4.062542,0.0,0.0,0.0,0.090153426,0.0,0.0,0.0,0.0,0.0,0.00067289063,0.0025947904,0.0079187825,0.0,0.0,0.0,0.0,0.0,0.0
100735868,0.0,0.0,0.0,0.0024390907,0.003950928,0.28167152,0.0,0.0,0.0,0.00436157,0.0,0.0,0.0,0.0,0.0,0.0,0.0,0.0,0.2574619,0.2574617,4.0621676,0.0,0.0,0.0,0.090153426,0.0,0.0,0.0,0.0,0.0,0.00072103547,0.0010863042,0.004387777,0.0,0.0,0.0,0.0,0.0,0.0
100935883,0.0,0.0,0.0,0.0023056034,0.004221901,0.1354065,0.0,0.0,0.0,0.0077587366,0.0,0.0,0.0,0.0,0.0,0.0,0.0,0.0,0.2575083,0.25750813,4.062304,0.0,0.0,0.0,0.09015331,0.0,0.0,0.0,0.0,0.0,0.0004361243,0.0017136395,0.005829432,0.0,0.0,0.0,0.0,0.0,0.0
101143924,0.0,0.0,0.0,0.0020967287,0.0044637374,-0.1487236,0.0,0.0,0.0,-0.057440758,0.0,0.0,0.0,0.0,0.0,0.0,0.0,0.0,0.25762117,0.257621,4.062781,0.0,0.0,0.0,0.090153374,0.0,0.0,0.0,0.0,0.0,9.39963e-05,0.00056254235,0.001485777,0.0,0.0,0.0,0.0,0.0,0.0
101343085,0.0,0.0,0.0,0.0018479371,0.004587371,0.03202629,0.0,0.0,0.0,-0.0060185194,0.0,0.0,0.0,0.0,0.0,0.0,0.0,0.0,0.25755736,0.25755718,4.0625334,0.0,0.0,0.0,0.09015337,0.0,0.0,0.0,0.0,0.0,0.00021767934,0.0034440644,0.010057706,0.0,0.0,0.0,0.0,0.0,0.0
101551083,0.0,0.0,0.0,0.0014168051,0.0046026027,0.4360447,0.0,0.0,0.0,0.01647669,0.0,0.0,0.0,0.0,0.0,0.0,0.0,0.0,0.2574521,0.25745192,4.0620394,0.0,0.0,0.0,0.09015342,0.0,0.0,0.0,0.0,0.0,0.00034243637,0.00334413,0.0089897225,0.0,0.0,0.0,0.0,0.0,0.0
101751068,0.0,0.0,0.0,0.0010491229,0.0046026637,-0.10882187,0.0,0.0,0.0,0.03197956,0.0,0.0,0.0,0.0,0.0,0.0,0.0,0.0,0.2575588,0.2575586,4.062482,0.0,0.0,0.0,0.09015331,0.0,0.0,0.0,0.0,0.0,0.0006560654,0.00054025184,0.0009795112,0.0,0.0,0.0,0.0,0.0,0.0
101951076,0.0,0.0,0.0,0.00075893104,0.004418816,-0.085531235,0.0,0.0,0.0,0.053096235,0.0,0.0,0.0,0.0,0.0,0.0,0.0,0.0,0.25751695,0.2575168,4.062292,0.0,0.0,0.0,0.09015311,0.0,0.0,0.0,0.0,0.0,0.0006652059,0.0031088148,0.00920183,0.0,0.0,0.0,0.0,0.0,0.0
102157514,0.0,0.0,0.0,0.00041558282,0.0042328,0.08593941,0.0,0.0,0.0,0.048698843,0.0,0.0,0.0,0.0,0.0,0.0,0.0,0.0,0.25743693,0.25743678,4.0618844,0.0,0.0,0.0,0.09015293,0.0,0.0,0.0,0.0,0.0,0.0010099269,0.00059556606,0.00094426086,0.0,0.0,0.0,0.0,0.0,0.0
102358275,0.0,0.0,0.0,7.5290984e-05,0.0041057044,-0.21864319,0.0,0.0,0.0,0.027046561,0.0,0.0,0.0,0.0,0.0,0.0,0.0,0.0,0.25742796,0.2574278,4.061767,0.0,0.0,0.0,0.09015291,0.0,0.0,0.0,0.0,0.0,0.0011946943,0.0005711628,0.0012057502,0.0,0.0,0.0,0.0,0.0,0.0
102566275,0.0,0.0,0.0,-0.00019922585,0.0038982662,0.19476509,0.0,0.0,0.0,0.019251108,0.0,0.0,0.0,0.0,0.0,0.0,0.0,0.0,0.2573769,0.25737676,4.06145,0.0,0.0,0.0,0.0901529,0.0,0.0,0.0,0.0,0.0,0.00073944347,0.0019881246,0.005851486,0.0,0.0,0.0,0.0,0.0,0.0
102766269,0.0,0.0,0.0,-0.00038755994,0.0037137656,-0.015106201,0.0,0.0,0.0,0.0029221177,0.0,0.0,0.0,0.0,0.0,0.0,0.0,0.0,0.25732115,0.25732103,4.061109,0.0,0.0,0.0,0.09015289,0.0,0.0,0.0,0.0,0.0,0.0006125677,0.00090672326,0.0022481608,0.0,0.0,0.0,0.0,0.0,0.0
102969481,0.0,0.0,0.0,-0.0005794068,0.0035688116,-0.33001137,0.0,0.0,0.0,0.025925279,0.0,0.0,0.0,0.0,0.0,0.0,0.0,0.0,0.25733992,0.2573398,4.061095,0.0,0.0,0.0,0.090152875,0.0,0.0,0.0,0.0,0.0,0.0005582353,0.00574089,0.01726898,0.0,0.0,0.0,0.0,0.0,0.0
103169504,0.0,0.0,0.0,-0.0008160304,0.003380706,-0.23948479,0.0,0.0,0.0,0.011486769,0.0,0.0,0.0,0.0,0.0,0.0,0.0,0.0,0.25733307,0.25733292,4.060972,0.0,0.0,0.0,0.0901528,0.0,0.0,0.0,0.0,0.0,0.00035578004,0.005479729,0.01660729,0.0,0.0,0.0,0.0,0.0,0.0
103369507,0.0,0.0,0.0,-0.0012641134,0.003010356,0.093256,0.0,0.0,0.0,-0.049797177,0.0,0.0,0.0,0.0,0.0,0.0,0.0,0.0,0.25731018,0.25731006,4.0607805,0.0,0.0,0.0,0.090152785,0.0,0.0,0.0,0.0,0.0,0.00046793104,0.001138075,0.004263132,0.0,0.0,0.0,0.0,0.0,0.0
103576693,0.0,0.0,0.0,-0.0017433296,0.002574838,0.1765461,0.0,0.0,0.0,-0.00061541796,0.0,0.0,0.0,0.0,0.0,0.0,0.0,0.0,0.25722018,0.25722006,4.060298,0.0,0.0,0.0,0.09015276,0.0,0.0,0.0,0.0,0.0,0.0005173143,0.00091042765,0.0015171439,0.0,0.0,0.0,0.0,0.0,0.0
103776669,0.0,0.0,0.0,-0.002161489,0.0021679108,0.17563438,0.0,0.0,0.0,-0.0034380555,0.0,0.0,0.0,0.0,0.0,0.0,0.0,0.0,0.25726593,0.2572658,4.060404,0.0,0.0,0.0,0.09015267,0.0,0.0,0.0,0.0,0.0,0.0006464818,0.00070849893,0.0011763612,0.0,0.0,0.0,0.0,0.0,0.0
103976669,0.0,0.0,0.0,-0.0024737157,0.0018050792,0.25910568,0.0,0.0,0.0,-0.037681222,0.0,0.0,0.0,0.0,0.0,0.0,0.0,0.0,0.2574328,0.2574327,4.061091,0.0,0.0,0.0,0.09015266,0.0,0.0,0.0,0.0,0.0,0.00025131067,0.0008264592,0.001673703,0.0,0.0,0.0,0.0,0.0,0.0
104184684,0.0,0.0,0.0,-0.0026690266,0.001502935,0.5203762,0.0,0.0,0.0,0.03934145,0.0,0.0,0.0,0.0,0.0,0.0,0.0,0.0,0.2573849,0.2573848,4.060906,0.0,0.0,0.0,0.09015265,0.0,0.0,0.0,0.0,0.0,0.0002777802,0.0008477043,0.0019663845,0.0,0.0,0.0,0.0,0.0,0.0
104383869,0.0,0.0,0.0,-0.0028542692,0.0013499296,-0.22636795,0.0,0.0,0.0,0.011438191,0.0,0.0,0.0,0.0,0.0,0.0,0.0,0.0,0.2574028,0.25740272,4.0609913,0.0,0.0,0.0,0.090152726,0.0,0.0,0.0,0.0,0.0,0.00028104294,0.0028894672,0.008443951,0.0,0.0,0.0,0.0,0.0,0.0
104591869,0.0,0.0,0.0,-0.0029129717,0.0011145732,-0.1312275,0.0,0.0,0.0,-0.03968507,0.0,0.0,0.0,0.0,0.0,0.0,0.0,0.0,0.25733998,0.25733992,4.060724,0.0,0.0,0.0,0.0901528,0.0,0.0,0.0,0.0,0.0,4.988552e-05,0.0032331261,0.009713578,0.0,0.0,0.0,0.0,0.0,0.0
104791869,0.0,0.0,0.0,-0.0029235967,0.0009417189,0.20186234,0.0,0.0,0.0,0.054255843,0.0,0.0,0.0,0.0,0.0,0.0,0.0,0.0,0.25730678,0.25730675,4.0605845,0.0,0.0,0.0,0.09015279,0.0,0.0,0.0,0.0,0.0,0.0004092336,0.00084868557,0.0015402464,0.0,0.0,0.0,0.0,0.0,0.0
104991893,0.0,0.0,0.0,-0.002997064,0.00071679713,0.18889809,0.0,0.0,0.0,0.039323807,0.0,0.0,0.0,0.0,0.0,0.0,0.0,0.0,0.257385,0.257385,4.060935,0.0,0.0,0.0,0.090152785,0.0,0.0,0.0,0.0,0.0,0.0004422967,0.0034848556,0.010356291,0.0,0.0,0.0,0.0,0.0,0.0
105191077,0.0,0.0,0.0,-0.0030127417,0.00032865623,-0.15403557,0.0,0.0,0.0,-0.053431213,0.0,0.0,0.0,0.0,0.0,0.0,0.0,0.0,0.25754067,0.25754067,4.0616627,0.0,0.0,0.0,0.09015277,0.0,0.0,0.0,0.0,0.0,0.00011068799,0.0028462692,0.009166068,0.0,0.0,0.0,0.0,0.0,0.0
105391089,0.0,0.0,0.0,-0.0029154362,5.2004625e-06,-0.11348152,0.0,0.0,0.0,-0.025074005,0.0,0.0,0.0,0.0,0.0,0.0,0.0,0.0,0.25764784,0.25764784,4.062218,0.0,0.0,0.0,0.09015268,0.0,0.0,0.0,0.0,0.0,0.00011012825,0.0018580578,0.0060178186,0.0,0.0,0.0,0.0,0.0,0.0
105599068,0.0,0.0,0.0,-0.0027254338,-0.0003041235,-0.26265717,0.0,0.0,0.0,-0.014170945,0.0,0.0,0.0,0.0,0.0,0.0,0.0,0.0,0.25753364,0.25753364,4.0618787,0.0,0.0,0.0,0.09015258,0.0,0.0,0.0,0.0,0.0,3.85127e-05,0.004009207,0.010982939,0.0,0.0,0.0,0.0,0.0,0.0
105799069,0.0,0.0,0.0,-0.0024356933,-0.00069500593,-0.053985596,0.0,0.0,0.0,0.015871227,0.0,0.0,0.0,0.0,0.0,0.0,0.0,0.0,0.2575076,0.2575076,4.061843,0.0,0.0,0.0,0.09015258,0.0,0.0,0.0,0.0,0.0,0.00023646525,0.0015159053,0.004189453,0.0,0.0,0.0,0.0,0.0,0.0
106006269,0.0,0.0,0.0,-0.0021594316,-0.0011317048,-0.17108345,0.0,0.0,0.0,0.012652278,0.0,0.0,0.0,0.0,0.0,0.0,0.0,0.0,0.25741518,0.25741518,4.0614853,0.0,0.0,0.0,0.0901524,0.0,0.0,0.0,0.0,0.0,2.0872201e-05,0.0017420477,0.004982727,0.0,0.0,0.0,0.0,0.0,0.0
106208711,0.0,0.0,0.0,-0.0017203747,-0.0016385929,0.092308044,0.0,0.0,0.0,0.06276679,0.0,0.0,0.0,0.0,0.0,0.0,0.0,0.0,0.2573456,0.25734556,4.061193,0.0,0.0,0.0,0.09015239,0.0,0.0,0.0,0.0,0.0,0.0001655564,0.0015293044,0.004760287,0.0,0.0,0.0,0.0,0.0,0.0
106406269,0.0,0.0,0.0,-0.00132963,-0.0019768253,0.29579353,0.0,0.0,0.0,0.072882175,0.0,0.0,0.0,0.0,0.0,0.0,0.0,0.0,0.25730094,0.25730094,4.0609674,0.0,0.0,0.0,0.09015248,0.0,0.0,0.0,0.0,0.0,0.00042440195,0.0018075715,0.0051159463,0.0,0.0,0.0,0.0,0.0,0.0
106817475,0.0,0.0,0.0,-0.0007333614,-0.002406271,-0.013551712,0.0,0.0,0.0,0.091006696,0.0,0.0,0.0,0.0,0.0,0.0,0.0,0.0,0.2574705,0.2574705,4.06171,0.0,0.0,0.0,0.09015247,0.0,0.0,0.0,0.0,0.0,0.00031310171,0.0009802638,0.0041460562,0.0,0.0,0.0,0.0,0.0,0.0
107624669,0.0,0.0,0.0,0.00034918985,-0.0021893955,0.43120575,0.0,0.0,0.0,0.032374263,0.0,0.0,0.0,0.0,0.0,0.0,0.0,0.0,0.25729677,0.25729677,4.060832,0.0,0.0,0.0,0.09015238,0.0,0.0,0.0,0.0,0.0,0.00059111003,0.00488407,0.013786001,0.0,0.0,0.0,0.0,0.0,0.0
107824669,0.0,0.0,0.0,0.0006167486,-0.0019675063,0.09041786,0.0,0.0,0.0,0.005292356,0.0,0.0,0.0,0.0,0.0,0.0,0.0,0.0,0.2573257,0.2573257,4.060903,0.0,0.0,0.0,0.09015246,0.0,0.0,0.0,0.0,0.0,0.0004992468,0.0032546562,0.009598061,0.0,0.0,0.0,0.0,0.0,0.0
108032691,0.0,0.0,0.0,0.00086949574,-0.0016339303,-0.16556549,0.0,0.0,0.0,0.0075478554,0.0,0.0,0.0,0.0,0.0,0.0,0.0,0.0,0.25730553,0.25730553,4.0607467,0.0,0.0,0.0,0.09015245,0.0,0.0,0.0,0.0,0.0,0.00066694285,0.00095788005,0.0029272283,0.0,0.0,0.0,0.0,0.0,0.0
108231869,0.0,0.0,0.0,0.0011430102,-0.0012470562,0.17127609,0.0,0.0,0.0,0.035815,0.0,0.0,0.0,0.0,0.0,0.0,0.0,0.0,0.2572736,0.25727364,4.060537,0.0,0.0,0.0,0.09015244,0.0,0.0,0.0,0.0,0.0,0.00040531982,0.0008443355,0.0024833074,0.0,0.0,0.0,0.0,0.0,0.0
108431919,0.0,0.0,0.0,0.001320705,-0.00082551315,0.16189575,0.0,0.0,0.0,0.044502318,0.0,0.0,0.0,0.0,0.0,0.0,0.0,0.0,0.2572358,0.25723583,4.060309,0.0,0.0,0.0,0.09015244,0.0,0.0,0.0,0.0,0.0,4.450972e-05,0.0013754297,0.0039115264,0.0,0.0,0.0,0.0,0.0,0.0
108639877,0.0,0.0,0.0,0.0013631576,-0.0003989634,0.123680115,0.0,0.0,0.0,0.022995293,0.0,0.0,0.0,0.0,0.0,0.0,0.0,0.0,0.25742733,0.25742736,4.061098,0.0,0.0,0.0,0.09015244,0.0,0.0,0.0,0.0,0.0,0.00010755413,0.00052651105,0.0010027229,0.0,0.0,0.0,0.0,0.0,0.0
108839912,0.0,0.0,0.0,0.001324477,-7.059504e-05,-0.26613045,0.0,0.0,0.0,0.005729556,0.0,0.0,0.0,0.0,0.0,0.0,0.0,0.0,100.008026,100.008026,4.0617437,0.0,0.0,0.0,0.09015236,0.0,0.0,0.0,0.0,0.0,0.00019952282,0.0015762825,0.004554151,0.0,0.0,0.0,0.0,0.0,0.0
109047075,0.0,0.0,0.0,0.0014429805,0.00019828316,0.30919647,0.0,0.0,0.0,0.008290827,0.0,0.0,0.0,0.0,0.0,0.0,0.0,0.0,100.01064,100.01064,4.0623946,0.0,0.0,0.0,0.09015234,0.0,0.0,0.0,0.0,0.0,0.00019900585,0.0028691676,0.008816982,0.0,0.0,0.0,0.0,0.0,0.0
109247068,0.0,0.0,0.0,0.001494772,0.00019414884,-0.005340576,0.0,0.0,0.0,-0.0046166778,0.0,0.0,0.0,0.0,0.0,0.0,0.0,0.0,100.013725,100.013725,4.0622606,0.0,0.0,0.0,0.09015237,0.0,0.0,0.0,0.0,0.0,0.000112373025,0.0039117387,0.012215502,0.0,0.0,0.0,0.0,0.0,0.0
109447073,0.0,0.0,0.0,0.0021577135,-0.0018316403,0.434618,0.0,0.0,0.0,-0.024773955,0.0,0.0,0.0,0.0,0.0,0.0,0.0,0.0,100.01758,100.01758,4.0621758,0.0,0.0,0.0,0.09015227,0.0,0.0,0.0,0.0,0.0,0.0003387585,0.0056239185,0.017313799,0.0,0.0,0.0,0.0,0.0,0.0
109654307,0.0,0.0,0.0,0.00048106088,-0.0032198033,0.06100273,0.0,0.0,0.0,0.000559628,0.0,0.0,0.0,0.0,0.0,0.0,0.0,0.0,100.02272,100.02272,4.0618334,0.0,0.0,0.0,0.0901521,0.0,0.0,0.0,0.0,0.0,5.1745697e-05,0.00956197,0.029327592,0.0,0.0,0.0,0.0,0.0,0.0
109854269,0.0,0.0,0.0,-0.00016991766,-0.0040131547,-0.037481308,0.0,0.0,0.0,-0.022776306,0.0,0.0,0.0,0.0,0.0,0.0,0.0,0.0,100.02852,100.02852,4.0617642,0.0,0.0,0.0,0.090152025,0.0,0.0,0.0,0.0,0.0,0.0007189647,0.00418693,0.013912507,0.0,0.0,0.0,0.0,0.0,0.0
110054270,0.0,0.0,0.0,-0.00015742154,-0.003931149,0.03849411,0.0,0.0,0.0,-0.03565061,0.0,0.0,0.0,0.0,0.0,0.0,0.0,0.0,100.03518,100.03518,4.0614057,0.0,0.0,0.0,0.09015187,0.0,0.0,0.0,0.0,0.0,0.00042171284,0.0014051945,0.0053854357,0.0,0.0,0.0,0.0,0.0,0.0
110262269,0.0,0.0,0.0,-0.000585649,-0.004332634,-0.10383606,0.0,0.0,0.0,0.071920455,0.0,0.0,0.0,0.0,0.0,0.0,0.0,0.0,100.0441,100.0441,4.0611577,0.0,0.0,0.0,0.09015187,0.0,0.0,0.0,0.0,0.0,0.00016202207,0.010074877,0.03018386,0.0,0.0,0.0,0.0,0.0,0.0
110461498,0.0,0.0,0.0,0.0006442503,-0.0046758964,0.02785492,0.0,0.0,0.0,-0.018202782,0.0,0.0,0.0,0.0,0.0,0.0,0.0,0.0,100.05388,100.05388,4.061191,0.0,0.0,0.0,0.09015179,0.0,0.0,0.0,0.0,0.0,0.0005378353,0.0067340108,0.021082371,0.0,0.0,0.0,0.0,0.0,0.0
110669475,0.0,0.0,0.0,0.003910265,-0.005608976,0.002937317,0.0,0.0,0.0,-0.009778619,0.0,0.0,0.0,0.0,0.0,0.0,0.0,0.0,100.06478,100.06479,4.0617757,0.0,0.0,0.0,0.09015181,0.0,0.0,0.0,0.0,0.0,0.000614338,0.0038873847,0.012837144,0.0,0.0,0.0,0.0,0.0,0.0
110869476,0.0,0.0,0.0,0.008920934,-0.009486771,-0.15891075,0.0,0.0,0.0,0.040724933,0.0,0.0,0.0,0.0,0.0,0.0,0.0,0.0,100.078354,100.07836,4.0620217,0.0,0.0,0.0,0.09015175,0.0,0.0,0.0,0.0,0.0,0.0002502926,0.00449305,0.014288555,0.0,0.0,0.0,0.0,0.0,0.0
111069490,0.0,0.0,0.0,0.01163638,-0.010927949,-0.17593575,0.0,0.0,0.0,0.0064551234,0.0,0.0,0.0,0.0,0.0,0.0,0.0,0.0,100.09404,100.09405,4.0622454,0.0,0.0,0.0,0.09015176,0.0,0.0,0.0,0.0,0.0,0.0001726296,0.0009808727,0.0035562988,0.0,0.0,0.0,0.0,0.0,0.0
111277496,0.0,0.0,0.0,0.012347334,-0.010163324,-0.29968262,0.0,0.0,0.0,-0.08347005,0.0,0.0,0.0,0.0,0.0,0.0,0.0,0.0,100.11043,100.11043,4.0618243,0.0,0.0,0.0,0.09015176,0.0,0.0,0.0,0.0,0.0,0.0003882218,0.009454184,0.028606761,0.0,0.0,0.0,0.0,0.0,0.0
111476669,0.0,0.0,0.0,0.014133192,-0.0103828,1.0596104,0.0,0.0,0.0,-0.09588206,0.0,0.0,0.0,0.0,0.0,0.0,0.0,0.0,100.131256,100.131256,4.0615077,0.0,0.0,0.0,0.09015168,0.0,0.0,0.0,0.0,0.0,0.00065971044,0.0027567586,0.0052669756,0.0,0.0,0.0,0.0,0.0,0.0
111676669,0.0,0.0,0.0,0.018110132,-0.012298733,0.25941086,0.0,0.0,0.0,-0.030988634,0.0,0.0,0.0,0.0,0.0,0.0,0.0,0.0,100.151855,100.15186,4.0611277,0.0,0.0,0.0,0.090151705,0.0,0.0,0.0,0.0,0.0,0.0003248684,0.0025921725,0.0060162065,0.0,0.0,0.0,0.0,0.0,0.0
111884669,0.0,0.0,0.0,0.024096178,-0.015508588,0.053850174,0.0,0.0,0.0,-0.02076006,0.0,0.0,0.0,0.0,0.0,0.0,0.0,0.0,100.17783,100.17785,4.061784,0.0,0.0,0.0,0.09015178,0.0,0.0,0.0,0.0,0.0,0.000103733386,0.00048886106,0.0012064544,0.0,0.0,0.0,0.0,0.0,0.0
112083116,0.0,0.0,0.0,0.029731603,-0.020601826,-0.56964684,0.0,0.0,0.0,-0.041608095,0.0,0.0,0.0,0.0,0.0,0.0,0.0,0.0,100.20282,100.202835,4.06142,0.0,0.0,0.0,0.090151794,0.0,0.0,0.0,0.0,0.0,1.7708677e-05,0.0063319327,0.018802507,0.0,0.0,0.0,0.0,0.0,0.0
112291884,0.0,0.0,0.0,0.037949633,-0.025433889,-0.03334427,0.0,0.0,0.0,-0.046054006,0.0,0.0,0.0,0.0,0.0,0.0,0.0,0.0,100.233765,100.23377,4.0620346,0.0,0.0,0.0,0.09015182,0.0,0.0,0.0,0.0,0.0,7.356696e-05,0.010771476,0.033138864,0.0,0.0,0.0,0.0,0.0,0.0
112491868,0.0,0.0,0.0,0.047719732,-0.026868949,0.18155098,0.0,0.0,0.0,-0.056484163,0.0,0.0,0.0,0.0,0.0,0.0,0.0,0.0,100.26308,100.26309,4.061648,0.0,0.0,0.0,0.090151824,0.0,0.0,0.0,0.0,0.0,7.9551006e-05,0.013567097,0.042857196,0.0,0.0,0.0,0.0,0.0,0.0
112691875,0.0,0.0,0.0,0.060507912,-0.029124893,-0.003932953,0.0,0.0,0.0,-0.002331674,0.0,0.0,0.0,0.0,0.0,0.0,0.0,0.0,100.296036,100.29606,4.0616426,0.0,0.0,0.0,0.09015176,0.0,0.0,0.0,0.0,0.0,0.00041596094,0.011600369,0.038142253,0.0,0.0,0.0,0.0,0.0,0.0
112899076,0.0,0.0,0.0,0.07622073,-0.033758607,-0.53310204,0.0,0.0,0.0,-0.010184348,0.0,0.0,0.0,0.0,0.0,0.0,0.0,0.0,100.33169,100.33172,4.062473,0.0,0.0,0.0,0.090151764,0.0,0.0,0.0,0.0,0.0,0.0005114505,0.016193943,0.05202728,0.0,0.0,0.0,0.0,0.0,0.0
113099076,0.0,0.0,0.0,0.0936323,-0.04037832,-0.14853859,0.0,0.0,0.0,-0.021325886,0.0,0.0,0.0,0.0,0.0,0.0,0.0,0.0,100.37075,100.37078,4.062045,0.0,0.0,0.0,0.09015177,0.0,0.0,0.0,0.0,0.0,0.0004196149,0.013235154,0.04374512,0.0,0.0,0.0,0.0,0.0,0.0
113307126,0.0,0.0,0.0,0.1102388,-0.047006022,-0.15172005,0.0,0.0,0.0,-0.033949852,0.0,0.0,0.0,0.0,0.0,0.0,0.0,0.0,100.40871,100.40874,4.0619497,0.0,0.0,0.0,0.09015162,0.0,0.0,0.0,0.0,0.0,0.00056574587,0.016187688,0.052368086,0.0,0.0,0.0,0.0,0.0,0.0
113507068,0.0,0.0,0.0,0.12445907,-0.05240608,-0.032131195,0.0,0.0,0.0,-0.026608348,0.0,0.0,0.0,0.0,0.0,0.0,0.0,0.0,100.44551,100.44555,4.061553,0.0,0.0,0.0,0.09015163,0.0,0.0,0.0,0.0,0.0,0.0003826442,0.0105207665,0.03575186,0.0,0.0,0.0,0.0,0.0,0.0
113710319,0.0,0.0,0.0,0.13814484,-0.057490826,-0.24510574,0.0,0.0,0.0,-0.037872195,0.0,0.0,0.0,0.0,0.0,0.0,0.0,0.0,100.48832,100.488365,4.0619645,0.0,0.0,0.0,0.09015166,0.0,0.0,0.0,0.0,0.0,0.00052594615,0.009519641,0.030693403,0.0,0.0,0.0,0.0,0.0,0.0
113910269,0.0,0.0,0.0,0.14901266,-0.061519794,-0.18672943,0.0,0.0,0.0,-0.11117059,0.0,0.0,0.0,0.0,0.0,0.0,0.0,0.0,100.52787,100.527916,4.061891,0.0,0.0,0.0,0.090151675,0.0,0.0,0.0,0.0,0.0,0.00050189364,0.0045357137,0.015542304,0.0,0.0,0.0,0.0,0.0,0.0
114110303,0.0,0.0,0.0,0.15733773,-0.06414863,-0.20911217,0.0,0.0,0.0,-0.05283314,0.0,0.0,0.0,0.0,0.0,0.0,0.0,0.0,100.56429,100.56434,4.061504,0.0,0.0,0.0,0.09015153,0.0,0.0,0.0,0.0,0.0,0.0008386729,0.0039147697,0.013294677,0.0,0.0,0.0,0.0,0.0,0.0
114309487,0.0,0.0,0.0,0.1654727,-0.06655257,-0.2940464,0.0,0.0,0.0,0.026487648,0.0,0.0,0.0,0.0,0.0,0.0,0.0,0.0,100.60482,100.60487,4.0612383,0.0,0.0,0.0,0.09015163,0.0,0.0,0.0,0.0,0.0,0.00087709783,0.006177273,0.019167887,0.0,0.0,0.0,0.0,0.0,0.0
114517469,0.0,0.0,0.0,0.17129974,-0.0683751,0.042217255,0.0,0.0,0.0,0.018465757,0.0,0.0,0.0,0.0,0.0,0.0,0.0,0.0,100.642166,100.64222,4.061222,0.0,0.0,0.0,0.09015172,0.0,0.0,0.0,0.0,0.0,0.00065669575,0.0035040253,0.011338807,0.0,0.0,0.0,0.0,0.0,0.0
114717469,0.0,0.0,0.0,0.17580137,-0.06893913,0.55916977,0.0,0.0,0.0,-0.042570114,0.0,0.0,0.0,0.0,0.0,0.0,0.0,0.0,100.67678,100.67684,4.0606904,0.0,0.0,0.0,0.09015174,0.0,0.0,0.0,0.0,0.0,0.00062575395,0.003876254,0.013462957,0.0,0.0,0.0,0.0,0.0,0.0
114917469,0.0,0.0,0.0,0.18031977,-0.069260165,-0.26404572,0.0,0.0,0.0,-0.03510517,0.0,0.0,0.0,0.0,0.0,0.0,0.0,0.0,100.71505,100.7151,4.061636,0.0,0.0,0.0,0.09015175,0.0,0.0,0.0,0.0,0.0,0.00075107376,0.0072968462,0.02384191,0.0,0.0,0.0,0.0,0.0,0.0
115120675,0.0,0.0,0.0,0.18384644,-0.06886717,-0.06285477,0.0,0.0,0.0,0.044720232,0.0,0.0,0.0,0.0,0.0,0.0,0.0,0.0,100.74871,100.74877,4.062173,0.0,0.0,0.0,0.090151764,0.0,0.0,0.0,0.0,0.0,0.00056162593,0.0052062613,0.01861412,0.0,0.0,0.0,0.0,0.0,0.0
115320669,0.0,0.0,0.0,0.1854698,-0.068084694,0.32388306,0.0,0.0,0.0,-0.023440778,0.0,0.0,0.0,0.0,0.0,0.0,0.0,0.0,100.776245,100.77631,4.0618677,0.0,0.0,0.0,0.09015171,0.0,0.0,0.0,0.0,0.0,0.00067680265,0.0052539343,0.019301198,0.0,0.0,0.0,0.0,0.0,0.0
115528670,0.0,0.0,0.0,0.18593563,-0.06732094,0.015768051,0.0,0.0,0.0,-0.011347592,0.0,0.0,0.0,0.0,0.0,0.0,0.0,0.0,100.80385,100.80392,4.061528,0.0,0.0,0.0,0.09015173,0.0,0.0,0.0,0.0,0.0,0.0006579301,0.0036421702,0.01419443,0.0,0.0,0.0,0.0,0.0,0.0
115728669,0.0,0.0,0.0,0.18713887,-0.065435566,-0.17783165,0.0,0.0,0.0,-0.0065954924,0.0,0.0,0.0,0.0,0.0,0.0,0.0,0.0,100.832115,100.83218,4.0620847,0.0,0.0,0.0,0.09015174,0.0,0.0,0.0,0.0,0.0,0.00073261675,0.002422081,0.009569931,0.0,0.0,0.0,0.0,0.0,0.0
115935868,0.0,0.0,0.0,0.18539956,-0.060879987,-0.060266495,0.0,0.0,0.0,-0.0008664727,0.0,0.0,0.0,0.0,0.0,0.0,0.0,0.0,100.85402,100.85408,4.061695,0.0,0.0,0.0,0.09015175,0.0,0.0,0.0,0.0,0.0,0.00070624944,0.003187046,0.0118435845,0.0,0.0,0.0,0.0,0.0,0.0
116135874,0.0,0.0,0.0,0.18264295,-0.05564008,-0.20922852,0.0,0.0,0.0,-0.04010099,0.0,0.0,0.0,0.0,0.0,0.0,0.0,0.0,100.874214,100.87428,4.061657,0.0,0.0,0.0,0.09015168,0.0,0.0,0.0,0.0,0.0,0.00037987847,0.0025620474,0.01027052,0.0,0.0,0.0,0.0,0.0,0.0
116335887,0.0,0.0,0.0,0.17964078,-0.049674578,0.3325405,0.0,0.0,0.0,-0.052986085,0.0,0.0,0.0,0.0,0.0,0.0,0.0,0.0,100.895805,100.89587,4.061953,0.0,0.0,0.0,0.09015169,0.0,0.0,0.0,0.0,0.0,0.00069523306,0.0028053606,0.010703286,0.0,0.0,0.0,0.0,0.0,0.0
116543069,0.0,0.0,0.0,0.17501791,-0.042446483,-0.21696854,0.0,0.0,0.0,-0.039438665,0.0,0.0,0.0,0.0,0.0,0.0,0.0,0.0,100.915016,100.91507,4.0622096,0.0,0.0,0.0,0.09015178,0.0,0.0,0.0,0.0,0.0,0.00075585034,0.0025218832,0.009774135,0.0,0.0,0.0,0.0,0.0,0.0
116743068,0.0,0.0,0.0,0.1686441,-0.034572843,0.10889244,0.0,0.0,0.0,-0.030400395,0.0,0.0,0.0,0.0,0.0,0.0,0.0,0.0,100.927895,100.92795,4.0620418,0.0,0.0,0.0,0.09015189,0.0,0.0,0.0,0.0,0.0,0.000979815,0.005385979,0.017209144,0.0,0.0,0.0,0.0,0.0,0.0
116951069,0.0,0.0,0.0,0.16169469,-0.025947193,0.13860703,0.0,0.0,0.0,0.0058047175,0.0,0.0,0.0,0.0,0.0,0.0,0.0,0.0,100.93944,100.9395,4.0619507,0.0,0.0,0.0,0.09015188,0.0,0.0,0.0,0.0,0.0,0.0007429633,0.008818854,0.027421862,0.0,0.0,0.0,0.0,0.0,0.0
117151097,0.0,0.0,0.0,0.15348743,-0.017466586,0.1659298,0.0,0.0,0.0,-0.045883596,0.0,0.0,0.0,0.0,0.0,0.0,0.0,0.0,100.94589,100.945946,4.061558,0.0,0.0,0.0,0.090151824,0.0,0.0,0.0,0.0,0.0,0.00046626935,0.007428409,0.02405384,0.0,0.0,0.0,0.0,0.0,0.0
117351069,0.0,0.0,0.0,0.14372413,-0.0077505056,0.1659813,0.0,0.0,0.0,-0.046132565,0.0,0.0,0.0,0.0,0.0,0.0,0.0,0.0,100.95456,100.95461,4.06154,0.0,0.0,0.0,0.09015176,0.0,0.0,0.0,0.0,0.0,0.00065295724,0.012592629,0.03968084,0.0,0.0,0.0,0.0,0.0,0.0
117558274,0.0,0.0,0.0,0.13093483,0.0047686407,-0.20862007,0.0,0.0,0.0,-0.009784579,0.0,0.0,0.0,0.0,0.0,0.0,0.0,0.0,100.95976,100.95981,4.0612674,0.0,0.0,0.0,0.090151675,0.0,0.0,0.0,0.0,0.0,0.0006348156,0.0047727483,0.01723345,0.0,0.0,0.0,0.0,0.0,0.0
117758269,0.0,0.0,0.0,0.11812504,0.017682921,0.18742752,0.0,0.0,0.0,-0.06283969,0.0,0.0,0.0,0.0,0.0,0.0,0.0,0.0,100.96888,100.968925,4.0615745,0.0,0.0,0.0,0.090151615,0.0,0.0,0.0,0.0,0.0,0.00083624775,0.0037870435,0.01317366,0.0,0.0,0.0,0.0,0.0,0.0
117966269,0.0,0.0,0.0,0.105879754,0.030225493,-0.20761299,0.0,0.0,0.0,-0.15038013,0.0,0.0,0.0,0.0,0.0,0.0,0.0,0.0,100.98596,100.98601,4.062764,0.0,0.0,0.0,0.09015171,0.0,0.0,0.0,0.0,0.0,0.0008693613,0.0057462943,0.018570622,0.0,0.0,0.0,0.0,0.0,0.0
118165469,0.0,0.0,0.0,0.09299416,0.0411095,-0.024728775,0.0,0.0,0.0,0.065378964,0.0,0.0,0.0,0.0,0.0,0.0,0.0,0.0,100.98487,100.98491,4.0622334,0.0,0.0,0.0,0.09015172,0.0,0.0,0.0,0.0,0.0,0.0004701794,0.0019186073,0.007006293,0.0,0.0,0.0,0.0,0.0,0.0
118365469,0.0,0.0,0.0,0.07987762,0.0512186,0.05478859,0.0,0.0,0.0,-0.057193875,0.0,0.0,0.0,0.0,0.0,0.0,0.0,0.0,100.98358,100.98362,4.061784,0.0,0.0,0.0,0.090151735,0.0,0.0,0.0,0.0,0.0,0.0006415959,0.002192742,0.008366363,0.0,0.0,0.0,0.0,0.0,0.0
118573469,0.0,0.0,0.0,0.06557702,0.061845243,0.11190033,0.0,0.0,0.0,-0.027244091,0.0,0.0,0.0,0.0,0.0,0.0,0.0,0.0,100.99219,100.99222,4.0623565,0.0,0.0,0.0,0.09015174,0.0,0.0,0.0,0.0,0.0,0.0007973668,0.010281025,0.03125161,0.0,0.0,0.0,0.0,0.0,0.0
118773500,0.0,0.0,0.0,0.052065212,0.07090326,0.34874535,0.0,0.0,0.0,-0.046625733,0.0,0.0,0.0,0.0,0.0,0.0,0.0,0.0,100.992905,100.992935,4.062218,0.0,0.0,0.0,0.09015176,0.0,0.0,0.0,0.0,0.0,0.0007951675,0.0082529215,0.02663524,0.0,0.0,0.0,0.0,0.0,0.0
118976675,0.0,0.0,0.0,0.037348397,0.07930845,0.13227081,0.0,0.0,0.0,-0.033569515,0.0,0.0,0.0,0.0,0.0,0.0,0.0,0.0,100.98858,100.98861,4.0616593,0.0,0.0,0.0,0.0901517,0.0,0.0,0.0,0.0,0.0,0.00081658235,0.007714247,0.026506918,0.0,0.0,0.0,0.0,0.0,0.0
119184675,0.0,0.0,0.0,0.024451282,0.0870965,0.09594536,0.0,0.0,0.0,-0.05766225,0.0,0.0,0.0,0.0,0.0,0.0,0.0,0.0,100.9924,100.99243,4.06195,0.0,0.0,0.0,0.09015162,0.0,0.0,0.0,0.0,0.0,0.00094590476,0.004673482,0.017238297,0.0,0.0,0.0,0.0,0.0,0.0
119384717,0.0,0.0,0.0,0.0138331065,0.093364805,-0.06287575,0.0,0.0,0.0,-0.07694304,0.0,0.0,0.0,0.0,0.0,0.0,0.0,0.0,101.001015,101.00104,4.062716,0.0,0.0,0.0,0.09015164,0.0,0.0,0.0,0.0,0.0,0.0008214042,0.0030502672,0.012755398,0.0,0.0,0.0,0.0,0.0,0.0
119583887,0.0,0.0,0.0,-0.00038858573,0.09943561,0.16827393,0.0,0.0,0.0,-0.020839095,0.0,0.0,0.0,0.0,0.0,0.0,0.0,0.0,101.00026,101.00028,4.062544,0.0,0.0,0.0,0.09015166,0.0,0.0,0.0,0.0,0.0,0.00089338335,0.006509868,0.021504669,0.0,0.0,0.0,0.0,0.0,0.0
119791892,0.0,0.0,0.0,-0.012288453,0.10438351,0.1745205,0.0,0.0,0.0,-0.025381744,0.0,0.0,0.0,0.0,0.0,0.0,0.0,0.0,100.99867,100.99869,4.0623465,0.0,0.0,0.0,0.090151675,0.0,0.0,0.0,0.0,0.0,0.0005505622,0.0046928925,0.01714668,0.0,0.0,0.0,0.0,0.0,0.0
119991868,0.0,0.0,0.0,-0.024281591,0.10970719,0.2588997,0.0,0.0,0.0,-0.013391256,0.0,0.0,0.0,0.0,0.0,0.0,0.0,0.0,101.000824,101.00084,4.0625277,0.0,0.0,0.0,0.09015168,0.0,0.0,0.0,0.0,0.0,0.0008072997,0.004380004,0.01704904,0.0,0.0,0.0,0.0,0.0,0.0
120191875,0.0,0.0,0.0,-0.035899337,0.11359145,-0.14036942,0.0,0.0,0.0,-0.09253329,0.0,0.0,0.0,0.0,0.0,0.0,0.0,0.0,100.99585,100.995865,4.0620236,0.0,0.0,0.0,0.09015179,0.0,0.0,0.0,0.0,0.0,0.0007024202,0.0038065964,0.016646346,0.0,0.0,0.0,0.0,0.0,0.0
120399069,0.0,0.0,0.0,-0.04991716,0.11927582,0.44442558,0.0,0.0,0.0,-0.054217637,0.0,0.0,0.0,0.0,0.0,0.0,0.0,0.0,101.001465,101.00148,4.06255,0.0,0.0,0.0,0.09015188,0.0,0.0,0.0,0.0,0.0,0.00095449743,0.0046133865,0.017631045,0.0,0.0,0.0,0.0,0.0,0.0
120599069,0.0,0.0,0.0,-0.062068135,0.12392195,0.195961,0.0,0.0,0.0,0.040578127,0.0,0.0,0.0,0.0,0.0,0.0,0.0,0.0,101.00601,101.00603,4.0629663,0.0,0.0,0.0,0.09015181,0.0,0.0,0.0,0.0,0.0,0.00022586183,0.003336322,0.0150413215,0.0,0.0,0.0,0.0,0.0,0.0
120799075,0.0,0.0,0.0,-0.0744784,0.12750489,0.14178467,0.0,0.0,0.0,-0.051761866,0.0,0.0,0.0,0.0,0.0,0.0,0.0,0.0,101.00408,101.00409,4.0627265,0.0,0.0,0.0,0.090151735,0.0,0.0,0.0,0.0,0.0,0.00046091585,0.0048078373,0.018529441,0.0,0.0,0.0,0.0,0.0,0.0
121007075,0.0,0.0,0.0,-0.086016394,0.13069879,0.18852425,0.0,0.0,0.0,-0.03622967,0.0,0.0,0.0,0.0,0.0,0.0,0.0,0.0,101.00239,101.0024,4.062513,0.0,0.0,0.0,0.09015166,0.0,0.0,0.0,0.0,0.0,0.00022758654,0.0036903874,0.01614383,0.0,0.0,0.0,0.0,0.0,0.0
121206275,0.0,0.0,0.0,-0.096946165,0.133342,-0.042642593,0.0,0.0,0.0,-0.01772499,0.0,0.0,0.0,0.0,0.0,0.0,0.0,0.0,101.00444,101.004456,4.062655,0.0,0.0,0.0,0.0901516,0.0,0.0,0.0,0.0,0.0,0.0008162989,0.0051559843,0.019554965,0.0,0.0,0.0,0.0,0.0,0.0
121414275,0.0,0.0,0.0,-0.10709402,0.13532633,-0.034137726,0.0,0.0,0.0,-0.01798606,0.0,0.0,0.0,0.0,0.0,0.0,0.0,0.0,100.9998,100.99982,4.062147,0.0,0.0,0.0,0.09015152,0.0,0.0,0.0,0.0,0.0,0.00072182505,0.003930596,0.017321128,0.0,0.0,0.0,0.0,0.0,0.0
121614269,0.0,0.0,0.0,-0.11656227,0.13749091,0.08171463,0.0,0.0,0.0,-0.00012630224,0.0,0.0,0.0,0.0,0.0,0.0,0.0,0.0,100.99896,100.99897,4.0620165,0.0,0.0,0.0,0.09015153,0.0,0.0,0.0,0.0,0.0,0.00061510777,0.0051617357,0.019931952,0.0,0.0,0.0,0.0,0.0,0.0
121813469,0.0,0.0,0.0,-0.1256773,0.13925107,0.0013751984,0.0,0.0,0.0,-0.079355,0.0,0.0,0.0,0.0,0.0,0.0,0.0,0.0,100.99501,100.99502,4.061588,0.0,0.0,0.0,0.090151556,0.0,0.0,0.0,0.0,0.0,0.0011016396,0.0043687522,0.017762877,0.0,0.0,0.0,0.0,0.0,0.0
122021469,0.0,0.0,0.0,-0.13689302,0.14359671,0.36935043,0.0,0.0,0.0,-0.0651387,0.0,0.0,0.0,0.0,0.0,0.0,0.0,0.0,101.00776,101.00777,4.06274,0.0,0.0,0.0,0.090151645,0.0,0.0,0.0,0.0,0.0,0.0013487795,0.006092416,0.022052713,0.0,0.0,0.0,0.0,0.0,0.0
122221469,0.0,0.0,0.0,-0.14336729,0.14579059,0.19917488,0.0,0.0,0.0,-0.08303094,0.0,0.0,0.0,0.0,0.0,0.0,0.0,0.0,101.006714,101.00672,4.0625157,0.0,0.0,0.0,0.09015167,0.0,0.0,0.0,0.0,0.0,0.0014108283,0.0034476041,0.015523212,0.0,0.0,0.0,0.0,0.0,0.0
122421469,0.0,0.0,0.0,-0.1484821,0.14738846,0.19426918,0.0,0.0,0.0,-0.051400423,0.0,0.0,0.0,0.0,0.0,0.0,0.0,0.0,101.00626,101.00626,4.062346,0.0,0.0,0.0,0.09015159,0.0,0.0,0.0,0.0,0.0,0.0011544274,0.003680608,0.015456957,0.0,0.0,0.0,0.0,0.0,0.0
122628707,0.0,0.0,0.0,-0.15367706,0.1486347,-0.2289486,0.0,0.0,0.0,0.015765667,0.0,0.0,0.0,0.0,0.0,0.0,0.0,0.0,101.00346,101.00347,4.061945,0.0,0.0,0.0,0.09015161,0.0,0.0,0.0,0.0,0.0,0.0006849611,0.0037823392,0.016134594,0.0,0.0,0.0,0.0,0.0,0.0
122828669,0.0,0.0,0.0,-0.15941106,0.15028487,0.024082184,0.0,0.0,0.0,-0.008385122,0.0,0.0,0.0,0.0,0.0,0.0,0.0,0.0,101.00361,101.00362,4.0618405,0.0,0.0,0.0,0.0901517,0.0,0.0,0.0,0.0,0.0,0.0007434766,0.0037924796,0.016062692,0.0,0.0,0.0,0.0,0.0,0.0
123028675,0.0,0.0,0.0,-0.16527744,0.15190536,0.33669662,0.0,0.0,0.0,-0.04318255,0.0,0.0,0.0,0.0,0.0,0.0,0.0,0.0,101.00667,101.00667,4.061996,0.0,0.0,0.0,0.09015171,0.0,0.0,0.0,0.0,0.0,0.000707591,0.0043130433,0.016547339,0.0,0.0,0.0,0.0,0.0,0.0
123236675,0.0,0.0,0.0,-0.17147166,0.15242562,0.0368824,0.0,0.0,0.0,-0.14518982,0.0,0.0,0.0,0.0,0.0,0.0,0.0,0.0,101.0045,101.0045,4.0616307,0.0,0.0,0.0,0.09015172,0.0,0.0,0.0,0.0,0.0,0.00085803773,0.0031704064,0.013888239,0.0,0.0,0.0,0.0,0.0,0.0
123439869,0.0,0.0,0.0,-0.17655258,0.15197316,0.45606804,0.0,0.0,0.0,-0.03917092,0.0,0.0,0.0,0.0,0.0,0.0,0.0,0.0,101.00164,101.00164,4.061224,0.0,0.0,0.0,0.090151824,0.0,0.0,0.0,0.0,0.0,0.00080962514,0.00300891,0.013035112,0.0,0.0,0.0,0.0,0.0,0.0
123639869,0.0,0.0,0.0,-0.18505381,0.15119137,0.20281982,0.0,0.0,0.0,0.022080362,0.0,0.0,0.0,0.0,0.0,0.0,0.0,0.0,101.00237,101.00237,4.061131,0.0,0.0,0.0,0.09015176,0.0,0.0,0.0,0.0,0.0,0.00082039204,0.00341688,0.014143507,0.0,0.0,0.0,0.0,0.0,0.0
123839915,0.0,0.0,0.0,-0.19083385,0.15395936,0.07594681,0.0,0.0,0.0,0.024455428,0.0,0.0,0.0,0.0,0.0,0.0,0.0,0.0,101.0106,101.010605,4.0617437,0.0,0.0,0.0,0.09015178,0.0,0.0,0.0,0.0,0.0,0.00038000822,0.005101559,0.017156536,0.0,0.0,0.0,0.0,0.0,0.0
124039075,0.0,0.0,0.0,-0.18506412,0.16574156,-0.106227875,0.0,0.0,0.0,-0.031895936,0.0,0.0,0.0,0.0,0.0,0.0,0.0,0.0,101.01567,101.01567,4.0620146,0.0,0.0,0.0,0.09015178,0.0,0.0,0.0,0.0,0.0,0.000607769,0.0058613843,0.019987723,0.0,0.0,0.0,0.0,0.0,0.0
124239076,0.0,0.0,0.0,-0.16179714,0.19289245,-0.19478798,0.0,0.0,0.0,-0.005250454,0.0,0.0,0.0,0.0,0.0,0.0,0.0,0.0,101.02332,101.02332,4.062512,0.0,0.0,0.0,0.090151794,0.0,0.0,0.0,0.0,0.0,0.0006153798,0.0031524259,0.012218839,0.0,0.0,0.0,0.0,0.0,0.0
124447076,0.0,0.0,0.0,-0.11905011,0.23773205,0.031173706,0.0,0.0,0.0,-0.03202343,0.0,0.0,0.0,0.0,0.0,0.0,0.0,0.0,101.031,101.03099,4.062939,0.0,0.0,0.0,0.09015173,0.0,0.0,0.0,0.0,0.0,0.00048816937,0.0053529907,0.018638194,0.0,0.0,0.0,0.0,0.0,0.0
124647093,0.0,0.0,0.0,-0.07718735,0.2777207,0.06697464,0.0,0.0,0.0,0.0021528006,0.0,0.0,0.0,0.0,0.0,0.0,0.0,0.0,101.02781,101.0278,4.0624,0.0,0.0,0.0,0.09015173,0.0,0.0,0.0,0.0,0.0,0.0007316576,0.0027327547,0.013094239,0.0,0.0,0.0,0.0,0.0,0.0
124854268,0.0,0.0,0.0,-0.040406074,0.31800386,0.13706017,0.0,0.0,0.0,-0.049147666,0.0,0.0,0.0,0.0,0.0,0.0,0.0,0.0,101.03892,101.0389,4.0631585,0.0,0.0,0.0,0.090151735,0.0,0.0,0.0,0.0,0.0,0.0009895023,0.005794422,0.020051634,0.0,0.0,0.0,0.0,0.0,0.0
125054269,0.0,0.0,0.0,-0.00828555,0.35268754,0.14650917,0.0,0.0,0.0,-0.17985517,0.0,0.0,0.0,0.0,0.0,0.0,0.0,0.0,101.04632,101.046295,4.063523,0.0,0.0,0.0,0.09015167,0.0,0.0,0.0,0.0,0.0,0.0015001701,0.0050897086,0.022225227,0.0,0.0,0.0,0.0,0.0,0.0
125254275,0.0,0.0,0.0,0.0069097253,0.36926538,0.07426453,0.0,0.0,0.0,-0.13266003,0.0,0.0,0.0,0.0,0.0,0.0,0.0,0.0,101.04617,101.04615,4.06322,0.0,0.0,0.0,0.09015168,0.0,0.0,0.0,0.0,0.0,0.0018033012,0.0067487257,0.028671958,0.0,0.0,0.0,0.0,0.0,0.0
125454269,0.0,0.0,0.0,-0.0024107932,0.36277506,-0.22167015,0.0,0.0,0.0,-0.17272455,0.0,0.0,0.0,0.0,0.0,0.0,0.0,0.0,101.04641,101.04639,4.06298,0.0,0.0,0.0,0.09015169,0.0,0.0,0.0,0.0,0.0,0.0026466628,0.0062301606,0.027254159,0.0,0.0,0.0,0.0,0.0,0.0
125661469,0.0,0.0,0.0,-0.04022681,0.329117,0.01490593,0.0,0.0,0.0,-0.04883778,0.0,0.0,0.0,0.0,0.0,0.0,0.0,0.0,101.04668,101.04665,4.0627427,0.0,0.0,0.0,0.0901517,0.0,0.0,0.0,0.0,0.0,0.0026351847,0.009236011,0.032256752,0.0,0.0,0.0,0.0,0.0,0.0
125861480,0.0,0.0,0.0,-0.099696964,0.2741643,0.13792229,0.0,0.0,0.0,-0.124447346,0.0,0.0,0.0,0.0,0.0,0.0,0.0,0.0,101.04306,101.04305,4.0621996,0.0,0.0,0.0,0.09015169,0.0,0.0,0.0,0.0,0.0,0.002529616,0.005808686,0.02041247,0.0,0.0,0.0,0.0,0.0,0.0
126061503,0.0,0.0,0.0,-0.1897226,0.19081172,-0.11471939,0.0,0.0,0.0,-0.14227736,0.0,0.0,0.0,0.0,0.0,0.0,0.0,0.0,101.04122,101.04123,4.0618105,0.0,0.0,0.0,0.09015161,0.0,0.0,0.0,0.0,0.0,0.002773289,0.004636664,0.01356386,0.0,0.0,0.0,0.0,0.0,0.0
126259082,0.0,0.0,0.0,-0.28593302,0.1006732,0.24497032,0.0,0.0,0.0,-0.06769681,0.0,0.0,0.0,0.0,0.0,0.0,0.0,0.0,101.03875,101.03877,4.0614104,0.0,0.0,0.0,0.09015169,0.0,0.0,0.0,0.0,0.0,0.00268936,0.0042158226,0.012915563,0.0,0.0,0.0,0.0,0.0,0.0
126468675,0.0,0.0,0.0,-0.41102192,-0.013920495,0.16169548,0.0,0.0,0.0,-0.15809077,0.0,0.0,0.0,0.0,0.0,0.0,0.0,0.0,101.04733,101.04737,4.061951,0.0,0.0,0.0,0.09015187,0.0,0.0,0.0,0.0,0.0,0.0028735732,0.0074788462,0.028942827,0.0,0.0,0.0,0.0,0.0,0.0
126668669,0.0,0.0,0.0,-0.53611827,-0.13132799,-0.28032875,0.0,0.0,0.0,-0.03609079,0.0,0.0,0.0,0.0,0.0,0.0,0.0,0.0,101.04842,101.04849,4.0618696,0.0,0.0,0.0,0.09015179,0.0,0.0,0.0,0.0,0.0,0.0024083396,0.011731374,0.0480054,0.0,0.0,0.0,0.0,0.0,0.0
126876668,0.0,0.0,0.0,-0.6809528,-0.26655844,-0.20920753,0.0,0.0,0.0,-0.06559032,0.0,0.0,0.0,0.0,0.0,0.0,0.0,0.0,101.05353,101.05361,4.0621257,0.0,0.0,0.0,0.09015177,0.0,0.0,0.0,0.0,0.0,0.0024601326,0.015537893,0.064826235,0.0,0.0,0.0,0.0,0.0,0.0
127075869,0.0,0.0,0.0,-0.8306691,-0.40884593,-0.08997154,0.0,0.0,0.0,-0.17381299,0.0,0.0,0.0,0.0,0.0,0.0,0.0,0.0,101.054375,101.05449,4.0620193,0.0,0.0,0.0,0.09015169,0.0,0.0,0.0,0.0,0.0,0.0026646848,0.019918595,0.08568178,0.0,0.0,0.0,0.0,0.0,0.0
127275890,0.0,0.0,0.0,-0.9757787,-0.54830337,-0.22620392,0.0,0.0,0.0,-0.0036858916,0.0,0.0,0.0,0.0,0.0,0.0,0.0,0.0,101.05096,101.0511,4.0615726,0.0,0.0,0.0,0.09015168,0.0,0.0,0.0,0.0,0.0,0.0019344807,0.023259087,0.10546434,0.0,0.0,0.0,0.0,0.0,0.0
127483868,0.0,0.0,0.0,-1.1326696,-0.6966776,0.0062656403,0.0,0.0,0.0,-0.052369475,0.0,0.0,0.0,0.0,0.0,0.0,0.0,0.0,101.05609,101.05627,4.0618687,0.0,0.0,0.0,0.090151705,0.0,0.0,0.0,0.0,0.0,0.0011634458,0.026426451,0.12011436,0.0,0.0,0.0,0.0,0.0,0.0
127683869,0.0,0.0,0.0,-1.268508,-0.8244823,0.4597454,0.0,0.0,0.0,0.041143835,0.0,0.0,0.0,0.0,0.0,0.0,0.0,0.0,101.06758,101.06779,4.0626974,0.0,0.0,0.0,0.09015171,0.0,0.0,0.0,0.0,0.0,0.00075567485,0.030745994,0.13325362,0.0,0.0,0.0,0.0,0.0,0.0
127891093,0.0,0.0,0.0,-1.3700405,-0.9271237,0.034158707,0.0,0.0,0.0,-0.021625876,0.0,0.0,0.0,0.0,0.0,0.0,0.0,0.0,101.064354,101.06458,4.0622497,0.0,0.0,0.0,0.09015171,0.0,0.0,0.0,0.0,0.0,0.00084699446,0.037073843,0.16042693,0.0,0.0,0.0,0.0,0.0,0.0
128091117,0.0,0.0,0.0,-1.4353285,-0.99669296,-0.18764305,0.0,0.0,0.0,-0.031114042,0.0,0.0,0.0,0.0,0.0,0.0,0.0,0.0,101.060265,101.06051,4.0617723,0.0,0.0,0.0,0.09015163,0.0,0.0,0.0,0.0,0.0,0.000955878,0.038421474,0.16665708,0.0,0.0,0.0,0.0,0.0,0.0
128291075,0.0,0.0,0.0,-1.496476,-1.0611045,0.19105148,0.0,0.0,0.0,-0.018909514,0.0,0.0,0.0,0.0,0.0,0.0,0.0,0.0,101.06769,101.06794,4.062286,0.0,0.0,0.0,0.090151556,0.0,0.0,0.0,0.0,0.0,0.0008632909,0.035460725,0.1534066,0.0,0.0,0.0,0.0,0.0,0.0
128489507,0.0,0.0,0.0,-1.5205072,-1.1153382,0.19002724,0.0,0.0,0.0,0.010667264,0.0,0.0,0.0,0.0,0.0,0.0,0.0,0.0,101.06762,101.06787,4.06216,0.0,0.0,0.0,0.09015157,0.0,0.0,0.0,0.0,0.0,0.00090697425,0.035957277,0.15491103,0.0,0.0,0.0,0.0,0.0,0.0
128694277,0.0,0.0,0.0,-1.5033289,-1.183369,0.14623833,0.0,0.0,0.0,-0.13442194,0.0,0.0,0.0,0.0,0.0,0.0,0.0,0.0,101.06618,101.06641,4.0619216,0.0,0.0,0.0,0.09015148,0.0,0.0,0.0,0.0,0.0,0.0011299289,0.039611705,0.17042589,0.0,0.0,0.0,0.0,0.0,0.0
128902268,0.0,0.0,0.0,-1.4538893,-1.2585802,-0.38684654,0.0,0.0,0.0,-0.13253045,0.0,0.0,0.0,0.0,0.0,0.0,0.0,0.0,101.06644,101.06663,4.061853,0.0,0.0,0.0,0.09015149,0.0,0.0,0.0,0.0,0.0,0.0012321218,0.035429906,0.15107298,0.0,0.0,0.0,0.0,0.0,0.0
129102274,0.0,0.0,0.0,-1.3708105,-1.3376193,-0.4093914,0.0,0.0,0.0,-0.002608478,0.0,0.0,0.0,0.0,0.0,0.0,0.0,0.0,101.06285,101.06298,4.061485,0.0,0.0,0.0,0.090151496,0.0,0.0,0.0,0.0,0.0,0.0012854082,0.032351192,0.13702863,0.0,0.0,0.0,0.0,0.0,0.0
129309492,0.0,0.0,0.0,-1.2472416,-1.4384869,0.021621704,0.0,0.0,0.0,-0.043782055,0.0,0.0,0.0,0.0,0.0,0.0,0.0,0.0,101.06031,101.06036,4.06121,0.0,0.0,0.0,0.09015139,0.0,0.0,0.0,0.0,0.0,0.0011976468,0.03230596,0.13706964,0.0,0.0,0.0,0.0,0.0,0.0
129509480,0.0,0.0,0.0,-1.1182003,-1.5348947,-0.32221794,0.0,0.0,0.0,0.047462344,0.0,0.0,0.0,0.0,0.0,0.0,0.0,0.0,101.06071,101.06068,4.061202,0.0,0.0,0.0,0.090151496,0.0,0.0,0.0,0.0,0.0,0.0009991165,0.02988606,0.12715372,0.0,0.0,0.0,0.0,0.0,0.0
129709475,0.0,0.0,0.0,-0.99216807,-1.6046793,-0.51410294,0.0,0.0,0.0,0.0568105,0.0,0.0,0.0,0.0,0.0,0.0,0.0,0.0,101.057755,101.057655,4.0609317,0.0,0.0,0.0,0.09015152,0.0,0.0,0.0,0.0,0.0,0.0011583234,0.027146915,0.11744511,0.0,0.0,0.0,0.0,0.0,0.0
129917475,0.0,0.0,0.0,-0.8868875,-1.6581621,-0.053987503,0.0,0.0,0.0,0.1120047,0.0,0.0,0.0,0.0,0.0,0.0,0.0,0.0,101.06704,101.0669,4.0616684,0.0,0.0,0.0,0.09015151,0.0,0.0,0.0,0.0,0.0,0.0016163144,0.024151765,0.10666367,0.0,0.0,0.0,0.0,0.0,0.0
130116669,0.0,0.0,0.0,-0.8090182,-1.629668,-0.1425972,0.0,0.0,0.0,0.0714345,0.0,0.0,0.0,0.0,0.0,0.0,0.0,0.0,101.06054,101.06039,4.0610867,0.0,0.0,0.0,0.090151526,0.0,0.0,0.0,0.0,0.0,0.0018987907,0.028208993,0.120091,0.0,0.0,0.0,0.0,0.0,0.0
130324668,0.0,0.0,0.0,-0.77116275,-1.5645036,-0.15988731,0.0,0.0,0.0,-0.031512618,0.0,0.0,0.0,0.0,0.0,0.0,0.0,0.0,101.06105,101.0609,4.061104,0.0,0.0,0.0,0.090151586,0.0,0.0,0.0,0.0,0.0,0.0016929947,0.024347417,0.1027152,0.0,0.0,0.0,0.0,0.0,0.0
130524669,0.0,0.0,0.0,-0.7616193,-1.474604,-0.02309227,0.0,0.0,0.0,0.13489532,0.0,0.0,0.0,0.0,0.0,0.0,0.0,0.0,101.06893,101.06881,4.0617294,0.0,0.0,0.0,0.09015161,0.0,0.0,0.0,0.0,0.0,0.0017824189,0.019628895,0.08117641,0.0,0.0,0.0,0.0,0.0,0.0
130723907,0.0,0.0,0.0,-0.7630611,-1.3304168,-0.10645676,0.0,0.0,0.0,0.15542787,0.0,0.0,0.0,0.0,0.0,0.0,0.0,0.0,101.07328,101.07319,4.0620446,0.0,0.0,0.0,0.090152554,0.0,0.0,0.0,0.0,0.0,0.0020102048,0.016297016,0.06873169,0.0,0.0,0.0,0.0,0.0,0.0
130927875,0.0,0.0,0.0,-0.76846415,-1.139163,0.26444244,0.0,0.0,0.0,0.11726868,0.0,0.0,0.0,0.0,0.0,0.0,0.0,0.0,101.07906,101.07901,4.0624666,0.0,0.0,0.0,0.09015392,0.0,0.0,0.0,0.0,0.0,0.002237227,0.012809193,0.05314971,0.0,0.0,0.0,0.0,0.0,0.0
131135876,0.0,0.0,0.0,-0.76097316,-0.9189602,0.17747688,0.0,0.0,0.0,0.026367188,0.0,0.0,0.0,0.0,0.0,0.0,0.0,0.0,101.07825,101.07822,4.062354,0.0,0.0,0.0,0.090152465,0.0,0.0,0.0,0.0,0.0,0.0021856807,0.008112106,0.034484807,0.0,0.0,0.0,0.0,0.0,0.0
131335905,0.0,0.0,0.0,-0.7428358,-0.6889156,0.31594658,0.0,0.0,0.0,0.00060099363,0.0,0.0,0.0,0.0,0.0,0.0,0.0,0.0,101.08849,101.08846,4.0631347,0.0,0.0,0.0,0.09015183,0.0,0.0,0.0,0.0,0.0,0.0016312196,0.011693308,0.047496736,0.0,0.0,0.0,0.0,0.0,0.0
131535108,0.0,0.0,0.0,-0.70278025,-0.45762172,-0.20009422,0.0,0.0,0.0,-0.023254931,0.0,0.0,0.0,0.0,0.0,0.0,0.0,0.0,101.094315,101.09427,4.0635347,0.0,0.0,0.0,0.09015158,0.0,0.0,0.0,0.0,0.0,0.0009127933,0.013287345,0.061051868,0.0,0.0,0.0,0.0,0.0,0.0
131735069,0.0,0.0,0.0,-0.63216466,-0.20015109,-0.19683838,0.0,0.0,0.0,-0.029883504,0.0,0.0,0.0,0.0,0.0,0.0,0.0,0.0,101.08846,101.08838,4.0629516,0.0,0.0,0.0,0.09015159,0.0,0.0,0.0,0.0,0.0,0.00087994244,0.016123705,0.076258376,0.0,0.0,0.0,0.0,0.0,0.0
131943069,0.0,0.0,0.0,-0.5605995,0.018052604,0.024097443,0.0,0.0,0.0,0.0148512125,0.0,0.0,0.0,0.0,0.0,0.0,0.0,0.0,101.08614,101.08601,4.0626965,0.0,0.0,0.0,0.090151496,0.0,0.0,0.0,0.0,0.0,0.00081333023,0.022452854,0.10258938,0.0,0.0,0.0,0.0,0.0,0.0
132143076,0.0,0.0,0.0,-0.49663228,0.20596303,-0.028360367,0.0,0.0,0.0,-0.038238883,0.0,0.0,0.0,0.0,0.0,0.0,0.0,0.0,101.09209,101.091896,4.0631356,0.0,0.0,0.0,0.09015152,0.0,0.0,0.0,0.0,0.0,0.00026817637,0.02774968,0.124518886,0.0,0.0,0.0,0.0,0.0,0.0
132350268,0.0,0.0,0.0,-0.42286226,0.38832983,0.13432884,0.0,0.0,0.0,-0.046631277,0.0,0.0,0.0,0.0,0.0,0.0,0.0,0.0,101.08633,101.086075,4.0625935,0.0,0.0,0.0,0.09015145,0.0,0.0,0.0,0.0,0.0,0.0003867278,0.032875907,0.14533332,0.0,0.0,0.0,0.0,0.0,0.0
132550268,0.0,0.0,0.0,-0.36601436,0.54046667,0.2376213,0.0,0.0,0.0,-0.03817022,0.0,0.0,0.0,0.0,0.0,0.0,0.0,0.0,101.09539,101.09507,4.063304,0.0,0.0,0.0,0.090151384,0.0,0.0,0.0,0.0,0.0,0.0004956118,0.035363812,0.15619414,0.0,0.0,0.0,0.0,0.0,0.0
132750269,0.0,0.0,0.0,-0.3101189,0.656167,-0.14272118,0.0,0.0,0.0,-0.029408753,0.0,0.0,0.0,0.0,0.0,0.0,0.0,0.0,101.08856,101.08819,4.0626893,0.0,0.0,0.0,0.09015246,0.0,0.0,0.0,0.0,0.0,0.00044799634,0.03663865,0.16580845,0.0,0.0,0.0,0.0,0.0,0.0
132949520,0.0,0.0,0.0,-0.252517,0.746531,0.098833084,0.0,0.0,0.0,-0.028624773,0.0,0.0,0.0,0.0,0.0,0.0,0.0,0.0,101.08639,101.08597,4.0624676,0.0,0.0,0.0,0.09015153,0.0,0.0,0.0,0.0,0.0,0.0005885835,0.039461236,0.1717508,0.0,0.0,0.0,0.0,0.0,0.0
133157508,0.0,0.0,0.0,-0.18529525,0.8107082,0.014469147,0.0,0.0,0.0,-0.048582613,0.0,0.0,0.0,0.0,0.0,0.0,0.0,0.0,101.084785,101.084335,4.062313,0.0,0.0,0.0,0.09015127,0.0,0.0,0.0,0.0,0.0,0.0005166133,0.04115169,0.17773788,0.0,0.0,0.0,0.0,0.0,0.0
133357468,0.0,0.0,0.0,-0.12554944,0.8521863,-0.19831085,0.0,0.0,0.0,-0.026688814,0.0,0.0,0.0,0.0,0.0,0.0,0.0,0.0,101.079094,101.07863,4.0618405,0.0,0.0,0.0,0.09015128,0.0,0.0,0.0,0.0,0.0,0.00045882282,0.039330885,0.17201936,0.0,0.0,0.0,0.0,0.0,0.0
133565469,0.0,0.0,0.0,-0.062522106,0.8863951,0.030056,0.0,0.0,0.0,0.021707714,0.0,0.0,0.0,0.0,0.0,0.0,0.0,0.0,101.074715,101.07425,4.0614924,0.0,0.0,0.0,0.090151295,0.0,0.0,0.0,0.0,0.0,0.0005008985,0.038989622,0.17046301,0.0,0.0,0.0,0.0,0.0,0.0
133764669,0.0,0.0,0.0,-0.009776947,0.907141,-0.15108109,0.0,0.0,0.0,0.019120574,0.0,0.0,0.0,0.0,0.0,0.0,0.0,0.0,101.06989,101.06942,4.0611234,0.0,0.0,0.0,0.09015139,0.0,0.0,0.0,0.0,0.0,0.00059060106,0.03715396,0.16218498,0.0,0.0,0.0,0.0,0.0,0.0
133964669,0.0,0.0,0.0,0.04164277,0.92502755,0.42121124,0.0,0.0,0.0,-0.0019105077,0.0,0.0,0.0,0.0,0.0,0.0,0.0,0.0,101.069176,101.06871,4.061102,0.0,0.0,0.0,0.09015141,0.0,0.0,0.0,0.0,0.0,0.0005963308,0.03533433,0.15273845,0.0,0.0,0.0,0.0,0.0,0.0
134164669,0.0,0.0,0.0,0.08579275,0.9370423,-0.21419334,0.0,0.0,0.0,-0.05742514,0.0,0.0,0.0,0.0,0.0,0.0,0.0,0.0,101.07268,101.07223,4.061384,0.0,0.0,0.0,0.09015142,0.0,0.0,0.0,0.0,0.0,0.0005597118,0.031620007,0.13521327,0.0,0.0,0.0,0.0,0.0,0.0
134372688,0.0,0.0,0.0,0.13666473,0.9415292,0.18278694,0.0,0.0,0.0,0.0066648126,0.0,0.0,0.0,0.0,0.0,0.0,0.0,0.0,101.07399,101.07357,4.061425,0.0,0.0,0.0,0.09015153,0.0,0.0,0.0,0.0,0.0,0.0004775923,0.031986687,0.13540332,0.0,0.0,0.0,0.0,0.0,0.0
134571119,0.0,0.0,0.0,0.17840968,0.936552,-0.17529488,0.0,0.0,0.0,-0.012080312,0.0,0.0,0.0,0.0,0.0,0.0,0.0,0.0,101.069984,101.069595,4.0610814,0.0,0.0,0.0,0.09015145,0.0,0.0,0.0,0.0,0.0,0.0006301033,0.029903967,0.12689626,0.0,0.0,0.0,0.0,0.0,0.0
134779869,0.0,0.0,0.0,0.22285175,0.93587303,-0.0046081543,0.0,0.0,0.0,-0.024178505,0.0,0.0,0.0,0.0,0.0,0.0,0.0,0.0,101.076645,101.07626,4.061746,0.0,0.0,0.0,0.09605375,0.0,0.0,0.0,0.0,0.0,0.022247417,0.02616458,0.11435283,0.0,0.0,0.0,0.0,0.0,0.0
134979869,0.0,0.0,0.0,0.26064467,0.9297547,-0.13498306,0.0,0.0,0.0,-0.07147843,0.0,0.0,0.0,0.0,0.0,0.0,0.0,0.0,101.079865,101.079475,4.062264,0.0,0.0,0.0,0.093935914,0.0,0.0,0.0,0.0,0.0,0.017736236,0.024336044,0.104261704,0.0,0.0,0.0,0.0,0.0,0.0
135179100,0.0,0.0,0.0,0.29847527,0.90943676,0.029729843,0.0,0.0,0.0,-0.042837024,0.0,0.0,0.0,0.0,0.0,0.0,0.0,0.0,101.07045,101.070045,4.061905,0.0,0.0,0.0,0.09301363,0.0,0.0,0.0,0.0,0.0,0.008626615,0.024167763,0.107086346,0.0,0.0,0.0,0.0,0.0,0.0
135383097,0.0,0.0,0.0,0.32720625,0.88620883,0.2507267,0.0,0.0,0.0,0.05882615,0.0,0.0,0.0,0.0,0.0,0.0,0.0,0.0,101.05871,101.05828,4.0613256,0.0,0.0,0.0,0.09231633,0.0,0.0,0.0,0.0,0.0,0.0025916786,0.021824257,0.09866427,0.0,0.0,0.0,0.0,0.0,0.0
135591068,0.0,0.0,0.0,0.35978898,0.8631373,0.11857414,0.0,0.0,0.0,-0.026918948,0.0,0.0,0.0,0.0,0.0,0.0,0.0,0.0,101.055115,101.05464,4.0614114,0.0,0.0,0.0,0.09192118,0.0,0.0,0.0,0.0,0.0,0.0026637746,0.021180313,0.09452143,0.0,0.0,0.0,0.0,0.0,0.0
135791117,0.0,0.0,0.0,0.38661397,0.8399133,-0.275177,0.0,0.0,0.0,-0.016269207,0.0,0.0,0.0,0.0,0.0,0.0,0.0,0.0,101.05412,101.0536,4.0614467,0.0,0.0,0.0,0.09161206,0.0,0.0,0.0,0.0,0.0,0.00544021,0.019114824,0.084541924,0.0,0.0,0.0,0.0,0.0,0.0
135990269,0.0,0.0,0.0,0.40932694,0.8122793,0.05268097,0.0,0.0,0.0,-0.02867794,0.0,0.0,0.0,0.0,0.0,0.0,0.0,0.0,101.05357,101.053,4.061186,0.0,0.0,0.0,0.09141039,0.0,0.0,0.0,0.0,0.0,0.0020818056,0.018352607,0.07597807,0.0,0.0,0.0,0.0,0.0,0.0
136198269,0.0,0.0,0.0,0.43588835,0.7923469,0.05227089,0.0,0.0,0.0,-0.02975738,0.0,0.0,0.0,0.0,0.0,0.0,0.0,0.0,101.07305,101.07241,4.06216,0.0,0.0,0.0,0.091253676,0.0,0.0,0.0,0.0,0.0,0.0012694614,0.015899956,0.061523225,0.0,0.0,0.0,0.0,0.0,0.0
136398269,0.0,0.0,0.0,0.4565588,0.76200324,-0.08778572,0.0,0.0,0.0,-0.080842316,0.0,0.0,0.0,0.0,0.0,0.0,0.0,0.0,101.09258,101.09189,4.062467,0.0,0.0,0.0,0.091114484,0.0,0.0,0.0,0.0,0.0,0.0040690685,0.018442778,0.06394196,0.0,0.0,0.0,0.0,0.0,0.0
136598307,0.0,0.0,0.0,0.47145358,0.7266387,0.10573959,0.0,0.0,0.0,-0.019401848,0.0,0.0,0.0,0.0,0.0,0.0,0.0,0.0,101.11527,101.114525,4.062444,0.0,0.0,0.0,0.09101444,0.0,0.0,0.0,0.0,0.0,0.0021635913,0.019654965,0.06201902,0.0,0.0,0.0,0.0,0.0,0.0
136805475,0.0,0.0,0.0,0.4816461,0.6828867,-0.28106308,0.0,0.0,0.0,0.030175805,0.0,0.0,0.0,0.0,0.0,0.0,0.0,0.0,101.14623,101.145454,4.062226,0.0,0.0,0.0,0.09093097,0.0,0.0,0.0,0.0,0.0,0.00079509657,0.02340764,0.067440584,0.0,0.0,0.0,0.0,0.0,0.0
137005469,0.0,0.0,0.0,0.48443505,0.6388162,0.16617775,0.0,0.0,0.0,0.009097874,0.0,0.0,0.0,0.0,0.0,0.0,0.0,0.0,101.180176,101.17939,4.061942,0.0,0.0,0.0,0.09086024,0.0,0.0,0.0,0.0,0.0,0.0019063902,0.023404237,0.0601863,0.0,0.0,0.0,0.0,0.0,0.0
137205469,0.0,0.0,0.0,0.4837798,0.59276116,-0.2948475,0.0013536066,0.00036637485,0.0033805072,0.04835707,0.0,0.0,0.0,0.0,0.0,0.0,0.0,0.0,101.229675,101.22889,4.062095,0.002955506,0.0029520157,0.002958433,0.09084421,0.0,0.0,0.0,0.0,0.0,0.0017822859,0.02374254,0.05695413,0.0,0.0,0.0,0.0,0.0,0.0
137405469,0.0,0.0,0.0,0.4753472,0.5436902,0.0074329376,0.0035513043,0.004729092,-0.0053551197,0.04835707,0.0,0.0,0.0,0.0,0.0,0.0,0.0,0.0,101.27875,101.277985,4.0619326,0.0026979013,0.0026900724,0.0026873923,0.09084421,0.0,0.0,0.0,0.0,0.0,0.00091315707,0.023623548,0.053460646,0.0,0.0,0.0,0.0,0.0,0.0
137613487,0.0,0.0,0.0,0.46129888,0.48724365,-0.07427788,-0.009468913,0.013511829,-0.010188997,0.04835707,0.0,0.0,0.0,0.0,0.0,0.0,0.0,0.0,101.34247,101.34174,4.0619183,0.0026329327,0.0026300903,0.0026179445,0.09084421,0.0,0.0,0.0,0.0,0.0,0.0008934923,0.027129672,0.06412013,0.0,0.0,0.0,0.0,0.0,0.0
137812669,0.0,0.0,0.0,0.4432781,0.43254846,0.018960953,0.012531996,0.00063908845,-0.014787972,0.04835707,0.0,0.0,0.0,0.0,0.0,0.0,0.0,0.0,101.40998,101.40932,4.0621705,0.002604966,0.00261446,0.0025862246,0.09084421,0.0,0.0,0.0,0.0,0.0,0.00085747516,0.02392996,0.050607763,0.0,0.0,0.0,0.0,0.0,0.0
138020669,0.0,0.0,0.0,0.4168296,0.37116075,0.6842766,0.0024372488,-0.006258469,-0.013049334,0.04835707,0.0,0.0,0.0,0.0,0.0,0.0,0.0,0.0,101.47836,101.47779,4.0621634,0.0025865848,0.0026144471,0.0025662188,0.09084421,0.0,0.0,0.0,0.0,0.0,0.00082721794,0.024529224,0.04825797,0.0,0.0,0.0,0.0,0.0,0.0
138223875,0.0,0.0,0.0,0.39335695,0.3211233,0.114097595,0.00445424,-0.008432798,-0.012584031,0.04835707,0.0,0.0,0.0,0.0,0.0,0.0,0.0,0.0,101.54814,101.54765,4.0626874,0.0025749886,0.0026204719,0.0025549855,0.09084421,0.0,0.0,0.0,0.0,0.0,0.0007311549,0.020746648,0.045762822,0.0,0.0,0.0,0.0,0.0,0.0
138423869,0.0,0.0,0.0,0.36361185,0.26595908,-0.123659134,0.0095859915,-0.0053418786,-0.013669878,0.04835707,0.0,0.0,0.0,0.0,0.0,0.0,0.0,0.0,101.61605,101.61567,4.0630226,0.0025666123,0.0026291793,0.0025470154,0.09084421,0.0,0.0,0.0,0.0,0.0,0.00067860325,0.017978754,0.04225006,0.0,0.0,0.0,0.0,0.0,0.0
138623926,0.0,0.0,0.0,0.3277599,0.20770898,-0.3753338,0.014427811,-0.002998883,-0.011529565,0.04835707,0.0,0.0,0.0,0.0,0.0,0.0,0.0,0.0,101.671486,101.67123,4.062987,0.00256132,0.0026395842,0.0025410955,0.09084421,0.0,0.0,0.0,0.0,0.0,0.0006677557,0.01735176,0.0420527,0.0,0.0,0.0,0.0,0.0,0.0
138831869,0.0,0.0,0.0,0.29540196,0.15873168,-0.013288498,-0.0067970008,-0.0018898696,-0.0009996295,0.04835707,0.0,0.0,0.0,0.0,0.0,0.0,0.0,0.0,101.72248,101.72234,4.063231,0.0025594647,0.0026444737,0.0025364817,0.09084421,0.0,0.0,0.0,0.0,0.0,0.0005907996,0.015593055,0.04627497,0.0,0.0,0.0,0.0,0.0,0.0
139031069,0.0,0.0,0.0,0.2624752,0.112588145,-0.4230671,-0.00020439923,-0.0045634434,-0.007605821,0.04835707,0.0,0.0,0.0,0.0,0.0,0.0,0.0,0.0,101.762215,101.762184,4.063402,0.002561743,0.0026394676,0.002532474,0.09084421,0.0,0.0,0.0,0.0,0.0,0.00048958854,0.015555553,0.049479134,0.0,0.0,0.0,0.0,0.0,0.0
139239068,0.0,0.0,0.0,0.23068771,0.07165794,0.25885773,-0.0070203394,-0.00030834228,0.005198449,0.04835707,0.0,0.0,0.0,0.0,0.0,0.0,0.0,0.0,101.792274,101.79236,4.06356,0.0025676964,0.0026317523,0.0025295082,0.09084421,0.0,0.0,0.0,0.0,0.0,0.0003862369,0.015410868,0.05176043,0.0,0.0,0.0,0.0,0.0,0.0
139439079,0.0,0.0,0.0,0.20053184,0.035619613,-0.03660965,0.0037844405,-0.026340902,0.006769359,0.04835707,0.0,0.0,0.0,0.0,0.0,0.0,0.0,0.0,101.81307,101.81325,4.063719,0.0025746883,0.0026194495,0.0025270523,0.09084421,0.0,0.0,0.0,0.0,0.0,0.0003127706,0.017554931,0.05677516,0.0,0.0,0.0,0.0,0.0,0.0
139639069,0.0,0.0,0.0,0.17092927,0.012041993,-0.33102036,0.008845143,0.0076951683,-0.0119999945,0.04835707,0.0,0.0,0.0,0.0,0.0,0.0,0.0,0.0,101.846924,101.84497,4.0645547,0.002582481,0.0026045353,0.0025247703,0.09084421,0.0,0.0,0.0,0.0,0.0,0.0007382645,0.02662981,0.07108545,0.0,0.0,0.0,0.0,0.0,0.0
139838269,0.0,0.0,0.0,0.14263824,-0.009990966,0.06966972,0.0061261803,-0.0020651817,-0.010476917,0.04835707,0.0,0.0,0.0,0.0,0.0,0.0,0.0,0.0,101.865814,101.84875,4.065207,0.0025787551,0.0025934405,0.0025229591,0.09084421,0.0,0.0,0.0,0.0,0.0,0.001183949,0.027927943,0.07442664,0.0,0.0,0.0,0.0,0.0,0.0
140046269,0.0,0.0,0.0,0.113330096,-0.019523889,0.2789173,-0.0038283956,0.006659046,-0.012871891,0.04835707,0.0,0.0,0.0,0.0,0.0,0.0,0.0,0.0,101.87391,101.84564,4.0657835,0.0025755235,0.002583688,0.0025214015,0.09084421,0.0,0.0,0.0,0.0,0.0,0.0020672728,0.032552745,0.08207807,0.0,0.0,0.0,0.0,0.0,0.0
140246320,0.0,0.0,0.0,0.08740592,-0.04058987,-0.036577225,0.008134998,-0.0032104403,-0.013859928,0.04835707,0.0,0.0,0.0,0.0,0.0,0.0,0.0,0.0,101.84239,101.80681,4.065256,0.002572029,0.002574634,0.0025200378,0.09084421,0.0,0.0,0.0,0.0,0.0,0.0012464067,0.02554646,0.07299953,0.0,0.0,0.0,0.0,0.0,0.0
140452700,0.0,0.0,0.0,0.070021145,-0.05824057,-0.056001663,0.006505072,-0.0024629533,0.00076302886,0.04835707,0.0,0.0,0.0,0.0,0.0,0.0,0.0,0.0,101.850876,101.80835,4.066126,0.0025675304,0.0025652645,0.0025187146,0.09084421,0.0,0.0,0.0,0.0,0.0,0.0005231632,0.022521256,0.06811186,0.0,0.0,0.0,0.0,0.0,0.0
140653471,0.0,0.0,0.0,0.057078768,-0.08376452,-0.06454849,0.00119517,-0.0072518736,-0.0034897625,0.04835707,0.0,0.0,0.0,0.0,0.0,0.0,0.0,0.0,101.83101,101.783226,4.0662093,0.0025634633,0.002558224,0.0025176762,0.09084421,0.0,0.0,0.0,0.0,0.0,0.00081569544,0.021256099,0.06345513,0.0,0.0,0.0,0.0,0.0,0.0
140853469,0.0,0.0,0.0,0.04464378,-0.086910315,0.27138138,-0.0017830282,0.009233013,0.012124538,0.04835707,0.0,0.0,0.0,0.0,0.0,0.0,0.0,0.0,101.79032,101.739876,4.06557,0.0025589908,0.0025515156,0.0025166373,0.09084421,0.0,0.0,0.0,0.0,0.0,0.000580774,0.027500056,0.07370455,0.0,0.0,0.0,0.0,0.0,0.0
141053500,0.0,0.0,0.0,0.0362418,-0.09557311,-0.3238907,0.0031635165,0.0013540015,0.013451725,0.04835707,0.0,0.0,0.0,0.0,0.0,0.0,0.0,0.0,101.76296,101.70943,4.0653696,0.002555295,0.0025467058,0.002515813,0.09084421,0.0,0.0,0.0,0.0,0.0,0.00070230477,0.027904578,0.07227913,0.0,0.0,0.0,0.0,0.0,0.0
141260669,0.0,0.0,0.0,0.030385278,-0.080626175,-0.3042717,-0.01597564,0.02001606,-0.006530255,0.04835707,0.0,0.0,0.0,0.0,0.0,0.0,0.0,0.0,101.72805,101.671524,4.064891,0.002551294,0.002542521,0.0025150683,0.09084421,0.0,0.0,0.0,0.0,0.0,0.0023347496,0.035998657,0.08122056,0.0,0.0,0.0,0.0,0.0,0.0
141460686,0.0,0.0,0.0,0.022421585,-0.07803817,0.085905075,0.0055185854,0.00016107783,-0.010477483,0.04835707,0.0,0.0,0.0,0.0,0.0,0.0,0.0,0.0,101.706635,101.64681,4.0647306,0.0025474767,0.002539017,0.0025143912,0.09084421,0.0,0.0,0.0,0.0,0.0,0.0021207132,0.029319298,0.07077725,0.0,0.0,0.0,0.0,0.0,0.0
