timestamp,roll,pitch,yaw,thrust_body[0],thrust_body[1],thrust_body[2]
93508143,-0.037146,-0.05063716,-2.1062448,0.0,0.0,0.0
93540075,-0.03703634,-0.05078835,-2.1061845,0.0,0.0,0.0
93572108,-0.037020426,-0.0508229,-2.106123,0.0,0.0,0.0
93600091,-0.036900442,-0.050861217,-2.1059802,0.0,0.0,0.0
93631323,-0.03683129,-0.050860874,-2.1058865,0.0,0.0,0.0
93664110,-0.036742814,-0.05094067,-2.1058297,0.0,0.0,0.0
93695304,-0.036815066,-0.050936356,-2.1057527,0.0,0.0,0.0
93727277,-0.036872968,-0.050940327,-2.1056828,0.0,0.0,0.0
93759391,-0.037037693,-0.050962977,-2.1055946,0.0,0.0,0.0
93791298,-0.036991592,-0.050799128,-2.1054966,0.0,0.0,0.0
93823319,-0.03704506,-0.050784755,-2.1053987,0.0,0.0,0.0
93855260,-0.037048116,-0.050850637,-2.105395,0.0,0.0,0.0
93883319,-0.037179086,-0.050859667,-2.1053107,0.0,0.0,0.0
93915268,-0.037171047,-0.05086241,-2.1053255,0.0,0.0,0.0
93947354,-0.037173033,-0.0507533,-2.1051888,0.0,0.0,0.0
93979366,-0.03726959,-0.050553128,-2.1050615,0.0,0.0,0.0
94011306,-0.037109267,-0.050412484,-2.1049037,0.0,0.0,0.0
94043284,-0.037091877,-0.050449688,-2.1047688,0.0,0.0,0.0
94075333,-0.037036113,-0.05049642,-2.1045606,0.0,0.0,0.0
94107326,-0.036946755,-0.050617702,-2.1043973,0.0,0.0,0.0
94135328,-0.036874015,-0.050723158,-2.1042907,0.0,0.0,0.0
94167297,-0.03704034,-0.050793163,-2.1041465,0.0,0.0,0.0
94199363,-0.037032112,-0.050740164,-2.1039836,0.0,0.0,0.0
94231270,-0.037175134,-0.050857883,-2.1037686,0.0,0.0,0.0
94263332,-0.04507067,-0.044114728,8.1801336e-05,0.0,0.0,-0.0
94295294,-0.045042668,-0.044105206,0.00016162089,0.0,0.0,-0.0
94327294,-0.04486936,-0.044084154,9.015941e-05,0.0,0.0,-0.0
94358498,-0.045006704,-0.044111144,6.5655106e-05,0.0,0.0,-0.0
94390554,-0.04508862,-0.044091336,9.278527e-05,0.0,0.0,-0.0
94419369,-0.045111097,-0.043917138,6.5803055e-05,0.0,0.0,-0.0
94451346,-0.04507714,-0.043956157,8.469929e-05,0.0,0.0,-0.0
94482478,-0.04507197,-0.044107407,9.614437e-05,0.0,0.0,-0.0
94514476,-0.045091975,-0.044018403,0.00019738184,0.0,0.0,-0.0
94546492,-0.045331497,-0.043933462,0.000112971466,0.0,0.0,-0.0
94578507,-0.04541112,-0.0440617,6.6235516e-05,0.0,0.0,-0.0
94610474,-0.04530615,-0.04404016,0.00015978038,0.0,0.0,-0.0
94642506,-0.045394205,-0.04401029,0.000110149296,0.0,0.0,-0.0
94674478,-0.04506104,-0.044025026,0.00020777681,0.0,0.0,-0.0
94702500,-0.045197155,-0.04400512,0.00011404738,0.0,0.0,-0.0
94734488,-0.04524338,-0.04395548,0.00023364942,0.0,0.0,-0.0
94766512,-0.045041926,-0.04406348,0.00013592462,0.0,0.0,-0.0
94798471,-0.044915777,-0.04411914,6.557079e-05,0.0,0.0,-0.0
94830481,-0.044925436,-0.044201255,0.00014569562,0.0,0.0,-0.0
94862499,-0.04487839,-0.044049572,0.00011635015,0.0,0.0,-0.0
94894541,-0.044994555,-0.043921128,0.00019260246,0.0,0.0,-0.0
94926481,-0.045163706,-0.043832377,0.00013214198,0.0,0.0,-0.0
94958510,-0.045230463,-0.04358567,0.00018994979,0.0,0.0,-0.0
94990490,-0.045223,-0.043450177,0.0001455046,0.0,0.0,-0.0
95022537,-0.04513858,-0.04342706,9.37962e-05,0.0,0.0,-0.0
95054486,-0.045028016,-0.043307483,0.00020151069,0.0,0.0,-0.0
95086537,-0.045093767,-0.043223914,0.0001208205,0.0,0.0,-0.0
95118484,-0.044988014,-0.04308409,0.00018957781,0.0,0.0,-0.0
95149731,-0.045061946,-0.043062888,0.00010523811,0.0,0.0,-0.0
95180123,-0.045182407,-0.042994633,6.352977e-05,0.0,0.0,-0.0
95213698,-0.04531839,-0.04285484,0.00016238891,0.0,0.0,-0.0
95241679,-0.045408893,-0.042890288,6.51147e-05,0.0,0.0,-0.0
95273689,-0.04552548,-0.042832706,0.00017081309,0.0,0.0,-0.0
95305702,-0.045612745,-0.042726617,7.887019e-05,0.0,0.0,-0.0
95337664,-0.04572337,-0.042650104,0.00022183654,0.0,0.0,-0.0
95369670,-0.0458262,-0.042722683,0.00018740003,0.0,0.0,-0.0
95401679,-0.045778945,-0.042602837,6.483028e-05,0.0,0.0,-0.0
95433702,-0.045903493,-0.042729024,0.00017825469,0.0,0.0,-0.0
95465751,-0.04582378,-0.042588282,0.00010341006,0.0,0.0,-0.0
95497673,-0.045685932,-0.042680204,0.00018306143,0.0,0.0,-0.0
95529704,-0.045546606,-0.04263655,0.0001438859,0.0,0.0,-0.0
95561691,-0.04553222,-0.04260309,6.364041e-05,0.0,0.0,-0.0
95593759,-0.04552125,-0.04248911,0.00014935783,0.0,0.0,-0.0
95625671,-0.045413952,-0.04240284,8.7109474e-05,0.0,0.0,-0.0
95657690,-0.045461815,-0.042329434,0.0001619826,0.0,0.0,-0.0
95689711,-0.045398712,-0.042049173,0.00014026002,0.0,0.0,-0.0
95721748,-0.045565836,-0.041973732,6.332508e-05,0.0,0.0,-0.0
95753669,-0.045604184,-0.041732013,0.00015066392,0.0,0.0,-0.0
95785711,-0.045598,-0.04174211,9.4300834e-05,0.0,0.0,-0.0
95817711,-0.045580916,-0.04165437,0.00024478507,0.0,0.0,-0.0
95849677,-0.045780007,-0.041426137,0.0001454195,0.0,0.0,-0.0
95881662,-0.045708213,-0.04122623,6.1863066e-05,0.0,0.0,-0.0
95912965,-0.045719646,-0.041268717,8.733245e-05,0.0,0.0,-0.0
95944912,-0.04571995,-0.04127831,8.3717634e-05,0.0,0.0,-0.0
95976111,-0.045563888,-0.041225765,0.00013275661,0.0,0.0,-0.0
96008129,-0.045788106,-0.04113804,0.00011065633,0.0,0.0,-0.0
96036120,-0.04580033,-0.04113071,0.00017325315,0.0,0.0,-0.0
96068866,-0.045628395,-0.041049317,0.00010809903,0.0,0.0,-0.0
96102515,-0.045777872,-0.040991556,8.038788e-05,0.0,0.0,-0.0
96130472,-0.045604173,-0.041118924,0.00011735531,0.0,0.0,-0.0
96165668,-0.04581053,-0.041064303,9.042241e-05,0.0,0.0,-0.0
96196893,-0.045709133,-0.04092365,0.00021196774,0.0,0.0,-0.0
96224882,-0.04568089,-0.040857363,9.110006e-05,0.0,0.0,-0.0
96256868,-0.045731984,-0.04066538,0.00021366616,0.0,0.0,-0.0
96288897,-0.045718536,-0.04070966,0.00017771829,0.0,0.0,-0.0
96320904,-0.045647997,-0.04076094,6.173225e-05,0.0,0.0,-0.0
96352911,-0.04568232,-0.040781025,0.00015025001,0.0,0.0,-0.0
96384895,-0.045869317,-0.040596884,8.608982e-05,0.0,0.0,-0.0
96416926,-0.045857634,-0.04062635,0.00012908182,0.0,0.0,-0.0
96448926,-0.04595672,-0.040539782,0.00013350675,0.0,0.0,-0.0
96480906,-0.045785207,-0.04057092,6.15405e-05,0.0,0.0,-0.0
96512895,-0.045637507,-0.040532295,0.00018352836,0.0,0.0,-0.0
96544931,-0.04576141,-0.040494133,8.44532e-05,0.0,0.0,-0.0
96576909,-0.04580667,-0.04051135,0.00020504349,0.0,0.0,-0.0
96608908,-0.04582341,-0.040573508,0.0001180692,0.0,0.0,-0.0
96640875,-0.0459072,-0.040647022,6.204178e-05,0.0,0.0,-0.0
96672976,-0.045954395,-0.040498085,0.000126242,0.0,0.0,-0.0
96701674,-0.045854196,-0.040537097,6.1249215e-05,0.0,0.0,-0.0
96736139,-0.046080556,-0.040580217,0.00021556219,0.0,0.0,-0.0
96764095,-0.046086617,-0.040424533,6.149493e-05,0.0,0.0,-0.0
96796095,-0.046077374,-0.04034866,0.00017090449,0.0,0.0,-0.0
96828121,-0.046122715,-0.04026595,0.00011936457,0.0,0.0,-0.0
96860167,-0.046151232,-0.040128984,0.00020336041,0.0,0.0,-0.0
96892079,-0.046331152,-0.039944537,0.00012982331,0.0,0.0,-0.0
96924101,-0.046365157,-0.039868675,7.63599e-05,0.0,0.0,-0.0
96956123,-0.046419572,-0.039905816,0.00014559817,0.0,0.0,-0.0
96988176,-0.046439435,-0.039824482,0.00010499144,0.0,0.0,-0.0
97016134,-0.0461832,-0.039856043,0.00016663011,0.0,0.0,-0.0
97048118,-0.04638262,-0.0397624,0.00015277024,0.0,0.0,-0.0
97080065,-0.04646148,-0.03969018,0.00016673413,0.0,0.0,-0.0
97112119,-0.046207637,-0.039727747,0.00012118022,0.0,0.0,-0.0
97144102,-0.046285026,-0.0395534,9.378558e-05,0.0,0.0,-0.0
97176144,-0.046206728,-0.039605334,0.00015285575,0.0,0.0,-0.0
97208068,-0.04622437,-0.03964989,8.378085e-05,0.0,0.0,-0.0
97240155,-0.046100304,-0.039752353,0.00016682399,0.0,0.0,-0.0
97272123,-0.04585129,-0.03964524,0.00011195961,0.0,0.0,-0.0
97304161,-0.045762766,-0.039657116,6.010584e-05,0.0,0.0,-0.0
97336069,-0.045655355,-0.039382257,0.000120019635,0.0,0.0,-0.0
97368115,-0.045740988,-0.03953274,7.234759e-05,0.0,0.0,-0.0
97400114,-0.045744248,-0.03949318,0.00017142067,0.0,0.0,-0.0
97432153,-0.045804765,-0.039483976,0.00012032868,0.0,0.0,-0.0
97463259,-0.045802552,-0.039472423,5.941909e-05,0.0,0.0,-0.0
97494498,-0.0458253,-0.03948322,0.0001464567,0.0,0.0,-0.0
97523281,-0.0459836,-0.039487228,5.967528e-05,0.0,0.0,-0.0
97555286,-0.046217248,-0.03959289,0.00012652304,0.0,0.0,-0.0
97587314,-0.04638245,-0.039514225,8.2473554e-05,0.0,0.0,-0.0
97619384,-0.046499364,-0.039399542,0.00019769676,0.0,0.0,-0.0
97651279,-0.046400223,-0.03939112,0.000101709906,0.0,0.0,-0.0
97683295,-0.04650685,-0.039543502,6.0760067e-05,0.0,0.0,-0.0
97715297,-0.046350904,-0.039501633,0.00014067622,0.0,0.0,-0.0
97747347,-0.04646237,-0.03966069,8.276725e-05,0.0,0.0,-0.0
97775302,-0.04648635,-0.0397246,0.0001507018,0.0,0.0,-0.0
97807270,-0.04637384,-0.03985595,8.727089e-05,0.0,0.0,-0.0
97839326,-0.046320286,-0.039849367,0.0001067631,0.0,0.0,-0.0
97871292,-0.04622808,-0.03982289,8.799299e-05,0.0,0.0,-0.0
97903306,-0.04585838,-0.039695363,6.0073067e-05,0.0,0.0,-0.0
97935351,-0.04571914,-0.03967814,0.00013064784,0.0,0.0,-0.0
97967274,-0.045872465,-0.039741084,8.516535e-05,0.0,0.0,-0.0
97999396,-0.045996305,-0.03989588,0.00019091692,0.0,0.0,-0.0
98031287,-0.04616096,-0.03985283,8.708686e-05,0.0,0.0,-0.0
98059347,-0.046284273,-0.040065415,0.00013862172,0.0,0.0,-0.0
98091310,-0.046321403,-0.04019642,0.00013573321,0.0,0.0,-0.0
98123269,-0.046309285,-0.04031777,6.155794e-05,0.0,0.0,-0.0
98155273,-0.046288412,-0.04037992,0.0001093759,0.0,0.0,-0.0
98187306,-0.046350315,-0.04027378,9.058478e-05,0.0,0.0,-0.0
98219363,-0.046250843,-0.040195823,0.0001704468,0.0,0.0,-0.0
98248107,-0.046157263,-0.0400317,8.926438e-05,0.0,0.0,-0.0
98281746,-0.046201713,-0.040062338,0.00017188798,0.0,0.0,-0.0
98314521,-0.04606378,-0.04018045,0.0001262971,0.0,0.0,-0.0
98342577,-0.04594826,-0.040166605,6.095982e-05,0.0,0.0,-0.0
98374515,-0.045948695,-0.04030676,0.00012637589,0.0,0.0,-0.0
98406549,-0.045829874,-0.04047025,7.501899e-05,0.0,0.0,-0.0
98438471,-0.045925763,-0.0406218,0.00011161118,0.0,0.0,-0.0
98470542,-0.04595529,-0.040744748,6.265098e-05,0.0,0.0,-0.0
98502503,-0.046029814,-0.04075978,6.2015424e-05,0.0,0.0,-0.0
98534462,-0.04604868,-0.04091929,0.00010660887,0.0,0.0,-0.0
98566502,-0.046234168,-0.040980913,6.592838e-05,0.0,0.0,-0.0
98598462,-0.04606492,-0.041044302,0.00012737291,0.0,0.0,-0.0
98630490,-0.046033558,-0.040987734,9.3214585e-05,0.0,0.0,-0.0
98662534,-0.04608473,-0.041038293,6.2230916e-05,0.0,0.0,-0.0
98694472,-0.046206746,-0.041017547,0.00013188917,0.0,0.0,-0.0
98726499,-0.04606758,-0.041108474,9.786215e-05,0.0,0.0,-0.0
98758554,-0.046038534,-0.04104469,0.00014116436,0.0,0.0,-0.0
98790525,-0.046081305,-0.040972997,9.788323e-05,0.0,0.0,-0.0
98822506,-0.046077233,-0.040988978,6.237096e-05,0.0,0.0,-0.0
98854464,-0.046106573,-0.04095225,9.236179e-05,0.0,0.0,-0.0
98886527,-0.04614631,-0.0410022,6.130816e-05,0.0,0.0,-0.0
98918525,-0.046150398,-0.040922105,0.00012624453,0.0,0.0,-0.0
98950502,-0.046126314,-0.040963706,0.0001278769,0.0,0.0,-0.0
98981706,-0.046157926,-0.040917773,0.00012697757,0.0,0.0,-0.0
99013697,-0.04611279,-0.040972635,5.7374364e-05,0.0,0.0,-0.0
99045682,-0.046089463,-0.0412353,6.23296e-05,0.0,0.0,-0.0
99077706,-0.046028424,-0.04138932,0.00013211393,0.0,0.0,-0.0
99105669,-0.046075188,-0.0413599,6.254383e-05,0.0,0.0,-0.0
99137676,-0.046036582,-0.041322514,0.0001339179,0.0,0.0,-0.0
99169684,-0.04599483,-0.041362677,7.6345554e-05,0.0,0.0,-0.0
99201694,-0.046249177,-0.041679125,0.0001778514,0.0,0.0,-0.0
99233713,-0.046544682,-0.04158572,0.0001577432,0.0,0.0,-0.0
99265676,-0.046579335,-0.04157067,6.397379e-05,0.0,0.0,-0.0
99297671,-0.046558928,-0.041639037,0.00016230017,0.0,0.0,-0.0
99329700,-0.04666851,-0.04155903,0.00010181019,0.0,0.0,-0.0
99357689,-0.046570096,-0.04159494,0.00015966901,0.0,0.0,-0.0
99389721,-0.04647395,-0.041587554,0.00010647641,0.0,0.0,-0.0
99421670,-0.046470106,-0.041391768,8.109801e-05,0.0,0.0,-0.0
99453693,-0.04659753,-0.04151236,0.00016263206,0.0,0.0,-0.0
99485727,-0.04672249,-0.041434236,6.4267595e-05,0.0,0.0,-0.0
99517719,-0.046866152,-0.041574683,0.000120086675,0.0,0.0,-0.0
99549671,-0.046963077,-0.041472286,8.657625e-05,0.0,0.0,-0.0
99581704,-0.046968237,-0.04138621,0.00013481526,0.0,0.0,-0.0
99613694,-0.046802025,-0.041479528,0.00011661342,0.0,0.0,-0.0
99645722,-0.04679987,-0.04146177,6.418734e-05,0.0,0.0,-0.0
99677666,-0.047032636,-0.04130672,0.00019389183,0.0,0.0,-0.0
99709745,-0.04706355,-0.04135784,9.0998925e-05,0.0,0.0,-0.0
99741677,-0.047041997,-0.041369434,0.00017748843,0.0,0.0,-0.0
99772927,-0.047091566,-0.041282546,0.00011856018,0.0,0.0,-0.0
99805660,-0.04710266,-0.04124455,6.4385975e-05,0.0,0.0,-0.0
99836893,-0.047245,-0.04121459,0.00018881903,0.0,0.0,-0.0
99868911,-0.047182687,-0.041349355,9.0749374e-05,0.0,0.0,-0.0
99900899,-0.04719929,-0.041415703,0.00016871566,0.0,0.0,-0.0
99932889,-0.047085218,-0.041413017,0.0001249695,0.0,0.0,-0.0
99964875,-0.04714827,-0.041449044,6.4860105e-05,0.0,0.0,-0.0
99996905,-0.047114607,-0.04137944,0.00012839274,0.0,0.0,-0.0
100028934,-0.047144994,-0.041146036,7.4372365e-05,0.0,0.0,-0.0
100060925,-0.04721489,-0.041125856,0.00015282982,0.0,0.0,-0.0
100092928,-0.04733936,-0.041229896,7.641524e-05,0.0,0.0,-0.0
100124904,-0.047370143,-0.041231956,6.462939e-05,0.0,0.0,-0.0
100156920,-0.047477808,-0.041025523,0.00013143422,0.0,0.0,-0.0
100188879,-0.047537103,-0.041010268,7.0525675e-05,0.0,0.0,-0.0
100220901,-0.0475207,-0.04101634,0.0001599786,0.0,0.0,-0.0
100252926,-0.0471635,-0.040936977,9.126565e-05,0.0,0.0,-0.0
100284978,-0.047112964,-0.040968686,6.355384e-05,0.0,0.0,-0.0
100312941,-0.04700263,-0.04107983,0.00010703792,0.0,0.0,-0.0
100344959,-0.047112312,-0.04129081,6.435635e-05,0.0,0.0,-0.0
100376873,-0.04728936,-0.041355543,0.0001159845,0.0,0.0,-0.0
100408893,-0.04716061,-0.04131737,9.119853e-05,0.0,0.0,-0.0
100440892,-0.047217682,-0.0413981,0.00023105198,0.0,0.0,-0.0
100472987,-0.04715165,-0.041336212,0.00010719168,0.0,0.0,-0.0
100504873,-0.047233075,-0.04134785,6.45814e-05,0.0,0.0,-0.0
100536097,-0.047167175,-0.041335035,0.0001837186,0.0,0.0,-0.0
100564885,-0.0470406,-0.041523144,6.4235406e-05,0.0,0.0,-0.0
100600174,-0.047090784,-0.04153749,0.00022181669,0.0,0.0,-0.0
100632068,-0.047092646,-0.04155756,0.00015762304,0.0,0.0,-0.0
100664158,-0.047067787,-0.041558567,0.00021398824,0.0,0.0,-0.0
100696130,-0.047035582,-0.04148726,0.00013478128,0.0,0.0,-0.0
100728132,-0.047005646,-0.04154163,9.475267e-05,0.0,0.0,-0.0
100760115,-0.046909474,-0.041456506,0.0002021781,0.0,0.0,-0.0
100792130,-0.046751626,-0.041470826,0.00012008354,0.0,0.0,-0.0
100824142,-0.046708267,-0.041452464,0.00021659171,0.0,0.0,-0.0
100852176,-0.046636134,-0.041500714,0.000109086155,0.0,0.0,-0.0
100884108,-0.046727788,-0.041612018,0.00021257254,0.0,0.0,-0.0
100916110,-0.046427216,-0.041593768,0.00015305204,0.0,0.0,-0.0
100948098,-0.04627032,-0.04161149,9.002483e-05,0.0,0.0,-0.0
100980142,-0.046260606,-0.04176943,0.0001731362,0.0,0.0,-0.0
101012111,-0.046256375,-0.04187104,9.331205e-05,0.0,0.0,-0.0
101044103,-0.0461447,-0.042044777,0.00017975873,0.0,0.0,-0.0
101076131,-0.0460359,-0.041877482,0.00014719952,0.0,0.0,-0.0
101104143,-0.046129823,-0.04183193,8.737868e-05,0.0,0.0,-0.0
101136070,-0.046181478,-0.041724563,5.715909e-05,0.0,0.0,-0.0
101168145,-0.046141718,-0.04180082,3.458465e-05,0.0,0.0,-0.0
101200119,-0.04617714,-0.041814066,4.2622196e-05,0.0,0.0,-0.0
101232128,-0.046208307,-0.042039927,6.1770545e-05,0.0,0.0,-0.0
101264069,-0.04605014,-0.042154178,6.520822e-05,0.0,0.0,-0.0
101295319,-0.046195507,-0.04203968,5.195578e-05,0.0,0.0,-0.0
101327306,-0.046262205,-0.041932683,6.404285e-05,0.0,0.0,-0.0
101359368,-0.046393327,-0.04187559,2.6862555e-05,0.0,0.0,-0.0
101387290,-0.046388622,-0.041864943,6.410889e-05,0.0,0.0,-0.0
101419346,-0.046453517,-0.041935563,7.931354e-05,0.0,0.0,-0.0
101451290,-0.04635722,-0.041900653,4.8709364e-05,0.0,0.0,-0.0
101483304,-0.046272565,-0.041970786,4.1786487e-05,0.0,0.0,-0.0
101515275,-0.04612141,-0.042035457,0.00010274569,0.0,0.0,-0.0
101547303,-0.04620732,-0.042075947,6.418457e-05,0.0,0.0,-0.0
101579378,-0.046061456,-0.04204795,0.0001367335,0.0,0.0,-0.0
101611326,-0.046178147,-0.042145755,7.892288e-05,0.0,0.0,-0.0
101639423,-0.046107303,-0.042331316,0.00014170556,0.0,0.0,-0.0
101671314,-0.04578066,-0.04237194,7.508704e-05,0.0,0.0,-0.0
101703271,-0.04573582,-0.042512417,0.00015080672,0.0,0.0,-0.0
101735277,-0.0457146,-0.042433217,0.000118815195,0.0,0.0,-0.0
101767284,-0.045557752,-0.04262305,6.460728e-05,0.0,0.0,-0.0
101799416,-0.045606006,-0.04285143,0.00015157902,0.0,0.0,-0.0
101831266,-0.045578558,-0.042866655,0.00010157729,0.0,0.0,-0.0
101863311,-0.04577483,-0.04283701,0.0001721172,0.0,0.0,-0.0
101891280,-0.045640826,-0.043068126,9.3940595e-05,0.0,0.0,-0.0
101923280,-0.045724932,-0.043126665,0.00019463395,0.0,0.0,-0.0
101955287,-0.045852855,-0.04325018,0.00013429829,0.0,0.0,-0.0
101987318,-0.045851566,-0.043267976,6.52913e-05,0.0,0.0,-0.0
102019328,-0.045891594,-0.043118834,0.00021190775,0.0,0.0,-0.0
102051318,-0.04588087,-0.04302242,9.478461e-05,0.0,0.0,-0.0
102081717,-0.045883376,-0.043025084,0.00016879747,0.0,0.0,-0.0
102114467,-0.045844436,-0.042763148,0.000127366,0.0,0.0,-0.0
102146473,-0.045928553,-0.04291244,6.480834e-05,0.0,0.0,-0.0
102178479,-0.046199627,-0.04300033,0.0001550755,0.0,0.0,-0.0
102206512,-0.046229705,-0.04301717,6.578929e-05,0.0,0.0,-0.0
102238470,-0.046061788,-0.043065894,0.0002045396,0.0,0.0,-0.0
102270540,-0.046078447,-0.043176316,0.00010291365,0.0,0.0,-0.0
102302472,-0.046056844,-0.04316391,0.00030569918,0.0,0.0,-0.0
102334502,-0.046115074,-0.043086044,0.00014786361,0.0,0.0,-0.0
102366516,-0.04610167,-0.043140057,6.5956236e-05,0.0,0.0,-0.0
102398499,-0.04604993,-0.04326668,0.00023291467,0.0,0.0,-0.0
102430470,-0.046123654,-0.043556344,0.00010431411,0.0,0.0,-0.0
102458547,-0.046233594,-0.04356543,0.00017448023,0.0,0.0,-0.0
102490468,-0.04628907,-0.043500174,7.779472e-05,0.0,0.0,-0.0
102522508,-0.046053376,-0.043599505,0.00021114983,0.0,0.0,-0.0
102554478,-0.046065878,-0.043737844,0.00012478662,0.0,0.0,-0.0
102586547,-0.046128754,-0.043800347,6.73547e-05,0.0,0.0,-0.0
102618463,-0.045955785,-0.043801963,0.00014181688,0.0,0.0,-0.0
102650467,-0.04589943,-0.04377878,9.734116e-05,0.0,0.0,-0.0
102682492,-0.045914814,-0.043743763,0.00018417736,0.0,0.0,-0.0
102710513,-0.0459065,-0.04379903,8.558381e-05,0.0,0.0,-0.0
102742506,-0.045944422,-0.04364135,0.00018894905,0.0,0.0,-0.0
102774535,-0.045919623,-0.043639172,0.00013937883,0.0,0.0,-0.0
102806469,-0.045746896,-0.043570142,6.611592e-05,0.0,0.0,-0.0
102837681,-0.045670193,-0.043770455,0.00018104028,0.0,0.0,-0.0
102869697,-0.04570853,-0.043896735,6.636052e-05,0.0,0.0,-0.0
102901745,-0.04588242,-0.043934297,0.00017591377,0.0,0.0,-0.0
102933672,-0.04605314,-0.04376833,9.863278e-05,0.0,0.0,-0.0
102965744,-0.04609868,-0.04363214,0.00014737995,0.0,0.0,-0.0
102997696,-0.04605568,-0.043481905,0.0001140146,0.0,0.0,-0.0
103025705,-0.04631699,-0.043389875,0.00015252286,0.0,0.0,-0.0
103057712,-0.046282917,-0.04351101,0.00015961727,0.0,0.0,-0.0
103089702,-0.046454117,-0.04363528,6.665231e-05,0.0,0.0,-0.0
103121670,-0.046459418,-0.043761507,0.00013074101,0.0,0.0,-0.0
103153726,-0.046543438,-0.043802492,9.052803e-05,0.0,0.0,-0.0
103185743,-0.046634212,-0.04375116,0.0001392183,0.0,0.0,-0.0
103217770,-0.046616547,-0.043672655,0.00010353357,0.0,0.0,-0.0
103249688,-0.04668478,-0.043564405,6.7405934e-05,0.0,0.0,-0.0
103281737,-0.046861693,-0.043560445,7.7091936e-05,0.0,0.0,-0.0
103313706,-0.04689058,-0.043507047,8.827895e-05,0.0,0.0,-0.0
103345705,-0.046856135,-0.04360158,0.00013503055,0.0,0.0,-0.0
103377677,-0.04682955,-0.043693833,0.00011643418,0.0,0.0,-0.0
103409711,-0.04683026,-0.04390029,6.8323105e-05,0.0,0.0,-0.0
103441711,-0.047066946,-0.043887485,0.00012764125,0.0,0.0,-0.0
103473667,-0.047085997,-0.043736197,9.0861875e-05,0.0,0.0,-0.0
103505661,-0.04703828,-0.043742005,0.000119750344,0.0,0.0,-0.0
103537699,-0.047170527,-0.04377011,8.7976725e-05,0.0,0.0,-0.0
103569749,-0.047011953,-0.043643083,6.7610265e-05,0.0,0.0,-0.0
103601665,-0.04717351,-0.043694515,0.0001475467,0.0,0.0,-0.0
103632094,-0.047361903,-0.04373552,9.459662e-05,0.0,0.0,-0.0
103664144,-0.047231663,-0.043655947,0.00014781303,0.0,0.0,-0.0
103696891,-0.047435395,-0.0436103,0.00014063338,0.0,0.0,-0.0
103728903,-0.047438204,-0.043610957,6.827964e-05,0.0,0.0,-0.0
103760864,-0.047538098,-0.04362231,0.00014327785,0.0,0.0,-0.0
103792893,-0.0477084,-0.04362353,9.674787e-05,0.0,0.0,-0.0
103824900,-0.047324732,-0.04353648,0.00020763719,0.0,0.0,-0.0
103856870,-0.047283612,-0.043444883,0.0001146062,0.0,0.0,-0.0
103888878,-0.04707658,-0.043537166,6.725098e-05,0.0,0.0,-0.0
103920901,-0.047232743,-0.043590512,0.0001333693,0.0,0.0,-0.0
103952960,-0.047164097,-0.043601725,9.634115e-05,0.0,0.0,-0.0
103980960,-0.046931963,-0.04372004,0.00010402269,0.0,0.0,-0.0
104012945,-0.047045533,-0.043635815,7.812776e-05,0.0,0.0,-0.0
104044863,-0.046923485,-0.04358744,0.00017798168,0.0,0.0,-0.0
104076868,-0.04680187,-0.043539856,0.00011674429,0.0,0.0,-0.0
104108901,-0.046724316,-0.043545853,6.70179e-05,0.0,0.0,-0.0
104140913,-0.04667177,-0.043542996,0.0001230248,0.0,0.0,-0.0
104172897,-0.04660739,-0.043751296,6.994949e-05,0.0,0.0,-0.0
104204877,-0.046543464,-0.04371053,7.710722e-05,0.0,0.0,-0.0
104232958,-0.04644475,-0.043524258,8.262706e-05,0.0,0.0,-0.0
104264876,-0.04659879,-0.043569367,0.00012617666,0.0,0.0,-0.0
104296950,-0.046614207,-0.043498497,4.948948e-05,0.0,0.0,-0.0
104328068,-0.046541266,-0.04334856,6.6605324e-05,0.0,0.0,-0.0
104361665,-0.04647997,-0.043317076,0.00013117409,0.0,0.0,-0.0
104392076,-0.04655546,-0.04320753,7.147035e-05,0.0,0.0,-0.0
104424134,-0.04661165,-0.043275185,0.00014789798,0.0,0.0,-0.0
104456080,-0.046716653,-0.043391075,9.542649e-05,0.0,0.0,-0.0
104488125,-0.0467499,-0.04337432,0.00014252504,0.0,0.0,-0.0
104520096,-0.046809454,-0.043437723,0.00012200682,0.0,0.0,-0.0
104548122,-0.046699636,-0.043448556,0.00016347815,0.0,0.0,-0.0
104580093,-0.046603113,-0.04348448,7.371059e-05,0.0,0.0,-0.0
104612159,-0.04662036,-0.04337049,9.009756e-05,0.0,0.0,-0.0
104644067,-0.046645854,-0.043253634,7.918939e-05,0.0,0.0,-0.0
104676119,-0.046820007,-0.043241024,0.00013179696,0.0,0.0,-0.0
104708092,-0.046909556,-0.04333929,7.2793e-05,0.0,0.0,-0.0
104740152,-0.047191508,-0.043389734,9.2661416e-05,0.0,0.0,-0.0
104772096,-0.0471276,-0.043153018,9.943508e-05,0.0,0.0,-0.0
104800179,-0.047071937,-0.04309079,0.000111106,0.0,0.0,-0.0
104832080,-0.04686612,-0.04306993,9.950904e-05,0.0,0.0,-0.0
104864121,-0.0467629,-0.043017842,0.0001279478,0.0,0.0,-0.0
104896108,-0.04683919,-0.04302031,8.79526e-05,0.0,0.0,-0.0
104928176,-0.04671676,-0.04307361,0.00018157337,0.0,0.0,-0.0
104960072,-0.046660423,-0.043065876,0.00011801315,0.0,0.0,-0.0
104992136,-0.046604365,-0.042932607,8.361002e-05,0.0,0.0,-0.0
105024137,-0.04668405,-0.04288577,0.00015040833,0.0,0.0,-0.0
105056158,-0.04657977,-0.042819854,9.7233235e-05,0.0,0.0,-0.0
105088067,-0.046464406,-0.04275267,0.00016315968,0.0,0.0,-0.0
105120069,-0.0462206,-0.042771377,0.00014573186,0.0,0.0,-0.0
105151335,-0.046214037,-0.042779308,6.560936e-05,0.0,0.0,-0.0
105183362,-0.046199188,-0.042719062,0.00010800067,0.0,0.0,-0.0
105215278,-0.046234187,-0.04272405,7.649563e-05,0.0,0.0,-0.0
105247312,-0.04614229,-0.042807948,7.935344e-05,0.0,0.0,-0.0
105279401,-0.046190802,-0.042825982,7.5874756e-05,0.0,0.0,-0.0
105307328,-0.045953635,-0.04281473,0.00011199209,0.0,0.0,-0.0
105339353,-0.046013102,-0.04276862,8.352701e-05,0.0,0.0,-0.0
105371346,-0.046132058,-0.042942412,6.5569766e-05,0.0,0.0,-0.0
105403262,-0.04609087,-0.043176405,0.00011980056,0.0,0.0,-0.0
105435314,-0.04598866,-0.043152414,7.78164e-05,0.0,0.0,-0.0
105467296,-0.045955967,-0.04296448,0.000112219706,0.0,0.0,-0.0
105499411,-0.046066877,-0.04281612,9.125721e-05,0.0,0.0,-0.0
105531280,-0.0460981,-0.042971246,6.555493e-05,0.0,0.0,-0.0
105559396,-0.04589653,-0.043091513,0.00010854546,0.0,0.0,-0.0
105591268,-0.046031885,-0.043298516,6.562627e-05,0.0,0.0,-0.0
105623346,-0.046047624,-0.04307791,0.00013838308,0.0,0.0,-0.0
105655310,-0.04609302,-0.04301682,8.2998886e-05,0.0,0.0,-0.0
105687308,-0.04592829,-0.0430942,9.3282186e-05,0.0,0.0,-0.0
105719322,-0.04586906,-0.043085843,7.834445e-05,0.0,0.0,-0.0
105751355,-0.045776565,-0.043117654,6.538637e-05,0.0,0.0,-0.0
105783342,-0.04598873,-0.043085787,0.00010146663,0.0,0.0,-0.0
105811349,-0.04616473,-0.043066923,6.559957e-05,0.0,0.0,-0.0
105843303,-0.046055857,-0.043043844,0.00010173849,0.0,0.0,-0.0
105875318,-0.046017315,-0.043108366,7.434816e-05,0.0,0.0,-0.0
105907273,-0.04591822,-0.04320688,0.00016460962,0.0,0.0,-0.0
105939387,-0.045929037,-0.043045364,4.9395872e-05,0.0,0.0,-0.0
105970474,-0.04593315,-0.043169957,6.533358e-05,0.0,0.0,-0.0
106002477,-0.045833066,-0.04321985,0.00011234991,0.0,0.0,-0.0
106034475,-0.045880497,-0.0433087,5.741552e-05,0.0,0.0,-0.0
106066542,-0.045924913,-0.043256838,9.1048096e-05,0.0,0.0,-0.0
106098520,-0.04613394,-0.04325114,7.926612e-05,0.0,0.0,-0.0
106126519,-0.046158794,-0.043158233,6.073258e-05,0.0,0.0,-0.0
106158464,-0.046342302,-0.043084506,0.00010021714,0.0,0.0,-0.0
106190473,-0.04640768,-0.043085683,6.619087e-05,0.0,0.0,-0.0
106224100,-0.046484083,-0.042884305,0.00012074277,0.0,0.0,-0.0
106255337,-0.04655111,-0.042998716,9.2667884e-05,0.0,0.0,-0.0
106286464,-0.04654619,-0.042837486,0.0001593928,0.0,0.0,-0.0
106318510,-0.046350393,-0.042749587,0.0001178252,0.0,0.0,-0.0
106350485,-0.04640054,-0.04275837,6.525933e-05,0.0,0.0,-0.0
106378470,-0.046297964,-0.042762473,8.29558e-05,0.0,0.0,-0.0
106410489,-0.046215184,-0.042817395,6.54195e-05,0.0,0.0,-0.0
106760911,-0.046206623,-0.04296361,7.193094e-05,0.0,0.0,-0.0
106793713,-0.046108488,-0.042964805,6.503844e-05,0.0,0.0,-0.0
107584877,-0.046149004,-0.04244326,0.00015153395,0.0,0.0,-0.0
107616864,-0.046034016,-0.042443912,0.00010093536,0.0,0.0,-0.0
107648892,-0.045979004,-0.042407688,0.00014656562,0.0,0.0,-0.0
107676925,-0.046178408,-0.04230721,7.9129924e-05,0.0,0.0,-0.0
107708897,-0.046198312,-0.04222778,0.00014532835,0.0,0.0,-0.0
107740954,-0.046138447,-0.042012084,0.000110318084,0.0,0.0,-0.0
107772898,-0.04598958,-0.042066157,6.3923915e-05,0.0,0.0,-0.0
107804867,-0.046003476,-0.042070873,9.185999e-05,0.0,0.0,-0.0
107836903,-0.04604795,-0.04200367,8.460537e-05,0.0,0.0,-0.0
107868917,-0.046141937,-0.0420445,0.0002039829,0.0,0.0,-0.0
107900873,-0.046089493,-0.04196371,0.00011900074,0.0,0.0,-0.0
107928971,-0.04602509,-0.042088363,0.00011691665,0.0,0.0,-0.0
107960861,-0.04594535,-0.042130034,0.00012149708,0.0,0.0,-0.0
107992893,-0.0459999,-0.042150013,6.3938925e-05,0.0,0.0,-0.0
108024907,-0.046124592,-0.042177476,0.00017157251,0.0,0.0,-0.0
108056894,-0.046139274,-0.04228437,9.36217e-05,0.0,0.0,-0.0
108088861,-0.046245046,-0.042232692,0.00018587933,0.0,0.0,-0.0
108120151,-0.046181314,-0.042284187,0.0001216373,0.0,0.0,-0.0
108152938,-0.046305012,-0.04225533,6.480388e-05,0.0,0.0,-0.0
108184897,-0.04615111,-0.04236319,6.756077e-05,0.0,0.0,-0.0
108216115,-0.046129216,-0.04242299,9.681548e-05,0.0,0.0,-0.0
108248158,-0.046205405,-0.042344432,0.00019725127,0.0,0.0,-0.0
108280106,-0.046103463,-0.04253116,9.1222704e-05,0.0,0.0,-0.12
108312069,-0.046004012,-0.042581547,0.00016486368,0.0,0.0,-0.12
108344072,-0.04615636,-0.042531982,0.00021058726,0.0,0.0,-0.12
108376069,-0.045975737,-0.04262734,0.0003131478,0.0,0.0,-0.12
108408113,-0.04622622,-0.042688765,0.00014899585,0.0,0.0,-0.12
108440109,-0.0464051,-0.042797834,-0.0002375145,0.0,0.0,-0.12
108472108,-0.0463084,-0.043168806,-0.00044517286,0.0,0.0,-0.12
108504074,-0.046438236,-0.042989,0.00016098487,0.0,0.0,-0.12
108536144,-0.046356566,-0.043097034,0.0008236935,0.0,0.0,-0.12
108568106,-0.04644404,-0.042937227,0.00082914514,0.0,0.0,-0.12
108600098,-0.04663143,-0.043261874,0.00023881711,0.0,0.0,-0.12309605
108632074,-0.046560545,-0.043195527,-0.00017844746,0.0,0.0,-0.12918806
108664156,-0.046253935,-0.04320372,-2.2087599e-05,0.0,0.0,-0.1421721
108692137,-0.04601896,-0.043070138,0.0005211427,0.0,0.0,-0.14878291
108724123,-0.046344157,-0.043103803,0.0007493206,0.0,0.0,-0.16272157
108756070,-0.045693375,-0.04309877,-0.00010685608,0.0,0.0,-0.17654699
108788091,-0.044507507,-0.042504564,-0.001078451,0.0,0.0,-0.18316254
108820118,-0.041843902,-0.04220189,-0.00014953958,0.0,0.0,-0.19634926
108852143,-0.043559708,-0.043396935,0.0007553982,0.0,0.0,-0.20328471
108883295,-0.04527899,-0.04268199,0.0008272756,0.0,0.0,-0.21641713
108915290,-0.044019055,-0.04210151,0.00027679672,0.0,0.0,-0.23017034
108944089,-0.040500443,-0.042545833,0.00023460688,0.0,0.0,-0.23699987
108974518,-0.039909795,-0.042971298,0.0003316913,0.0,0.0,-0.24991429
109007347,-0.042918615,-0.042655505,0.0005396982,0.0,0.0,-0.25675786
109039368,-0.04265425,-0.04386907,0.00070699013,0.0,0.0,-0.27079818
109071308,-0.039749328,-0.042948723,0.00023948582,0.0,0.0,-0.27836406
109103276,-0.0426173,-0.04252994,0.0002617761,0.0,0.0,-0.2916599
109135339,-0.04180819,-0.043513983,0.00074420864,0.0,0.0,-0.30473304
109167299,-0.038893983,-0.045187224,0.0005123508,0.0,0.0,-0.3116945
109199407,-0.026354367,-0.043378837,0.00033585468,0.0,0.0,-0.32382667
109227282,-0.020350967,-0.04462023,-6.5161745e-05,0.0,0.0,-0.33022806
109259362,-0.0065099034,-0.040613104,0.0006448416,0.0,0.0,-0.34364372
109291306,0.004024671,-0.047553416,0.0005555199,0.0,0.0,-0.3499245
109323357,0.010795443,-0.049804073,-0.00071925955,0.0,0.0,-0.36504942
109355273,0.0044891406,-0.054320127,-0.00091099355,0.0,0.0,-0.37952676
109387274,-0.00068249856,-0.0539717,0.00020822692,0.0,0.0,-0.38693407
109419368,-0.0017976288,-0.05570565,0.0010146083,0.0,0.0,-0.39913958
109451324,0.010913362,-0.05441664,0.00013927264,0.0,0.0,-0.40784252
109479377,0.002399495,-0.060016464,-0.00077270647,0.0,0.0,-0.41986746
109511374,0.0073258765,-0.06261929,-6.944276e-05,0.0,0.0,-0.4293337
109543265,0.0015884837,-0.043829,-0.0015797587,0.0,0.0,-0.44145432
109575312,-0.008358895,-0.055628397,-0.0023446768,0.0,0.0,-0.4296304
109607302,0.0019197185,-0.063827544,-0.0016061591,0.0,0.0,-0.42054564
109639396,0.0060259365,-0.058792774,-0.0030418742,0.0,0.0,-0.39211592
109670472,-0.001431358,-0.043626036,-0.0032866048,0.0,0.0,-0.3834147
109701701,0.0034850743,-0.048648063,-0.003257098,0.0,0.0,-0.3711241
109734503,0.0067724288,-0.059116267,-0.0017994646,0.0,0.0,-0.3633868
109766560,0.002533282,-0.05465431,-0.0017799269,0.0,0.0,-0.372923
109794514,0.011864544,-0.058421094,-0.0039330763,0.0,0.0,-0.3884431
109826523,0.0073147207,-0.049715776,-0.0044895527,0.0,0.0,-0.4027189
109858473,0.009243332,-0.046707366,-0.0030289653,0.0,0.0,-0.43005136
109890491,-0.0032403455,-0.045181118,-0.0032242402,0.0,0.0,-0.42999494
109922503,-0.0014205928,-0.045271784,-0.0036632458,0.0,0.0,-0.4439195
109954543,-0.006181657,-0.056986902,-0.0030250878,0.0,0.0,-0.46987388
109986474,-0.0007129703,-0.04276637,-0.0036111642,0.0,0.0,-0.46988893
110018519,-0.008684355,-0.036038894,-0.004466191,0.0,0.0,-0.46567523
110046475,-0.0132725015,-0.039278276,-0.006234235,0.0,0.0,-0.46681732
110078493,-0.007324288,-0.0356891,-0.007763503,0.0,0.0,-0.4633663
110110511,0.03212147,-0.046536405,-0.01125356,0.0,0.0,-0.45898074
110142533,0.046644107,-0.060205095,-0.012098283,0.0,0.0,-0.4622357
110174469,0.06404254,-0.06332612,-0.014325236,0.0,0.0,-0.46062744
110206540,0.07698816,-0.057726607,-0.01583099,0.0,0.0,-0.45997792
110238506,0.05041087,-0.036677115,-0.017871693,0.0,0.0,-0.45665732
110270546,0.04570773,-0.013619942,-0.01818509,0.0,0.0,-0.45861286
110302471,0.046622097,0.0020396633,-0.019990528,0.0,0.0,-0.45643854
110334540,0.04058956,-0.007142336,-0.02085776,0.0,0.0,-0.4582262
110366513,0.033352885,-0.014287,-0.023912828,0.0,0.0,-0.45920083
110397685,0.03422724,-0.020934248,-0.027263613,0.0,0.0,-0.45634288
110429670,0.02354933,-0.0318432,-0.030535467,0.0,0.0,-0.45117122
110461733,0.017972877,-0.053547703,-0.033427443,0.0,0.0,-0.44659358
110494528,0.024923287,-0.05021175,-0.036180727,0.0,0.0,-0.44491002
110525707,0.04488808,-0.064777076,-0.038303178,0.0,0.0,-0.44383922
110557674,0.064013764,-0.05722648,-0.04091894,0.0,0.0,-0.446321
110589747,0.06562527,-0.069412,-0.042598423,0.0,0.0,-0.4459195
110621699,0.05453883,-0.055175085,-0.044344373,0.0,0.0,-0.44534212
110653709,0.036501843,-0.053169448,-0.04546335,0.0,0.0,-0.4458576
110685682,0.04017979,-0.03975431,-0.04702887,0.0,0.0,-0.44589955
110717770,0.036153246,-0.045392927,-0.046931677,0.0,0.0,-0.44816118
110749712,0.009405426,-0.046070807,-0.04839346,0.0,0.0,-0.44666794
110781670,0.010152918,-0.05636412,-0.047826532,0.0,0.0,-0.42807668
110813662,0.026733618,-0.018010873,-0.049420424,0.0,0.0,-0.4269308
110845705,0.03175305,-0.029433725,-0.050878987,0.0,0.0,-0.4619292
110877713,0.030631578,-0.033729106,-0.052936308,0.0,0.0,-0.48002014
110909689,0.034044854,-0.05797763,-0.053743444,0.0,0.0,-0.48756817
110941678,0.00012761026,-0.044604678,-0.053371936,0.0,0.0,-0.48151433
110973662,0.0067841327,-0.033777464,-0.054054666,0.0,0.0,-0.4800939
111005720,0.04404936,-0.031441346,-0.05513039,0.0,0.0,-0.4768346
111037670,0.06934381,-0.054331,-0.054891214,0.0,0.0,-0.47402394
111069688,0.062151574,-0.06483138,-0.05575419,0.0,0.0,-0.4726013
111101662,0.038685042,-0.061102595,-0.053891443,0.0,0.0,-0.47641423
111133750,0.03659392,-0.06510943,-0.0524829,0.0,0.0,-0.4816732
111165702,0.034244046,-0.048040442,-0.05020028,0.0,0.0,-0.4908288
111196917,0.06277847,-0.045139797,-0.04547812,0.0,0.0,-0.4936862
111226501,0.077598445,-0.054300793,-0.042137973,0.0,0.0,-0.49505332
111257704,0.06827878,-0.066645816,-0.039649624,0.0,0.0,-0.4881932
111289676,0.06492381,-0.05830062,-0.03570309,0.0,0.0,-0.4826258
111320907,0.078661524,-0.060461327,-0.032002613,0.0,0.0,-0.46776018
111352897,0.07667613,-0.060340323,-0.030702783,0.0,0.0,-0.46427122
111384890,0.054380737,-0.055392873,-0.030249408,0.0,0.0,-0.43963093
111416912,0.04733463,-0.05639963,-0.028289527,0.0,0.0,-0.4364951
111448917,0.06348723,-0.027994538,-0.026840739,0.0,0.0,-0.43802357
111480865,0.06630932,-0.023952425,-0.025901228,0.0,0.0,-0.44310018
111512905,0.0735345,-0.015275015,-0.02462111,0.0,0.0,-0.4471644
111540913,0.06521337,-0.022919692,-0.025467578,0.0,0.0,-0.45188403
111572910,0.050045352,-0.03678368,-0.024274487,0.0,0.0,-0.451043
111604942,0.049856786,-0.025672097,-0.024473365,0.0,0.0,-0.44315553
111636899,0.04815017,-0.018723996,-0.024379719,0.0,0.0,-0.44943324
111668862,0.058975924,-0.019719755,-0.02435013,0.0,0.0,-0.45479268
111700906,0.057246383,-0.029770877,-0.024432298,0.0,0.0,-0.46046448
111732930,0.0662788,-0.032881968,-0.02390452,0.0,0.0,-0.46480793
111764917,0.06510117,-0.04320027,-0.024267048,0.0,0.0,-0.4681689
111796871,0.052776344,-0.04668197,-0.022761736,0.0,0.0,-0.46547917
111828890,0.05546219,-0.037314862,-0.020446345,0.0,0.0,-0.4654097
111860906,0.048042316,-0.029355623,-0.017720496,0.0,0.0,-0.4694886
111892966,0.046534356,-0.032839295,-0.012993031,0.0,0.0,-0.47009355
111924873,0.053944618,-0.010374989,-0.010485967,0.0,0.0,-0.46711415
111956096,0.039989997,-0.005892158,-0.0071294494,0.0,0.0,-0.4678955
111988920,0.045110915,0.008509958,-0.004498536,0.0,0.0,-0.46640605
112023307,0.05472655,0.020089446,-0.0021235647,0.0,0.0,-0.46708828
112052098,0.02431298,0.009075325,-0.001076298,0.0,0.0,-0.4653125
112083322,-0.0038429576,0.0031388644,-4.667349e-07,0.0,0.0,-0.47861516
112116108,0.0018781847,-0.00034438615,3.3441014e-05,0.0,0.0,-0.51754916
112148164,0.024545245,0.005173051,0.0007404079,0.0,0.0,-0.5306535
112180086,0.062943995,-0.01826205,0.0010165061,0.0,0.0,-0.52638394
112212088,0.056931607,-0.040987488,-0.0014120291,0.0,0.0,-0.5315898
112244107,0.032235395,-0.03144716,-0.0030172186,0.0,0.0,-0.52289325
112276182,0.043492407,0.004095037,-0.005097045,0.0,0.0,-0.50364834
112304134,0.07939834,0.014669269,-0.006596311,0.0,0.0,-0.4904074
112336094,0.06823629,-0.010729851,-0.008567013,0.0,0.0,-0.47750875
112368067,0.05773484,-0.03970976,-0.01110832,0.0,0.0,-0.47587365
112400103,0.07787536,-0.02530115,-0.013868799,0.0,0.0,-0.46876442
112432134,0.11830909,0.0026992385,-0.016448926,0.0,0.0,-0.46772352
112464091,0.12712348,0.026107196,-0.019044766,0.0,0.0,-0.47837508
112496070,0.090502225,0.006922303,-0.019423058,0.0,0.0,-0.48334265
112528155,0.024309669,-0.035252362,-0.02035403,0.0,0.0,-0.4918511
112556078,0.01949998,-0.041627537,-0.023043502,0.0,0.0,-0.49334008
112588079,0.022293461,-0.034981944,-0.02468286,0.0,0.0,-0.49442455
112620129,0.034204006,-0.017554773,-0.025616167,0.0,0.0,-0.4902155
112652091,0.014500584,-0.016344417,-0.028493945,0.0,0.0,-0.48742798
112684073,0.0007722277,-0.032434292,-0.029827712,0.0,0.0,-0.48742652
112715319,0.006150776,-0.05562471,-0.030594636,0.0,0.0,-0.48314533
112747396,0.015263617,-0.056835126,-0.03283401,0.0,0.0,-0.4829212
112779335,0.034348257,-0.045427866,-0.034826163,0.0,0.0,-0.4866146
112811283,0.061216343,-0.037489094,-0.03505503,0.0,0.0,-0.48964095
112839358,0.042752318,-0.015954897,-0.0351345,0.0,0.0,-0.5087234
112871360,0.036603097,-0.009723203,-0.03491693,0.0,0.0,-0.5168574
112903293,0.017463274,-0.001415275,-0.036203135,0.0,0.0,-0.52859056
112935359,0.014284215,-0.011161456,-0.035468508,0.0,0.0,-0.52773255
112967267,0.0053259768,-0.034558136,-0.033987176,0.0,0.0,-0.5197378
112999378,0.0050102826,-0.04371271,-0.03170941,0.0,0.0,-0.5134446
113031304,0.017162977,-0.04442498,-0.030004818,0.0,0.0,-0.5103215
113063319,0.002640875,-0.042892054,-0.028782304,0.0,0.0,-0.50225836
113095287,-0.013822926,-0.046783764,-0.026802426,0.0,0.0,-0.49849328
113123307,0.00061140495,-0.03217148,-0.026002187,0.0,0.0,-0.4984782
113155274,0.010447146,-0.028133621,-0.02415546,0.0,0.0,-0.49381053
113187357,0.0037081435,-0.02723953,-0.022293696,0.0,0.0,-0.48907152
113219370,-0.008735978,-0.036806095,-0.020445086,0.0,0.0,-0.4823628
113251277,0.009072731,-0.037881654,-0.018601041,0.0,0.0,-0.48208308
113283269,0.029256932,-0.020884875,-0.016786678,0.0,0.0,-0.48152414
113315310,0.0007433862,0.0033716362,-0.015245687,0.0,0.0,-0.4745262
113347311,-0.01772831,-0.0009503723,-0.01340875,0.0,0.0,-0.4765014
113379370,-0.0028713848,-0.00862266,-0.012053178,0.0,0.0,-0.4833694
113411262,0.008808844,-0.012516647,-0.01089354,0.0,0.0,-0.48663193
113443304,0.0005021477,-0.028584765,-0.008957488,0.0,0.0,-0.4818661
113475363,-0.004657804,-0.037755128,-0.007949494,0.0,0.0,-0.47892538
113507275,0.021233695,-0.024638737,-0.008180808,0.0,0.0,-0.47765544
113538477,0.023800574,-0.019372037,-0.007973534,0.0,0.0,-0.47809127
113570543,0.019179774,-0.0066741267,-0.007362376,0.0,0.0,-0.47463766
113602503,0.009414492,-0.0142846,-0.0067995293,0.0,0.0,-0.4736373
113630527,-0.008813749,-0.010184935,-0.006530089,0.0,0.0,-0.47345126
113662520,-0.008356209,0.0003312644,-0.006115669,0.0,0.0,-0.48051438
113694510,-0.003905772,0.0020736246,-0.00540014,0.0,0.0,-0.48014572
113726465,0.026820034,-0.018092135,-0.0050070216,0.0,0.0,-0.48322573
113758532,0.032610312,-0.0116207125,-0.005167573,0.0,0.0,-0.4821294
113790509,0.02898263,-0.016336216,-0.0032550765,0.0,0.0,-0.4884872
113822553,0.00016440701,-0.021057835,-0.0017966476,0.0,0.0,-0.5067358
113854499,-0.017863635,-0.009252444,-0.0029945688,0.0,0.0,-0.5124164
113886493,0.0043562744,0.008674018,-0.003424298,0.0,0.0,-0.5149935
113918509,0.026073128,0.0011815897,-0.0040289876,0.0,0.0,-0.52829504
113950470,0.025946911,-0.020797849,-0.0035920565,0.0,0.0,-0.5377527
113982516,0.023910385,-0.021142945,-0.003850886,0.0,0.0,-0.55860746
114014491,0.018211449,-0.009595826,-0.0041897963,0.0,0.0,-0.5557199
114046513,0.006984502,-0.0045445105,-0.0048214872,0.0,0.0,-0.5444481
114078472,0.017324034,-0.009027731,-0.005390418,0.0,0.0,-0.527274
114106527,0.033668168,-0.032081157,-0.0045321696,0.0,0.0,-0.51407474
114138471,0.016590085,-0.034989152,-0.0061118486,0.0,0.0,-0.49424937
114170503,-0.0020701361,-0.013690744,-0.0059706615,0.0,0.0,-0.49068022
114202503,0.0007103804,0.004196241,-0.0047337674,0.0,0.0,-0.48720217
114234500,0.017636625,-0.0001198261,-0.0038873837,0.0,0.0,-0.49387264
114264069,0.032435518,-0.01897007,-0.0038662096,0.0,0.0,-0.4976811
114298498,0.02838102,-0.022639021,-0.003977431,0.0,0.0,-0.48197892
114329745,0.01414527,-0.015715778,-0.004076249,0.0,0.0,-0.46862233
114361675,0.00408204,-0.019298013,-0.0031409909,0.0,0.0,-0.4280458
114393674,-0.00019393676,-0.024415387,-0.0026041127,0.0,0.0,-0.39762172
114421675,0.008616072,-0.021766342,-0.0017710088,0.0,0.0,-0.36835802
114453705,0.024026956,0.0039617224,-0.0020178147,0.0,0.0,-0.3776033
114485689,0.03259548,0.01119573,-0.0008715823,0.0,0.0,-0.40187463
114517760,0.025622508,0.015265035,-0.0009043591,0.0,0.0,-0.41561794
114549683,0.013114815,0.022410596,-3.1056766e-06,0.0,0.0,-0.44770607
114581710,0.0070915064,0.010755674,-0.00034415568,0.0,0.0,-0.47756106
114613665,-0.006463955,-0.0009141826,-0.00042123153,0.0,0.0,-0.48311308
114645777,0.014077039,-0.008033789,-0.0003249465,0.0,0.0,-0.50035936
114677662,0.012362257,-0.019074887,-0.0020725997,0.0,0.0,-0.51048917
114709662,0.029749596,-0.022905985,-0.002347973,0.0,0.0,-0.5170552
114741686,0.033334486,-0.018824378,-0.0031657652,0.0,0.0,-0.5233545
114773715,0.024796322,-0.007571626,-0.00482404,0.0,0.0,-0.52492636
114805668,0.031271182,-0.016964033,-0.0046735834,0.0,0.0,-0.51898545
114837693,0.060034536,-0.022313602,-0.0053300764,0.0,0.0,-0.51768386
114869689,0.04332918,-0.023388399,-0.005989745,0.0,0.0,-0.5102321
114901721,0.010035639,-0.0202416,-0.0063011856,0.0,0.0,-0.50252616
114933706,0.009398668,0.008121629,-0.007078115,0.0,0.0,-0.49911
114965667,0.0316355,0.01179279,-0.0069261002,0.0,0.0,-0.4941039
114996900,0.036063146,-0.024701523,-0.005891937,0.0,0.0,-0.49507028
115029711,0.017428268,-0.06805063,-0.0062946742,0.0,0.0,-0.49405357
115060876,0.011051605,-0.0649813,-0.0060989126,0.0,0.0,-0.49524254
115093665,0.019089386,-0.01962864,-0.0053408677,0.0,0.0,-0.4964583
115124919,0.00753119,0.016174931,-0.004387115,0.0,0.0,-0.4986951
115152956,0.02448982,0.0049386374,-0.0029150299,0.0,0.0,-0.5004793
115184896,0.040035736,-0.011709847,-0.0054811006,0.0,0.0,-0.508161
115216907,0.06150866,-0.023080688,-0.004737673,0.0,0.0,-0.50764084
115248871,0.03862979,-0.018383682,-0.00418959,0.0,0.0,-0.5074259
115280868,0.0077329907,-0.00735646,-0.0042859353,0.0,0.0,-0.5031981
115312924,0.014754513,0.0068741655,-0.004504384,0.0,0.0,-0.50263673
115344920,0.036029823,0.011944847,-0.005152208,0.0,0.0,-0.4972664
115376882,0.028844647,0.016986065,-0.004705474,0.0,0.0,-0.49813202
115408882,0.012980997,0.026727526,-0.0041609425,0.0,0.0,-0.49438438
115440939,0.008049312,0.0146697145,-0.002885675,0.0,0.0,-0.49519747
115472948,0.0064916243,-0.00092149636,-0.0022595176,0.0,0.0,-0.49554363
115504902,0.005098772,0.007101535,-0.0017346593,0.0,0.0,-0.4933441
115536877,0.02287821,0.020885957,-0.0012997749,0.0,0.0,-0.49591577
115568934,0.022747735,0.027533162,-0.00059962354,0.0,0.0,-0.50237715
115600918,0.008159829,0.004364495,-0.00029475617,0.0,0.0,-0.5012812
115628926,0.00825972,-0.0046129785,-0.0021223407,0.0,0.0,-0.50457996
115660900,-0.012269771,-0.014866598,-0.0029103137,0.0,0.0,-0.5108836
115692940,-0.015044283,-0.022872731,-0.0038690963,0.0,0.0,-0.5077363
115724876,-0.014056577,-0.020526363,-0.0038271046,0.0,0.0,-0.51163644
115756931,-0.009794164,-0.02099955,-0.0023186086,0.0,0.0,-0.5122187
115788069,-0.0066005746,-0.016917288,-0.0025507887,0.0,0.0,-0.5101486
115820092,-0.0057391822,-0.008341463,-0.0038280191,0.0,0.0,-0.5122152
115852124,0.00909413,-0.003757022,-0.0039500636,0.0,0.0,-0.51015705
115884118,0.038840424,-0.014767539,-0.002295776,0.0,0.0,-0.51485735
115916100,0.040091425,-0.018893894,-0.0022840456,0.0,0.0,-0.5143066
115944143,0.01306981,-0.018516652,-0.0023997047,0.0,0.0,-0.50994486
115976115,-0.0074490407,-0.0019632839,-0.002155513,0.0,0.0,-0.50896597
116008075,0.013616965,0.0030152653,-0.0017357856,0.0,0.0,-0.50402737
116040111,0.03599185,0.0015995074,-0.0022492812,0.0,0.0,-0.49334037
116072138,0.018475492,0.00897948,-0.0022703463,0.0,0.0,-0.4920702
116104067,-0.0055068047,0.0057605193,-0.0022175305,0.0,0.0,-0.48826203
116136071,-0.005743589,0.005975715,-0.0023172437,0.0,0.0,-0.489963
116168136,0.0085514,-0.0009201546,-0.0017352717,0.0,0.0,-0.4909617
116200125,0.010045534,-0.005903838,-0.0015870717,0.0,0.0,-0.49139935
116232065,-0.002369702,-0.015498687,-0.0010651309,0.0,0.0,-0.4922043
116264075,-0.011006582,-0.011820352,-0.0015232667,0.0,0.0,-0.49613953
116296124,0.0025433896,0.0015154978,-0.0013574603,0.0,0.0,-0.493107
116328134,0.00078651874,-0.009109341,-0.00014849324,0.0,0.0,-0.49723697
116360091,-0.0056959265,-0.024733417,-0.0003160181,0.0,0.0,-0.49499193
116392120,-0.008815936,-0.024413966,-0.0010135091,0.0,0.0,-0.49484697
116420120,-0.008254916,-0.0145101175,-0.0010250185,0.0,0.0,-0.4984933
116452115,0.02938333,0.0044792346,-0.0010911919,0.0,0.0,-0.5014539
116482530,0.031388167,-0.0040983623,-0.0011637716,0.0,0.0,-0.5039269
116515263,-0.0022481787,-0.013367736,-0.0007966574,0.0,0.0,-0.50218344
116547318,-0.01497683,-0.010295281,-0.00087940536,0.0,0.0,-0.50781083
116578505,0.020891046,0.0073699527,-0.0009483374,0.0,0.0,-0.50939775
116611360,0.039513867,0.01212394,-0.0015433496,0.0,0.0,-0.50647706
116643269,0.022338228,0.0057688938,-0.0016801646,0.0,0.0,-0.50769734
116675285,0.028318657,0.0064578424,-0.0010229786,0.0,0.0,-0.50732946
116703283,0.013545899,0.0035696412,-0.0009908767,0.0,0.0,-0.5061592
116735295,-0.007845298,-0.008246087,-0.0009928471,0.0,0.0,-0.50852257
116767312,-0.020161266,-0.012826809,-0.0018959227,0.0,0.0,-0.50341964
116799390,-0.02526732,-0.0049722507,-0.002318337,0.0,0.0,-0.5078045
116831292,-0.0014946647,-0.006650943,-0.00034618773,0.0,0.0,-0.5035726
116863264,0.01527638,-0.018584423,-0.00043035677,0.0,0.0,-0.50379455
116895307,-0.0072887377,-0.026031643,-0.00083063944,0.0,0.0,-0.5023582
116927322,-0.020696947,-0.030037075,0.00014891013,0.0,0.0,-0.49856943
116955305,-0.0016092004,-0.021945568,-0.00056993915,0.0,0.0,-0.49903795
116987338,0.009105287,-0.018770942,0.0005033382,0.0,0.0,-0.49556193
117019330,-0.009099084,-0.011231583,0.0006734136,0.0,0.0,-0.49567363
117051308,-0.031481136,-0.0068767224,0.0007334291,0.0,0.0,-0.50079334
117083298,-0.035538543,-0.005073781,0.001410195,0.0,0.0,-0.5015936
117115366,-0.02180826,-0.014130461,0.001960142,0.0,0.0,-0.5016698
117147271,-0.00790383,-0.007640884,0.00064970955,0.0,0.0,-0.50617653
117179333,0.0041957456,0.007123656,-0.00030567238,0.0,0.0,-0.50662094
117207264,-0.021356812,0.0074256225,-0.00034614338,0.0,0.0,-0.5030898
117238493,-0.027360398,0.0031938183,-0.0004072689,0.0,0.0,-0.5048034
117270522,-0.024717603,-0.0050333207,-0.0011985427,0.0,0.0,-0.49964532
117300889,-0.045605514,-0.0054393443,-0.00013773605,0.0,0.0,-0.49839503
117331300,-0.04074526,-0.0012748046,-0.00022903389,0.0,0.0,-0.50084174
117363349,-0.02675895,0.0052815424,-0.00078749395,0.0,0.0,-0.49738145
117394465,-0.019265521,-0.015239939,-0.00030526522,0.0,0.0,-0.49833566
117426501,-0.028674066,-0.03290185,-0.000543347,0.0,0.0,-0.4949707
117458514,-0.039501455,-0.031418182,-0.0013019842,0.0,0.0,-0.49477574
117490486,-0.014755819,-0.013166493,-0.001004138,0.0,0.0,-0.4991053
117522484,0.012901648,-0.014834773,0.0007664228,0.0,0.0,-0.5022097
117550473,0.008480582,-0.031257406,0.00049447303,0.0,0.0,-0.5050612
117582477,0.008657254,-0.017511318,-0.00049248926,0.0,0.0,-0.5110086
117614498,-0.0049400567,-0.003221942,0.0003995169,0.0,0.0,-0.5146429
117646493,-0.022217698,-0.0057182508,0.0007976508,0.0,0.0,-0.5182319
117678478,-0.009770905,-0.018572845,0.0004818918,0.0,0.0,-0.5231191
117710473,0.0112400325,-0.013651339,-0.0004322262,0.0,0.0,-0.51833004
117742537,0.029401282,-0.0040589026,-0.0009463561,0.0,0.0,-0.516918
117774502,0.023895739,0.0025705276,-0.00013307795,0.0,0.0,-0.51645094
117802517,-0.0021363108,-0.004479144,4.4980305e-05,0.0,0.0,-0.51385635
117834465,-0.026676016,-0.016404083,0.0003894536,0.0,0.0,-0.5112521
117866475,-0.012723016,-0.0044408184,0.00039019765,0.0,0.0,-0.50627714
117898466,0.014517351,0.0043727015,0.00096266955,0.0,0.0,-0.503033
117930523,0.009866989,0.00053151674,0.00069945346,0.0,0.0,-0.49401715
117962507,-0.00041575968,0.0029004307,0.00026827608,0.0,0.0,-0.48633826
117993711,0.0061381543,0.006189027,0.0005508997,0.0,0.0,-0.48802337
118024920,0.011958527,0.008590581,0.00025996406,0.0,0.0,-0.48700806
118057700,0.02531595,0.0017162828,0.0012242235,0.0,0.0,-0.4881988
118089678,0.01602423,-0.001882647,0.00079448405,0.0,0.0,-0.4934219
118117722,-0.0074188393,-0.0230242,0.001929495,0.0,0.0,-0.49721903
118149691,-0.013785275,-0.019428063,0.0025822772,0.0,0.0,-0.5012785
118181671,-0.024249656,-0.020407084,0.003908673,0.0,0.0,-0.506883
118213739,-0.0132469265,-0.0074797575,0.0043809246,0.0,0.0,-0.5100836
118245722,0.0070196125,-0.006064823,0.0040664487,0.0,0.0,-0.5136677
118277742,0.0006881661,-0.0014619923,0.0020457904,0.0,0.0,-0.5087597
118309695,0.014897933,-0.009532131,0.0022613897,0.0,0.0,-0.51257414
118341690,0.021792082,-0.014796552,0.0015537571,0.0,0.0,-0.51024884
118373712,-0.00025335318,-0.006227671,0.00034019505,0.0,0.0,-0.5097844
118405668,-0.017473504,-0.00086802134,-0.00015433478,0.0,0.0,-0.5051158
118437666,-0.014786085,-0.002317721,-0.0006601225,0.0,0.0,-0.5065972
118469695,-0.0089725405,-0.01122931,-0.001053105,0.0,0.0,-0.5010778
118501775,-0.005491955,0.0043540755,-0.0014854496,0.0,0.0,-0.49993542
118533662,-0.0008536385,0.013312681,-0.0016863607,0.0,0.0,-0.49591887
118565688,-0.0015813002,0.0019741412,-0.0013855598,0.0,0.0,-0.4932623
118597697,-0.0030469901,-0.008314551,-0.0017549396,0.0,0.0,-0.49229437
118629764,0.0006556572,-0.014424397,-0.001768261,0.0,0.0,-0.49116153
118661661,-0.0028652132,-0.02355312,-0.002507832,0.0,0.0,-0.49486363
118693752,-0.002224446,-0.034062058,-0.0023552293,0.0,0.0,-0.49854228
118725707,-0.0132824555,-0.029271401,-0.0008052603,0.0,0.0,-0.5036901
118757749,-0.0006986138,-0.008573857,-0.0007067956,0.0,0.0,-0.5110919
118789707,0.018188972,-0.00982206,-0.00027285542,0.0,0.0,-0.5186182
118820896,0.016557295,-0.01563593,-3.428244e-06,0.0,0.0,-0.51614016
118848923,0.031674623,-0.0009620586,-0.0009666127,0.0,0.0,-0.5172642
118880889,0.036203824,-0.013100707,-0.00085788907,0.0,0.0,-0.5124545
118912957,0.023501704,-0.021136599,-0.0012716351,0.0,0.0,-0.51104754
118944908,0.0031589924,-0.022154432,-0.0010786775,0.0,0.0,-0.5024836
118976881,-0.0055660186,-0.019177161,-0.0016260872,0.0,0.0,-0.5002799
119008900,-0.0024849654,-0.0067798384,-0.0020304045,0.0,0.0,-0.49711996
119040904,0.017585889,-0.0014004133,-0.0021698067,0.0,0.0,-0.49309826
119072966,0.021886654,-0.0066439,-0.0014427133,0.0,0.0,-0.49544686
119100959,0.012793932,-0.0074017486,-0.0018778488,0.0,0.0,-0.49546522
119132895,0.0026096893,-0.018581511,-0.0016271845,0.0,0.0,-0.49466404
119164880,-0.02459339,-0.030527638,-0.0007724604,0.0,0.0,-0.5007117
119196883,-0.021869225,-0.023525331,-0.0016083472,0.0,0.0,-0.49739036
119228906,-0.006170915,-0.018585756,-0.0023686262,0.0,0.0,-0.49757183
119260871,-0.0030535164,-0.010914937,-0.0037401891,0.0,0.0,-0.49825272
119292910,0.0057139383,-0.020203592,-0.0030769617,0.0,0.0,-0.49572998
119324902,0.0017306772,-0.027160062,-0.0034356639,0.0,0.0,-0.49751034
119352958,-0.008027588,-0.01259047,-0.0046610944,0.0,0.0,-0.49517298
119384924,-0.0009465912,-0.0040222863,-0.005012208,0.0,0.0,-0.4963182
119416899,0.0016826617,-0.0014215508,-0.0045037074,0.0,0.0,-0.49697158
119448865,0.011374311,-0.0044491203,-0.0037961416,0.0,0.0,-0.4965735
119480882,0.033961862,0.014254672,-0.0055187666,0.0,0.0,-0.49907455
119512926,0.03916032,0.010281092,-0.005412385,0.0,0.0,-0.500624
119544901,0.00063969684,-0.0055803973,-0.0043857144,0.0,0.0,-0.50310445
119576873,-0.015939968,-0.024247412,-0.0042384956,0.0,0.0,-0.5043683
119607302,0.004749358,-0.011246089,-0.0051150597,0.0,0.0,-0.50809056
119640139,-0.007383561,-0.0065098777,-0.0057227835,0.0,0.0,-0.50440484
119668115,-0.011209733,-0.013066884,-0.004488667,0.0,0.0,-0.50647306
119700120,-0.011074427,-0.01763958,-0.005996777,0.0,0.0,-0.5064095
119732142,-0.005376136,-0.022701954,-0.006685034,0.0,0.0,-0.5036158
119764078,-0.015238823,-0.028415617,-0.006558288,0.0,0.0,-0.5086268
119796144,-0.017955456,-0.023081765,-0.0064765834,0.0,0.0,-0.5049169
119828126,-0.0090774065,0.006165026,-0.007669441,0.0,0.0,-0.50667286
119860154,-0.0024750964,0.012564064,-0.007753109,0.0,0.0,-0.50666136
119892092,-0.013996173,-0.003711275,-0.007329079,0.0,0.0,-0.5044326
119920189,-0.0122036785,-0.021340076,-0.00789724,0.0,0.0,-0.5047208
119952074,-0.010156321,-0.023675427,-0.008510242,0.0,0.0,-0.50563836
119984151,-0.0053071803,-0.00863206,-0.0082011,0.0,0.0,-0.5013577
120016129,-0.0029085898,-0.0073484746,-0.007846707,0.0,0.0,-0.5026335
120048162,-0.012610511,-0.007787577,-0.0077004186,0.0,0.0,-0.5011517
120080100,-0.019549185,0.010113246,-0.008962315,0.0,0.0,-0.50229675
120112152,-0.0058917273,0.014701299,-0.008020694,0.0,0.0,-0.5055726
120144142,-0.0035587798,0.010200544,-0.007878528,0.0,0.0,-0.50524575
120176197,-0.016029546,-0.011923843,-0.007573414,0.0,0.0,-0.50552654
120208066,-0.008146108,-0.018443033,-0.0070016286,0.0,0.0,-0.5050908
120239401,0.0066153537,-0.021436568,-0.0070409845,0.0,0.0,-0.501269
120272125,0.013975491,-0.017487537,-0.008057541,0.0,0.0,-0.50310135
120303313,-0.0048396974,-0.0073701786,-0.0077327527,0.0,0.0,-0.50222385
120335273,-0.008717959,-0.00661898,-0.007662489,0.0,0.0,-0.50161713
120367339,-0.017472968,-0.00882387,-0.007857667,0.0,0.0,-0.50433224
120399388,-0.007463666,-0.004823834,-0.007033848,0.0,0.0,-0.5032588
120431313,0.008120188,-0.0030820344,-0.006526373,0.0,0.0,-0.50413793
120463273,-0.0118625,-0.004135223,-0.0063498197,0.0,0.0,-0.50606674
120495324,-0.013866724,0.008823216,-0.005540426,0.0,0.0,-0.50411963
120527308,-0.017032897,0.0019187015,-0.0060447203,0.0,0.0,-0.50861925
120559393,-0.012436126,-0.008243422,-0.0067360117,0.0,0.0,-0.507685
120591271,0.00065168116,-0.011779073,-0.005546021,0.0,0.0,-0.50255287
120623329,0.01380097,-0.024917407,-0.005152149,0.0,0.0,-0.5037799
120651285,0.0100470735,-0.010912869,-0.006622831,0.0,0.0,-0.4991125
120683337,0.0043282863,-0.0016656045,-0.006608547,0.0,0.0,-0.5005438
120715297,0.0055747633,0.01006598,-0.005659506,0.0,0.0,-0.49881613
120747316,0.017521422,0.013612973,-0.0053285225,0.0,0.0,-0.4983644
120779333,0.008262831,0.005534563,-0.0062058633,0.0,0.0,-0.5002007
120811294,0.02160111,0.00036716365,-0.0060690506,0.0,0.0,-0.4957159
120843304,0.03355867,0.006638431,-0.00605864,0.0,0.0,-0.49525636
120875263,0.023018835,0.0019484379,-0.0059437067,0.0,0.0,-0.49412104
120903312,0.011631064,-0.002131544,-0.00540353,0.0,0.0,-0.49309486
120935304,-0.002998582,-0.008216981,-0.005454893,0.0,0.0,-0.49360168
120967273,-0.008944115,0.0029614454,-0.005112601,0.0,0.0,-0.49374446
120998518,0.022714783,0.0034631463,-0.0041601374,0.0,0.0,-0.49477434
121031298,0.046592996,0.0010948789,-0.0037180313,0.0,0.0,-0.5016677
121062513,0.043568283,0.0015599189,-0.00377599,0.0,0.0,-0.50011504
121094486,0.019081878,-0.0034053433,-0.0033619243,0.0,0.0,-0.50692713
121126537,0.0052494705,0.00079281663,-0.0036142606,0.0,0.0,-0.5068474
121158467,-0.0067671486,-0.0005880678,-0.004549596,0.0,0.0,-0.506181
121190512,-0.019025436,0.010380187,-0.004974306,0.0,0.0,-0.5071685
121222495,-0.012066334,0.0072083604,-0.004705584,0.0,0.0,-0.5043541
121254532,-0.0019040011,-0.0074374406,-0.004741457,0.0,0.0,-0.5050907
121286468,-0.007462082,-0.028025886,-0.0051045106,0.0,0.0,-0.50131994
121318507,-0.018105004,-0.029822811,-0.0057659205,0.0,0.0,-0.5017928
121350506,-0.017920103,-0.007102126,-0.00691425,0.0,0.0,-0.4985638
121382499,-0.008442604,0.00063545996,-0.0066431696,0.0,0.0,-0.5023469
121414519,-0.0013168637,-0.0049476046,-0.006127207,0.0,0.0,-0.4986106
121446462,0.006920636,-0.0029523561,-0.0069537596,0.0,0.0,-0.4976886
121478499,0.013745607,0.0026711232,-0.007858222,0.0,0.0,-0.49435005
121510502,0.005733937,-0.009639484,-0.008385725,0.0,0.0,-0.4963202
121542478,-0.013276855,-0.010969712,-0.0077596647,0.0,0.0,-0.49208856
121574496,-0.026037628,0.0003879914,-0.00805119,0.0,0.0,-0.49542215
121606492,-0.031248681,0.012044024,-0.0078893835,0.0,0.0,-0.4943334
121638518,-0.017239671,0.023088047,-0.008317054,0.0,0.0,-0.49593136
121670570,0.004904164,0.011612189,-0.0076749003,0.0,0.0,-0.50065476
121702481,-0.00882501,-0.0060599926,-0.0067569446,0.0,0.0,-0.49892998
121734508,-0.0006259142,-0.009564471,-0.0067872116,0.0,0.0,-0.50258803
121765695,0.032065317,0.009114985,-0.00758863,0.0,0.0,-0.50122887
121797669,0.048107862,0.013012937,-0.006939788,0.0,0.0,-0.50151575
121829673,0.033442724,0.0027830168,-0.0070764683,0.0,0.0,-0.51047736
121861692,0.034747336,0.0057855234,-0.007186716,0.0,0.0,-0.5088786
121893695,0.02809944,0.013011637,-0.0071822,0.0,0.0,-0.51267105
121925673,0.022791376,0.013115471,-0.007015616,0.0,0.0,-0.5063702
121953743,0.027014581,0.029367203,-0.0072992416,0.0,0.0,-0.5070989
121985674,0.03284427,0.024625055,-0.007264127,0.0,0.0,-0.5060293
122017674,0.025645908,0.026456624,-0.0074071605,0.0,0.0,-0.504474
122049692,0.023422709,0.031588744,-0.0072805225,0.0,0.0,-0.5038621
122081731,0.023643505,0.019690802,-0.007164979,0.0,0.0,-0.5005693
122113668,0.025101267,0.0074291946,-0.0078123035,0.0,0.0,-0.49744108
122145672,0.016944624,0.0006855882,-0.0085959155,0.0,0.0,-0.49409133
122177699,0.0061168354,-0.0063393423,-0.008753018,0.0,0.0,-0.49174726
122205686,-0.005359936,-0.018456582,-0.007969177,0.0,0.0,-0.49070346
122237725,0.007847206,-0.011652435,-0.0081777405,0.0,0.0,-0.48706296
122269711,0.0069321976,-0.011102777,-0.008413413,0.0,0.0,-0.4928353
122301668,-0.016982846,-0.0057024774,-0.008808793,0.0,0.0,-0.49086654
122333680,-0.017543847,-0.0049755713,-0.008831659,0.0,0.0,-0.4929786
122365751,-0.003987105,-0.005975303,-0.0086574685,0.0,0.0,-0.49397728
122397701,0.006087605,-0.014063807,-0.009203946,0.0,0.0,-0.49282715
122429734,-0.00023313108,-0.011210844,-0.010146108,0.0,0.0,-0.49462098
122461662,-0.0057150694,-0.0043969043,-0.00917422,0.0,0.0,-0.49327457
122493704,-0.012403769,-0.012799848,-0.0090210335,0.0,0.0,-0.49514183
122525708,-0.0038001114,-0.002971961,-0.009907208,0.0,0.0,-0.49538422
122557703,0.013268513,0.015668556,-0.010640522,0.0,0.0,-0.49365023
122589709,0.015644912,0.01569533,-0.010693144,0.0,0.0,-0.49742794
122621701,-0.013786856,-0.0060778204,-0.01038087,0.0,0.0,-0.4985761
122652955,-0.021817539,-0.026452577,-0.010327988,0.0,0.0,-0.50013787
122684876,-0.022115627,-0.027250431,-0.011735564,0.0,0.0,-0.5013926
122712994,-0.015184026,-0.01553066,-0.011474007,0.0,0.0,-0.506298
122744867,-0.00927031,0.0022267618,-0.01171194,0.0,0.0,-0.50813067
122776948,-0.015465019,-0.0035588073,-0.010511609,0.0,0.0,-0.5046521
122808898,-0.00908074,-0.019427102,-0.008803754,0.0,0.0,-0.50335115
122840874,-0.0015304502,-0.030235182,-0.009160555,0.0,0.0,-0.5051088
122872894,0.006057463,-0.01781783,-0.009706128,0.0,0.0,-0.5039142
122904911,0.014350242,-0.004610493,-0.009383471,0.0,0.0,-0.50252795
122936907,0.01869193,-0.011995785,-0.0092745405,0.0,0.0,-0.50775486
122964915,0.007730317,-0.0051730466,-0.010306827,0.0,0.0,-0.5044869
122996917,0.014699581,0.002814145,-0.009586523,0.0,0.0,-0.5037665
123028884,0.015726812,0.011309127,-0.008249331,0.0,0.0,-0.5059872
123060862,0.0068628322,0.0055520255,-0.00791049,0.0,0.0,-0.5077395
123092932,0.004925723,0.0038927628,-0.0075536985,0.0,0.0,-0.5042637
123124937,0.013798134,0.0069781723,-0.0072538154,0.0,0.0,-0.5074819
123156873,0.004379856,0.0001965944,-0.006308095,0.0,0.0,-0.5022522
123188902,-0.0036880374,0.0024539288,-0.0052669146,0.0,0.0,-0.5030954
123220885,0.012889534,0.0069936933,-0.0041067754,0.0,0.0,-0.50112885
123252133,0.019451316,0.008497211,-0.0044922195,0.0,0.0,-0.5013367
123284865,0.010329781,-0.0013719017,-0.0039400156,0.0,0.0,-0.49886483
123315337,-0.0059262393,-0.012018978,-0.0032154159,0.0,0.0,-0.50005233
123348114,-0.012815106,-0.00051512563,-0.00350846,0.0,0.0,-0.49786976
123380124,0.0042510116,-0.0004597652,-0.0031754551,0.0,0.0,-0.50213265
123412070,0.0051652608,-0.036121592,-0.0031184854,0.0,0.0,-0.5010908
123444094,0.004602099,-0.084317416,-0.0034162607,0.0,0.0,-0.5011237
123476152,-0.0005163404,-0.13787055,-0.0037138257,0.0,0.0,-0.5000721
123504079,0.0074060755,-0.15922268,-0.0038295935,0.0,0.0,-0.4978252
123536149,-0.005072588,-0.2173598,-0.0038022809,0.0,0.0,-0.49452397
123568124,-0.0071890843,-0.27526617,-0.003401007,0.0,0.0,-0.49441364
123600064,0.002768502,-0.27989906,-0.0025406347,0.0,0.0,-0.4953061
123632106,0.0024867635,-0.31195676,-0.0027086558,0.0,0.0,-0.5009937
123664108,-0.005371131,-0.2355206,-0.002891969,0.0,0.0,-0.49737623
123696110,-0.0064616203,-0.21511558,-0.0028727548,0.0,0.0,-0.5028867
123728108,-0.011002915,-0.23889774,-0.0025778878,0.0,0.0,-0.5037233
123760112,-0.020225182,-0.21091218,-0.0036114154,0.0,0.0,-0.5043752
123792111,-0.015249143,-0.18871355,-0.0036432245,0.0,0.0,-0.5093966
123824170,0.007383573,-0.1597558,-0.0040358696,0.0,0.0,-0.5077305
