timestamp,rollspeed,pitchspeed,yawspeed,rollspeed_integ,pitchspeed_integ,yawspeed_integ,additional_integ1
93508074,0.0012414524,0.0012413422,-0.00019648863,0.0,0.0,0.0,0.0
93540014,-0.0010329895,0.00052243075,0.0005945585,0.0,0.0,0.0,0.0
93568062,-0.00016886322,-0.00010844751,0.00029630182,0.0,0.0,0.0,0.0
93600028,-2.584071e-06,0.001284309,-0.0010406864,0.0,0.0,0.0,0.0
93631259,-0.00051901955,-9.417202e-05,-0.00029356597,0.0,0.0,0.0,0.0
93664053,-0.00024608173,0.00027201467,0.0010031745,0.0,0.0,0.0,0.0
93695250,0.00032459327,-0.00045754173,-0.00038418977,0.0,0.0,0.0,0.0
93727226,0.00035520562,0.00082128565,0.0006007921,0.0,0.0,0.0,0.0
93759338,0.00062076305,-0.00015733446,-0.0008718524,0.0,0.0,0.0,0.0
93791244,-0.002204605,-0.0010728119,-0.0005675658,0.0,0.0,0.0,0.0
93823261,0.00037370564,0.001202996,-0.0008016709,0.0,0.0,0.0,0.0
93855209,0.0004111434,-0.0007174075,0.00033105502,0.0,0.0,0.0,0.0
93883251,0.00068828935,0.00017922177,-0.00064940815,0.0,0.0,0.0,0.0
93915212,0.00032827095,-0.0008926184,0.0008294928,0.0,0.0,0.0,0.0
93947294,-0.00012162642,0.00031168794,-0.0006351098,0.0,0.0,0.0,0.0
93979310,5.1935087e-05,-0.00077731203,0.00028341624,0.0,0.0,0.0,0.0
94011253,-0.0013841114,-0.00065003475,-0.0007091209,0.0,0.0,0.0,0.0
94043222,-0.000108979875,0.00053947285,0.00065810746,0.0,0.0,0.0,0.0
94075279,0.00050340185,-0.00027238257,-0.0015067084,0.0,0.0,0.0,0.0
94107262,0.00012380572,0.0012271324,0.00027170207,0.0,0.0,0.0,0.0
94135262,5.6041637e-05,0.00075121666,6.493003e-05,0.0,0.0,0.0,0.0
94167205,0.0010423263,0.0004459169,0.00076058344,0.0,0.0,0.0,0.0
94199309,0.0002096073,0.0005002965,0.00011359306,0.0,0.0,0.0,0.0
94231220,0.001471159,2.5476038e-06,-0.0008030492,0.0,0.0,0.0,0.0
94263278,0.00097403437,-0.0001313366,5.9446123e-05,0.0,0.0,0.0,0.0
94295210,-0.00011247734,-0.00057333335,-0.00082363683,0.0,0.0,0.0,0.0
94327243,0.00050501374,-0.00021251437,0.00062145793,0.0,0.0,0.0,0.0
94358446,-0.0001851786,0.0006944238,-5.9638973e-05,0.0,0.0,0.0,0.0
94390500,0.0008195167,-1.4430814e-05,0.00073194364,0.0,0.0,0.0,0.0
94419311,-0.0003519297,-0.0008970743,-0.000258682,0.0,0.0,0.0,0.0
94451290,-0.00034459098,0.00074124103,0.0012483452,0.0,0.0,0.0,0.0
94482421,-2.7687172e-05,0.00042588657,-0.000629174,0.0,0.0,0.0,0.0
94514422,-4.299241e-05,-0.0014782735,-0.00033383333,0.0,0.0,0.0,0.0
94546433,0.0002531238,-0.0007416473,0.00034253427,0.0,0.0,0.0,0.0
94578447,9.797432e-05,0.0012205784,-0.00066719553,0.0,0.0,0.0,0.0
94610421,-0.0011981023,-0.000543276,0.0002681908,0.0,0.0,0.0,0.0
94642447,0.00010987208,-0.0005968313,-0.00086271093,0.0,0.0,0.0,0.0
94674424,-0.0024148945,0.00080541807,-2.4377558e-05,0.0,0.0,0.0,0.0
94702447,0.001183084,-0.0006141537,-0.00025136478,0.0,0.0,0.0,0.0
94734437,0.0013446009,-0.00050122634,-0.00065932213,0.0,0.0,0.0,0.0
94766416,-0.0015205422,-9.61801e-05,0.00013513588,0.0,0.0,0.0,0.0
94798411,-0.0014428713,6.306259e-05,0.00043890683,0.0,0.0,0.0,0.0
94830431,0.00012219022,-0.00047907038,0.00024246078,0.0,0.0,0.0,0.0
94862444,0.0007073388,-0.0012126588,-0.00045519823,0.0,0.0,0.0,0.0
94894484,0.00027348672,-0.0002346033,0.00014018605,0.0,0.0,0.0,0.0
94926427,0.00061442715,-0.00078191096,-0.00030035275,0.0,0.0,0.0,0.0
94958459,0.00012373668,-0.0006473278,0.00087438006,0.0,0.0,0.0,0.0
94990436,-0.00023336418,0.00024423646,0.000101717305,0.0,0.0,0.0,0.0
95022483,0.0008922637,-0.00043147715,0.00018715566,0.0,0.0,0.0,0.0
95054430,-0.00091511337,-0.0008349911,-4.964744e-05,0.0,0.0,0.0,0.0
95086479,-0.0005730977,-0.00052745396,4.03186e-05,0.0,0.0,0.0,0.0
95118434,0.00012337288,-0.001086291,0.00048435683,0.0,0.0,0.0,0.0
95149645,0.00019387237,-0.00016969847,0.0014101526,0.0,0.0,0.0,0.0
95180060,0.00015198009,-0.00070120173,-0.0007508907,0.0,0.0,0.0,0.0
95209616,0.0005234056,-0.0018231646,-0.0003961012,0.0,0.0,0.0,0.0
95241623,0.0006092667,-0.00014582227,0.0010461663,0.0,0.0,0.0,0.0
95273639,0.00031940232,-0.000254064,-0.0010977966,0.0,0.0,0.0,0.0
95305648,0.00037006126,-0.00096087775,3.272055e-05,0.0,0.0,0.0,0.0
95337610,-0.0004155148,-0.00070078415,-0.0007589093,0.0,0.0,0.0,0.0
95369616,-0.00029186707,-0.00013294345,-0.002192882,0.0,0.0,0.0,0.0
95401623,0.0010779533,-0.00018469567,-0.0009340624,0.0,0.0,0.0,0.0
95433644,-0.00071141904,5.810996e-05,-0.0012904333,0.0,0.0,0.0,0.0
95465656,-0.00026524905,-0.0010743189,-0.00030208303,0.0,0.0,0.0,0.0
95497620,-0.0017458065,-9.4864605e-05,2.2829627e-05,0.0,0.0,0.0,0.0
95529648,-0.0011454051,0.00011858129,-0.0012309484,0.0,0.0,0.0,0.0
95561638,0.00022702722,-0.00024341841,0.0011359404,0.0,0.0,0.0,0.0
95593663,-0.00011954026,0.0004924767,-0.0008404668,0.0,0.0,0.0,0.0
95625617,-0.0013898395,0.00015759218,0.0005193036,0.0,0.0,0.0,0.0
95657640,0.0001313131,-0.00071196345,0.00047769997,0.0,0.0,0.0,0.0
95689660,-0.00060361356,0.0006948927,-0.0007065451,0.0,0.0,0.0,0.0
95717638,0.001312559,-0.0009993003,-0.000467457,0.0,0.0,0.0,0.0
95749658,-0.00031067594,-0.0007664309,-0.00011255814,0.0,0.0,0.0,0.0
95781630,0.00030834437,-0.00028864737,-0.00024155204,0.0,0.0,0.0,0.0
95813610,-0.0008436615,-0.0004425065,-0.0011570829,0.0,0.0,0.0,0.0
95845666,0.0010240353,-0.0007948406,-0.0004994758,0.0,0.0,0.0,0.0
95877661,5.0301547e-05,-0.001047668,0.0001096917,0.0,0.0,0.0,0.0
95909647,-0.00058537896,-7.0004986e-05,0.0015661207,0.0,0.0,0.0,0.0
95940104,-0.00039730628,-7.615858e-05,0.0005442635,0.0,0.0,0.0,0.0
95972887,-0.00058826513,-8.3472e-05,0.00070524425,0.0,0.0,0.0,0.0
96000070,0.00026186137,-8.7726454e-05,0.00058847264,0.0,0.0,0.0,0.0
96036064,-0.00025619857,-0.00041564912,-0.00012347894,0.0,0.0,0.0,0.0
96064816,-0.0013233675,0.00016704481,0.0007193875,0.0,0.0,0.0,0.0
96095213,0.00075774203,6.171272e-05,-5.918891e-05,0.0,0.0,0.0,0.0
96130421,-0.0007647871,0.0008799057,-0.00056042103,0.0,0.0,0.0,0.0
96161659,0.0009808014,-0.00021702278,-0.0009330409,0.0,0.0,0.0,0.0
96192840,-0.00042902085,-0.00030010458,-0.00067983055,0.0,0.0,0.0,0.0
96224827,0.00019008038,0.0006431601,0.00019029909,0.0,0.0,0.0,0.0
96256814,-0.00050296285,-0.001473947,-0.00056812284,0.0,0.0,0.0,0.0
96288846,-0.00023929111,0.0011329432,-0.0019385967,0.0,0.0,0.0,0.0
96320810,-0.0005335008,0.00040259713,-0.00035430412,0.0,0.0,0.0,0.0
96352858,-3.0422583e-05,-0.00019519951,-0.00013873073,0.0,0.0,0.0,0.0
96384840,0.0007640186,-0.0011588113,-0.00018408138,0.0,0.0,0.0,0.0
96416876,0.00026764523,9.366617e-05,0.0016031098,0.0,0.0,0.0,0.0
96448821,-0.00051837915,-0.0006473367,-0.00040378756,0.0,0.0,0.0,0.0
96480853,-0.0012536944,-0.0006379112,-0.0007104818,0.0,0.0,0.0,0.0
96512840,-0.00075707084,0.00047741598,-0.0008045493,0.0,0.0,0.0,0.0
96544877,0.001269867,-0.00029269975,-9.690327e-05,0.0,0.0,0.0,0.0
96576856,-0.00035972882,0.00027680944,-0.0006225541,0.0,0.0,0.0,0.0
96608817,-0.0008354393,-0.0003213013,0.00050451444,0.0,0.0,0.0,0.0
96640816,0.0006723647,9.933117e-05,0.0012118284,0.0,0.0,0.0,0.0
96672878,2.2152904e-05,-0.0006074172,-0.00018507183,0.0,0.0,0.0,0.0
96701610,-0.00024018716,-0.00041044765,0.00033038907,0.0,0.0,0.0,0.0
96732045,0.0009153082,1.3376994e-06,-0.0015412255,0.0,0.0,0.0,0.0
96764033,0.0005109047,4.9181777e-05,-0.00031117912,0.0,0.0,0.0,0.0
96796031,-0.0006491906,-0.00041558038,0.0001848301,0.0,0.0,0.0,0.0
96828061,-0.00027360534,-0.0009497511,0.0005167454,0.0,0.0,0.0,0.0
96860103,1.950888e-06,0.00011780692,-0.00016909592,0.0,0.0,0.0,0.0
96892019,0.0002331885,0.00036311214,0.00055061956,0.0,0.0,0.0,0.0
96924032,0.00068281573,-0.0005740448,0.00045633083,0.0,0.0,0.0,0.0
96956062,0.0009947708,-0.00014488245,0.00070978946,0.0,0.0,0.0,0.0
96984017,4.6240166e-06,0.00034842474,-0.0011327623,0.0,0.0,0.0,0.0
97016077,-0.002063713,-0.00031460632,-0.00018574187,0.0,0.0,0.0,0.0
97048056,-8.0881524e-05,8.191168e-05,-0.0012365694,0.0,0.0,0.0,0.0
97080014,-0.0008637698,-0.0006680108,0.00012401643,0.0,0.0,0.0,0.0
97112057,-0.00012690248,0.0001831264,-0.00010780903,0.0,0.0,0.0,0.0
97144035,0.00023566943,-0.00090492226,-0.00088473485,0.0,0.0,0.0,0.0
97176084,-0.00030916138,-0.00038129467,-0.0012402222,0.0,0.0,0.0,0.0
97208015,-0.0004278433,-0.0001088829,-0.0006175969,0.0,0.0,0.0,0.0
97236015,-0.0008589709,0.001819813,-0.00055384147,0.0,0.0,0.0,0.0
97268030,-0.001977332,-0.00051204965,-0.0004472168,0.0,0.0,0.0,0.0
97300043,-0.0010219066,0.00084371975,-0.0013223846,0.0,0.0,0.0,0.0
97332041,-0.00086462917,-0.0014657899,-6.707318e-05,0.0,0.0,0.0,0.0
97364098,0.00021487148,0.0016733373,0.00016433196,0.0,0.0,0.0,0.0
97396015,-0.0001339314,2.585235e-06,-0.0010627244,0.0,0.0,0.0,0.0
97428059,0.0011354741,0.00069115934,-0.0013084265,0.0,0.0,0.0,0.0
97459310,2.0079198e-05,-0.00010087373,0.0004585045,0.0,0.0,0.0,0.0
97491223,0.000119286124,0.0005496394,-1.8345716e-05,0.0,0.0,0.0,0.0
97523213,-0.00028046954,-0.0006824961,-0.0007003674,0.0,0.0,0.0,0.0
97551233,0.0006297885,-5.2799995e-05,-0.00031092617,0.0,0.0,0.0,0.0
97583259,0.00032575184,-0.00065947557,0.00063942594,0.0,0.0,0.0,0.0
97615240,-0.0008552682,-0.0007555878,-0.0010918493,0.0,0.0,0.0,0.0
97647236,-0.00077092473,8.383521e-05,-0.0003229361,0.0,0.0,0.0,0.0
97679295,0.001494011,0.0011808772,-0.00056680787,0.0,0.0,0.0,0.0
97711232,-0.00042156863,-5.7872356e-05,-0.0005323999,0.0,0.0,0.0,0.0
97743239,0.0007966095,0.00079449546,-0.00038612683,0.0,0.0,0.0,0.0
97775236,-0.00055395963,-0.00024442867,-0.0012880117,0.0,0.0,0.0,0.0
97803232,-0.00075562566,0.0011843303,-0.00021857648,0.0,0.0,0.0,0.0
97835293,-0.001045557,0.00027525518,0.000349957,0.0,0.0,0.0,0.0
97867214,-0.00047263165,5.6099176e-05,0.00086841476,0.0,0.0,0.0,0.0
97899279,-0.0014521559,0.00015606594,-0.00025330507,0.0,0.0,0.0,0.0
97931240,-0.0006031146,-0.00019878862,-0.0007385585,0.0,0.0,0.0,0.0
97963253,0.00078526343,0.00072124,-0.0013264555,0.0,0.0,0.0,0.0
97995209,0.00025867275,0.0009797629,-0.0010260317,0.0,0.0,0.0,0.0
98027239,0.0007792774,-0.0005366147,0.00014508815,0.0,0.0,0.0,0.0
98059293,-1.938839e-05,0.0011891306,5.2054093e-05,0.0,0.0,0.0,0.0
98087252,0.0004578675,0.00031400617,-0.0010314184,0.0,0.0,0.0,0.0
98119310,0.00036670908,0.0011441207,-0.00020122994,0.0,0.0,0.0,0.0
98151234,-0.00082082057,0.00032139642,0.0011241,0.0,0.0,0.0,0.0
98183215,0.00069639215,-0.0010641213,3.986017e-05,0.0,0.0,0.0,0.0
98215244,-0.00040621427,0.0002887569,3.0097755e-05,0.0,0.0,0.0,0.0
98248046,-7.751549e-05,-0.00059987715,-0.00037487314,0.0,0.0,0.0,0.0
98278459,-0.00068690174,-0.00022371428,-0.0003226716,0.0,0.0,0.0,0.0
98310416,-0.00084782124,0.0015901993,-0.0005215209,0.0,0.0,0.0,0.0
98342505,-0.0008235065,-0.00013475426,0.0006053464,0.0,0.0,0.0,0.0
98374464,-0.0012183663,0.0009281521,-9.974401e-05,0.0,0.0,0.0,0.0
98406454,-0.0011678349,0.00047004668,6.498239e-05,0.0,0.0,0.0,0.0
98438417,0.0001740763,0.0016351768,0.00034938674,0.0,0.0,0.0,0.0
98470450,6.541074e-05,0.0001063878,0.00031033964,0.0,0.0,0.0,0.0
98502446,0.0010168893,0.0005913834,-0.00070811354,0.0,0.0,0.0,0.0
98534410,0.00013793423,0.0012591827,-0.00033491236,0.0,0.0,0.0,0.0
98566447,0.0008364984,0.0010142791,0.00036190823,0.0,0.0,0.0,0.0
98598411,-0.0004134581,8.422168e-05,-0.0007586538,0.0,0.0,0.0,0.0
98630437,-0.0006351124,-0.001361502,-0.0005649054,0.0,0.0,0.0,0.0
98662423,-7.3649804e-05,0.0014123009,0.00039876765,0.0,0.0,0.0,0.0
98694416,0.00028224848,-4.717108e-05,-0.00071966765,0.0,0.0,0.0,0.0
98726446,-0.0004482353,0.0007741122,-0.0014661492,0.0,0.0,0.0,0.0
98758501,0.00036437775,-0.0006495932,-0.00043273874,0.0,0.0,0.0,0.0
98790430,-0.0001191725,-0.0009698422,-0.00070004445,0.0,0.0,0.0,0.0
98822446,-6.906246e-05,3.6295096e-05,-0.00046154973,0.0,0.0,0.0,0.0
98854414,0.00063833874,-0.0002161316,0.00036471515,0.0,0.0,0.0,0.0
98886470,0.00024156983,9.654634e-05,0.00016183063,0.0,0.0,0.0,0.0
98918421,0.0002977054,-0.0004146646,-0.0001194542,0.0,0.0,0.0,0.0
98950452,-0.00058788876,-5.5633893e-05,-0.0013934346,0.0,0.0,0.0,0.0
98981648,-0.00018424564,-0.00059987046,-0.0006902064,0.0,0.0,0.0,0.0
99013643,-0.00010461768,-0.00025658458,0.0008246246,0.0,0.0,0.0,0.0
99045619,0.000117354095,0.0015993598,-0.0002797398,0.0,0.0,0.0,0.0
99073641,-0.0007163,0.0012858742,-0.0010687566,0.0,0.0,0.0,0.0
99105613,-0.00035666954,-0.00029850387,-0.0009356226,0.0,0.0,0.0,0.0
99137616,-0.00073251605,0.0010652579,-0.00045631526,0.0,0.0,0.0,0.0
99169628,-0.0011888014,0.000779064,0.00042578144,0.0,0.0,0.0,0.0
99201641,0.0013521762,0.00057139277,-0.0005448653,0.0,0.0,0.0,0.0
99233656,0.00095118734,-0.001333628,-0.0014336767,0.0,0.0,0.0,0.0
99265618,-3.8149534e-05,-0.00082497543,-0.0006514812,0.0,0.0,0.0,0.0
99297618,0.0006983293,0.0005132801,-0.00091664406,0.0,0.0,0.0,0.0
99329644,0.0011740392,0.0002191292,-0.0004164982,0.0,0.0,0.0,0.0
99357640,0.0002143794,0.00027766117,-0.00023251899,0.0,0.0,0.0,0.0
99389660,-0.00090264785,0.0009939205,-0.000652472,0.0,0.0,0.0,0.0
99421614,0.00035152503,-0.00059980503,0.0016567616,0.0,0.0,0.0,0.0
99453639,0.00088746345,0.0015383606,-0.0016022092,0.0,0.0,0.0,0.0
99485675,-0.00095726445,-0.00065966975,-0.00067136955,0.0,0.0,0.0,0.0
99517655,0.00020989636,-0.0001037693,0.0006976194,0.0,0.0,0.0,0.0
99549616,-0.00031723885,0.00023176766,0.00013854951,0.0,0.0,0.0,0.0
99577610,0.0005644427,-0.00041029663,0.0005324506,0.0,0.0,0.0,0.0
99610419,-0.0008912877,0.0002630356,0.00070459,0.0,0.0,0.0,0.0
99641613,-0.00084784033,-0.00048328374,-0.00058634963,0.0,0.0,0.0,0.0
99673658,0.0015613182,-0.00052033516,-0.0013936749,0.0,0.0,0.0,0.0
99705610,0.0002293213,0.0008682986,-0.00046391436,0.0,0.0,0.0,0.0
99737624,-0.00072625245,-0.00039815003,-0.000119736505,0.0,0.0,0.0,0.0
99768841,-0.00041442667,-0.00026769208,-0.00027910035,0.0,0.0,0.0,0.0
99801655,-0.0001239673,-0.00068309694,0.0016144426,0.0,0.0,0.0,0.0
99833615,0.0003237218,-0.00045234858,-0.00094686844,0.0,0.0,0.0,0.0
99864821,0.0006001806,0.0016100293,-0.0014317029,0.0,0.0,0.0,0.0
99892850,0.0005407707,0.000976841,0.00023897237,0.0,0.0,0.0,0.0
99924849,-0.0015669746,0.0015014686,6.311186e-05,0.0,0.0,0.0,0.0
99956841,0.00087830104,-0.00013989487,-0.00014613467,0.0,0.0,0.0,0.0
99988877,-0.00034125906,0.00050358666,-0.0004885549,0.0,0.0,0.0,0.0
100020810,-0.00025001867,-0.0021624449,0.00063618086,0.0,0.0,0.0,0.0
100052881,4.416099e-05,0.00038493547,0.0007548908,0.0,0.0,0.0,0.0
100084826,0.0007270619,0.00044501293,0.00017259285,0.0,0.0,0.0,0.0
100116860,0.00029102515,-0.00020035336,-0.00077774207,0.0,0.0,0.0,0.0
100144847,0.0001229964,-0.0023088008,-8.635834e-06,0.0,0.0,0.0,0.0
100176887,0.00034961163,0.00046487365,0.0014499761,0.0,0.0,0.0,0.0
100208810,0.00012096553,-0.000105121726,0.00015818755,0.0,0.0,0.0,0.0
100240839,-0.0015801457,-0.0006048825,0.0001869403,0.0,0.0,0.0,0.0
100272874,0.00096426817,-7.503785e-05,-0.001037907,0.0,0.0,0.0,0.0
100304904,0.00034615258,0.0008385059,0.0015344933,0.0,0.0,0.0,0.0
100336823,0.0006055543,0.0015849116,-0.0005197298,0.0,0.0,0.0,0.0
100368824,0.00062890025,-0.0010351402,-3.6951154e-05,0.0,0.0,0.0,0.0
100396827,-0.00046049198,-0.0010985831,-0.00044335815,0.0,0.0,0.0,0.0
100428850,-0.0002498742,0.0006065929,-0.0007857926,0.0,0.0,0.0,0.0
100460848,-0.00023942231,-0.000301992,-0.0012047151,0.0,0.0,0.0,0.0
100492868,0.0007654647,-0.00059047417,0.00043552107,0.0,0.0,0.0,0.0
100524817,-0.0005740061,0.00021786173,-0.0017327301,0.0,0.0,0.0,0.0
100556042,-0.00073020346,0.00047065096,-0.00040083844,0.0,0.0,0.0,0.0
100588052,-0.00022042554,-0.0009418113,-0.00092531275,0.0,0.0,0.0,0.0
100620046,-8.0692e-05,0.0004752304,-0.00024610228,0.0,0.0,0.0,0.0
100652012,-0.00011837855,0.00017261325,-0.0010204669,0.0,0.0,0.0,0.0
100684070,-0.00018275972,-0.000843173,-0.00062136113,0.0,0.0,0.0,0.0
100712056,0.00016361638,0.00078509597,0.00027519983,0.0,0.0,0.0,0.0
100744077,0.00022039202,-0.00015392347,-0.00096674426,0.0,0.0,0.0,0.0
100776068,-0.0004890468,0.0009360317,-0.0010052942,0.0,0.0,0.0,0.0
100808034,-3.4019933e-05,-7.190433e-05,-0.0007451038,0.0,0.0,0.0,0.0
100840030,-0.00075831753,-5.8332458e-05,-0.001551616,0.0,0.0,0.0,0.0
100872081,0.0011211844,0.00040672414,-0.00015823118,0.0,0.0,0.0,0.0
100904057,-0.0021747306,-0.0002706538,-0.0008174241,0.0,0.0,0.0,0.0
100932058,-0.0011154506,-0.00014983796,-0.00029983072,0.0,0.0,0.0,0.0
100964080,0.00038968236,0.0007058518,-0.0010977845,0.0,0.0,0.0,0.0
100996012,0.00042919244,-0.00037879997,0.00015626289,0.0,0.0,0.0,0.0
101028015,-0.0001328272,0.00044731743,-0.00077676866,0.0,0.0,0.0,0.0
101060112,-0.0009952545,-0.00095071876,-0.00047337948,0.0,0.0,0.0,0.0
101092017,0.000643634,-0.0005930656,0.0001703336,0.0,0.0,0.0,0.0
101124032,-0.0005875777,-0.0002768005,-0.00037226442,0.0,0.0,0.0,0.0
101156012,-0.00021495286,0.0003887954,-0.0012235288,0.0,0.0,0.0,0.0
101184012,0.00028464687,7.521009e-05,-0.0017232208,0.0,0.0,0.0,0.0
101216067,3.696524e-05,0.0012175885,-0.0006481391,0.0,0.0,0.0,0.0
101248062,-0.0009806494,0.00020321872,-0.00042947615,0.0,0.0,0.0,0.0
101280059,0.0010498003,-0.00048296954,-0.0005458466,0.0,0.0,0.0,0.0
101311226,0.0005254713,0.00042023844,-0.0014603686,0.0,0.0,0.0,0.0
101343234,0.00057023263,-0.0007046695,-9.13479e-06,0.0,0.0,0.0,0.0
101375256,0.0007071118,0.00045542434,-0.00036788068,0.0,0.0,0.0,0.0
101407218,0.00042794354,0.00038381305,-0.0004997962,0.0,0.0,0.0,0.0
101439273,-0.00041357707,-5.76576e-05,-3.2741664e-05,0.0,0.0,0.0,0.0
101471249,0.0005045447,-5.713245e-05,-2.6227237e-05,0.0,0.0,0.0,0.0
101499273,0.00010893727,-0.00016868004,0.0010338923,0.0,0.0,0.0,0.0
101531288,0.000704891,0.0013422441,-0.00029897984,0.0,0.0,0.0,0.0
101563207,0.00024614402,0.00041516224,0.00027173373,0.0,0.0,0.0,0.0
101595220,-4.07045e-05,0.00041441532,-0.0010835076,0.0,0.0,0.0,0.0
101627213,-6.014295e-05,0.0010631505,-0.0010764697,0.0,0.0,0.0,0.0
101659300,-0.0012583287,-0.00023760123,-0.0001599747,0.0,0.0,0.0,0.0
101691253,-0.0014537205,0.0005203069,-0.00063367235,0.0,0.0,0.0,0.0
101723219,-1.4583347e-05,-0.000605776,-0.00035619008,0.0,0.0,0.0,0.0
101755215,-0.00094951433,0.0004261632,-0.00069233193,0.0,0.0,0.0,0.0
101783259,-0.00033143966,0.000902363,-0.00012842071,0.0,0.0,0.0,0.0
101815221,-0.00023104146,-5.29291e-05,-0.00088609476,0.0,0.0,0.0,0.0
101847301,0.00041298568,-0.00040822825,0.00055218005,0.0,0.0,0.0,0.0
101879300,-0.0004791231,0.0014512445,-0.0010402463,0.0,0.0,0.0,0.0
101911220,-5.1104813e-05,-0.00026328594,-0.00073155214,0.0,0.0,0.0,0.0
101943212,0.0012141068,0.0002323777,-0.001561641,0.0,0.0,0.0,0.0
101975257,-2.0325417e-05,0.00026588244,-0.0014324485,0.0,0.0,0.0,0.0
102007215,0.00025498716,-0.00093730085,-0.0010493682,0.0,0.0,0.0,0.0
102039274,-0.0003135522,0.00038351613,0.00022538821,0.0,0.0,0.0,0.0
102070443,-0.00015003025,-0.00011576645,-0.00028335396,0.0,0.0,0.0,0.0
102102493,-0.0004800919,-0.0015840738,-0.000106766354,0.0,0.0,0.0,0.0
102134423,0.001232961,0.0008850213,-0.0007476947,0.0,0.0,0.0,0.0
102165645,0.00042340066,0.0007169022,-0.0019429198,0.0,0.0,0.0,0.0
102198436,0.00027843157,9.4177754e-05,-0.0012021228,0.0,0.0,0.0,0.0
102230438,-0.00041732483,0.00016003143,-0.0004822734,0.0,0.0,0.0,0.0
102262417,3.4382334e-05,0.000105200656,-0.001625471,0.0,0.0,0.0,0.0
102294411,0.00018610922,-0.0013173039,-0.0015015199,0.0,0.0,0.0,0.0
102326447,-0.0008336031,-5.138191e-05,-0.0012091084,0.0,0.0,0.0,0.0
102358455,-9.044225e-05,-0.00030077255,-0.0003677843,0.0,0.0,0.0,0.0
102390421,0.0001123898,0.00060631224,-0.00012314651,0.0,0.0,0.0,0.0
102422415,0.0010203393,0.0022986282,-0.0005825977,0.0,0.0,0.0,0.0
102454447,0.00076303916,0.0005926502,-9.665391e-05,0.0,0.0,0.0,0.0
102486461,0.0006170883,-0.0004138458,0.00018003857,0.0,0.0,0.0,0.0
102518428,-0.001350561,0.0013626764,-0.00069594564,0.0,0.0,0.0,0.0
102550424,-0.00014602975,-8.119273e-05,-0.0006835056,0.0,0.0,0.0,0.0
102582451,0.00022890128,0.00059623306,0.00022343814,0.0,0.0,0.0,0.0
102614452,-0.001379871,-0.00045683124,0.0004157673,0.0,0.0,0.0,0.0
102646475,-0.00081878796,-3.3091812e-05,-0.0003310136,0.0,0.0,0.0,0.0
102678416,-0.00087658165,-0.0003528278,-0.00091222744,0.0,0.0,0.0,0.0
102710463,-7.868337e-05,0.00044740268,-0.0013752533,0.0,0.0,0.0,0.0
102738417,0.00032208464,-0.0013984719,-0.0011333234,0.0,0.0,0.0,0.0
102770437,-3.1911768e-05,1.12071575e-05,-0.0010601599,0.0,0.0,0.0,0.0
102802448,-0.0017867158,0.00048733098,-0.0014839999,0.0,0.0,0.0,0.0
102834448,0.0005622689,0.0018422095,-0.0016241823,0.0,0.0,0.0,0.0
102865615,0.0010271575,-1.3942976e-05,-0.00021578273,0.0,0.0,0.0,0.0
102897636,-5.339214e-05,0.0006494261,-0.0014352236,0.0,0.0,0.0,0.0
102929662,0.001321165,-0.0007575401,-0.001575406,0.0,0.0,0.0,0.0
102961616,3.5437988e-05,-0.0008978092,-2.3563276e-05,0.0,0.0,0.0,0.0
102993616,-0.00013416226,-0.00055843865,0.00028639357,0.0,0.0,0.0,0.0
103025651,0.0010271701,5.690611e-05,8.165429e-06,0.0,0.0,0.0,0.0
103057658,-9.128405e-05,0.00078593125,-0.0016954484,0.0,0.0,0.0,0.0
103089645,0.00031403522,0.00071677635,0.00043331657,0.0,0.0,0.0,0.0
103121617,0.00036792923,-0.0002182828,0.00015373802,0.0,0.0,0.0,0.0
103153675,0.00078140857,0.000167049,-0.0015664632,0.0,0.0,0.0,0.0
103185689,0.00017920637,-0.0007024427,-0.00034965447,0.0,0.0,0.0,0.0
103217687,-0.0007662735,0.00077394664,-0.0010942598,0.0,0.0,0.0,0.0
103249635,0.0018145004,-0.0016936488,-0.00058222824,0.0,0.0,0.0,0.0
103281679,0.00053617836,-0.00067415554,0.0005653652,0.0,0.0,0.0,0.0
103313655,0.00056757196,0.00019173641,-0.00031732034,0.0,0.0,0.0,0.0
103345655,0.00064710114,0.0005249819,-0.00015242814,0.0,0.0,0.0,0.0
103377623,-0.00070297765,-2.8640497e-05,-0.0007415447,0.0,0.0,0.0,0.0
103409615,0.00018149766,0.00048167765,-0.0012026059,0.0,0.0,0.0,0.0
103441656,0.0014580362,0.00039102655,-0.0006969042,0.0,0.0,0.0,0.0
103469682,-0.0006233249,-0.0013353311,-0.0007321697,0.0,0.0,0.0,0.0
103501644,0.0007219696,-0.00024936566,-0.00028020705,0.0,0.0,0.0,0.0
103533654,0.00050010334,-0.0006851631,9.033829e-07,0.0,0.0,0.0,0.0
103565611,-0.0008221265,-0.0013531661,-0.0010022328,0.0,0.0,0.0,0.0
103597699,0.0012346494,8.4391795e-06,-0.0007122094,0.0,0.0,0.0,0.0
103628810,0.0012476874,-4.3778593e-05,-0.00058845617,0.0,0.0,0.0,0.0
103660828,-0.0007382857,-0.0006717617,0.0002156308,0.0,0.0,0.0,0.0
103692064,0.0012334582,-0.00047868234,-0.00093813054,0.0,0.0,0.0,0.0
103724891,2.3655593e-05,0.0009219652,-0.0015760416,0.0,0.0,0.0,0.0
103756821,0.0008779448,0.0003192261,4.1937456e-05,0.0,0.0,0.0,0.0
103784855,0.0008888343,-0.00014329591,-0.0014422071,0.0,0.0,0.0,0.0
103816814,-0.0023322506,-0.0010191187,-0.0010072611,0.0,0.0,0.0,0.0
103848846,6.975001e-05,-0.00023266548,-0.00044373376,0.0,0.0,0.0,0.0
103880824,-0.0014160994,0.00014941391,-0.00012953434,0.0,0.0,0.0,0.0
103912895,0.0008457416,0.00034755224,4.6386325e-05,0.0,0.0,0.0,0.0
103944813,0.00018611562,0.00039812154,-0.0003121182,0.0,0.0,0.0,0.0
103976849,-0.0014187362,0.00093651447,7.25399e-05,0.0,0.0,0.0,0.0
104008821,0.00024076027,-0.0005578216,-0.0010199312,0.0,0.0,0.0,0.0
104040885,-0.0004747731,-0.0006483984,-0.0016572857,0.0,0.0,0.0,0.0
104072846,-0.0002894249,-0.00039425842,-0.00095164485,0.0,0.0,0.0,0.0
104104860,0.0005271747,-0.00070210896,-0.0012526633,0.0,0.0,0.0,0.0
104136810,-3.4746365e-05,0.00024695933,-0.00069101265,0.0,0.0,0.0,0.0
104168890,0.0003807434,0.0013715981,-0.0005604384,0.0,0.0,0.0,0.0
104200883,1.19950855e-05,-0.0015593306,0.000676299,0.0,0.0,0.0,0.0
104232850,-0.00030889525,-0.00045455186,-0.0014005932,0.0,0.0,0.0,0.0
104264815,0.00025229214,-7.548381e-05,-0.00017457528,0.0,0.0,0.0,0.0
104296854,0.0012851938,-0.00043750447,0.0011823373,0.0,0.0,0.0,0.0
104328015,-0.001436581,0.00026677185,-0.0010008103,0.0,0.0,0.0,0.0
104361611,4.495785e-05,-0.00010964298,-0.0008730944,0.0,0.0,0.0,0.0
104392026,0.0004976272,-8.5501146e-05,-0.0006067484,0.0,0.0,0.0,0.0
104424073,0.001117513,-0.00021543686,-0.0008511174,0.0,0.0,0.0,0.0
104456017,0.0009228181,0.00056717393,-0.00026910627,0.0,0.0,0.0,0.0
104488063,-0.00023979577,0.000619813,0.00037233648,0.0,0.0,0.0,0.0
104520038,0.0005152323,-0.00028889853,-0.0009850445,0.0,0.0,0.0,0.0
104548060,7.22775e-05,6.086004e-05,-0.0011754427,0.0,0.0,0.0,0.0
104580033,-0.000395661,0.00033175375,-0.00015830889,0.0,0.0,0.0,0.0
104612098,0.00050470955,0.0003625526,-0.001134078,0.0,0.0,0.0,0.0
104644014,-0.0003227822,-0.00018290136,0.00028747745,0.0,0.0,0.0,0.0
104676056,0.0010932934,0.0006582887,-0.0016934987,0.0,0.0,0.0,0.0
104708031,0.00043593778,0.00065545226,0.0005298207,0.0,0.0,0.0,0.0
104740090,0.00091618154,-0.00050286367,-0.00063763786,0.0,0.0,0.0,0.0
104768052,-0.0009401026,-0.001364003,-0.0015581734,0.0,0.0,0.0,0.0
104800121,-0.0002822337,-0.00044932216,-0.00013557635,0.0,0.0,0.0,0.0
104832024,-0.001625271,0.00024037194,-0.0010346915,0.0,0.0,0.0,0.0
104864058,0.00032251084,-0.00038539796,0.0006320694,0.0,0.0,0.0,0.0
104896047,0.0021313704,-8.045498e-05,0.0004980935,0.0,0.0,0.0,0.0
104928113,-0.0015002096,0.0013614703,-0.00089360145,0.0,0.0,0.0,0.0
104960016,0.00046287174,0.0003332009,1.3097306e-05,0.0,0.0,0.0,0.0
104992076,-0.0006725172,-0.0012114948,0.00047122512,0.0,0.0,0.0,0.0
105020015,-0.00022072357,1.8004794e-06,-0.00027216616,0.0,0.0,0.0,0.0
105052113,-0.00054060086,-0.00047983942,-0.0012655912,0.0,0.0,0.0,0.0
105084059,-0.00023200421,0.00028910785,-0.00022554604,0.0,0.0,0.0,0.0
105116093,-0.0008802167,-1.7744023e-06,-0.00062664784,0.0,0.0,0.0,0.0
105148014,0.00036731176,0.0009889589,-0.00043224182,0.0,0.0,0.0,0.0
105179311,0.00031026022,-0.000106245105,-0.0008227157,0.0,0.0,0.0,0.0
105211249,0.0007942008,2.1719374e-05,-0.0019824177,0.0,0.0,0.0,0.0
105243257,-0.001600187,-0.0005320312,6.416673e-05,0.0,0.0,0.0,0.0
105275221,-5.83675e-05,0.00028003092,0.00018005545,0.0,0.0,0.0,0.0
105307260,-0.00055409025,-0.0006718852,-0.0005900264,0.0,0.0,0.0,0.0
105335214,4.4123153e-05,-0.000397455,-8.218456e-05,0.0,0.0,0.0,0.0
105367227,0.0009618942,0.0011489481,-0.00076069764,0.0,0.0,0.0,0.0
105399320,-0.0005222341,0.0012634647,-0.0010946483,0.0,0.0,0.0,0.0
105431213,-0.0005544218,-0.00029728436,-0.00018060755,0.0,0.0,0.0,0.0
105463223,-5.5883662e-05,-0.00095806306,-6.893481e-05,0.0,0.0,0.0,0.0
105495223,0.0010629289,-0.0008844735,-0.00021158977,0.0,0.0,0.0,0.0
105527254,-0.00028834096,0.001654668,-0.0005722058,0.0,0.0,0.0,0.0
105559296,-0.0013266298,0.00022566554,-0.0016105704,0.0,0.0,0.0,0.0
105591215,0.00068555993,0.0004072323,-0.00047839168,0.0,0.0,0.0,0.0
105623296,-0.0008417473,-0.0023558869,-0.0023760186,0.0,0.0,0.0,0.0
105655254,-0.0009583604,0.00054986693,-0.0008700122,0.0,0.0,0.0,0.0
105687257,-0.0003384488,0.00038106437,-0.00055460184,0.0,0.0,0.0,0.0
105719271,-0.00032546115,-9.099129e-05,-0.0009291546,0.0,0.0,0.0,0.0
105751294,0.00045493688,0.0010515812,0.00014204811,0.0,0.0,0.0,0.0
105783287,0.0019484999,-0.0003342167,-0.00030125226,0.0,0.0,0.0,0.0
105811290,-0.00063297944,-7.497234e-06,-0.00093111605,0.0,0.0,0.0,0.0
105843249,-0.00062837754,7.018013e-05,-0.0005736177,0.0,0.0,0.0,0.0
105875262,-0.00030289858,0.00046129222,-0.0007741821,0.0,0.0,0.0,0.0
105907216,-0.0007509922,-3.377773e-05,-0.001788771,0.0,0.0,0.0,0.0
105939331,0.0011922606,-0.0004912922,0.00040617585,0.0,0.0,0.0,0.0
105970413,-0.00065031345,0.0013455008,0.0004653944,0.0,0.0,0.0,0.0
106002415,-0.000416697,0.00022508929,-0.0012909622,0.0,0.0,0.0,0.0
106034419,0.0004344571,8.181669e-07,0.00021498819,0.0,0.0,0.0,0.0
106066488,-0.000847853,-0.00015715716,-0.00057226536,0.0,0.0,0.0,0.0
106098417,9.7725075e-05,-2.5855901e-05,-0.00083496404,0.0,0.0,0.0,0.0
106126470,0.00018037192,-0.0015360585,-7.5379445e-05,0.0,0.0,0.0,0.0
106158410,0.0010434759,-0.0002492796,-0.001318801,0.0,0.0,0.0,0.0
106190417,0.00035542867,-0.00048344454,-0.00051958766,0.0,0.0,0.0,0.0
106224042,-0.0005558522,-0.0003511196,-0.0010246017,0.0,0.0,0.0,0.0
106255282,-5.1460927e-05,-0.0002472943,-0.0017237059,0.0,0.0,0.0,0.0
106286410,0.00019025127,-0.0010728511,-0.0010575978,0.0,0.0,0.0,0.0
106318459,-0.001966698,0.0003013809,-0.00096795755,0.0,0.0,0.0,0.0
106350428,-3.526581e-05,6.717385e-05,-0.0010211375,0.0,0.0,0.0,0.0
106378417,-0.0019877143,-0.00046108515,-0.0005239052,0.0,0.0,0.0,0.0
106410430,0.00063165725,0.0006912896,-0.00075138576,0.0,0.0,0.0,0.0
106757617,0.0018696268,-0.00036702238,0.0004664915,0.0,0.0,0.0,0.0
106789640,-0.00048939756,-0.00029174404,-0.000510662,0.0,0.0,0.0,0.0
107576814,0.0013907861,-0.0003090384,-0.001012637,0.0,0.0,0.0,0.0
107608844,-0.0014141933,0.0005873002,-0.00035353377,0.0,0.0,0.0,0.0
107640855,-0.00052877935,-0.00010680006,-0.00025340967,0.0,0.0,0.0,0.0
107672881,0.0012642478,-0.001015243,0.0005366928,0.0,0.0,0.0,0.0
107704820,0.000681065,-0.0010277168,-0.00015732792,0.0,0.0,0.0,0.0
107736889,-0.00043932837,-0.0009213775,0.0004794891,0.0,0.0,0.0,0.0
107768854,-0.0017266211,9.215827e-05,-0.00076321076,0.0,0.0,0.0,0.0
107800850,-0.00034123217,0.00022113792,0.000862281,0.0,0.0,0.0,0.0
107832843,-2.228422e-06,-2.6058726e-05,-0.0006598512,0.0,0.0,0.0,0.0
107864854,0.0008460199,0.00012353456,-0.0015820747,0.0,0.0,0.0,0.0
107896855,-0.0005571401,-8.8171946e-05,-0.0005882893,0.0,0.0,0.0,0.0
107928830,-0.00035567046,0.0010814801,-0.00014749839,0.0,0.0,0.0,0.0
107956854,8.024275e-06,-0.00077685405,-0.00033295585,0.0,0.0,0.0,0.0
107988847,0.0005847397,-6.201069e-05,-0.001368155,0.0,0.0,0.0,0.0
108020810,0.0016188833,0.0004401652,-0.0006011815,0.0,0.0,0.0,0.0
108052921,-6.314251e-05,0.00085358974,-0.0012915337,0.0,0.0,0.0,0.0
108084847,0.00070529577,0.00032946403,-0.0012016728,0.0,0.0,0.0,0.0
108116850,0.0004700222,0.00061743456,-0.00071278587,0.0,0.0,0.0,0.0
108148810,0.001203482,0.0006567394,-0.001654966,0.0,0.0,0.0,0.0
108180067,-0.0011613305,0.00026381083,0.00037828163,0.0,0.0,0.0,0.0
108212056,-0.00049714104,1.6052334e-05,-0.0017377911,0.0,0.0,0.0,0.0
108244096,0.00059988815,-0.0003757984,-0.0017873284,0.0,0.0,0.0,0.0
108272054,-0.00072953023,0.00042170458,-0.0005414516,0.0,0.0,0.0,0.0
108304027,-0.00028133672,0.0009235165,-6.311841e-05,0.0,0.0,0.0,0.0
108336019,0.00089437386,0.00041013275,-2.3378525e-05,0.0,0.0,0.0,0.0
108368092,-0.0011524963,0.00027801737,-0.0010518106,0.0,0.0,0.0,0.0
108400013,0.0005070877,0.00080765353,0.0022750022,0.0,0.0,0.0,0.0
108432062,0.001908696,0.0005287194,0.0043946663,0.0,0.0,0.0,0.0
108464027,0.0009663411,0.001111314,0.00050567015,0.0,0.0,0.0,0.0
108492038,0.0017144383,-0.00036513802,-0.008118164,0.0,0.0,0.0,0.0
108524075,-0.001780665,8.568581e-05,-0.0080811605,0.0,0.0,0.0,0.0
108556060,0.001569874,-0.00047650244,-0.0006940382,0.0,0.0,0.0,0.0
108588015,-1.0346295e-05,0.0005042782,0.0069110203,0.0,0.0,0.0,0.0
108620054,-0.0020981398,-0.00039562085,0.004419007,0.0,0.0,0.0,0.0
108652061,-0.0041667325,-0.0008003202,-0.0020933452,0.0,0.0,0.0,0.0
108684067,0.000305015,0.0009911335,-0.006871382,0.0,0.0,0.0,0.0
108716017,0.0008690074,0.0014788271,-0.0028151223,0.0,0.0,0.0,0.0
108744053,-0.0034933859,0.0017819811,0.008698126,0.0,0.0,0.0,0.0
108776034,-0.005165596,-0.0049442872,0.011426942,-3.0869374e-05,-3.179287e-05,-2.2453069e-05,0.0
108808032,-0.018888228,-0.0013728291,-0.011711914,-8.131516e-05,-9.591795e-05,-1.7502105e-05,0.0
108840076,0.0070636678,0.0061022122,-0.0124999015,-0.00015049028,-0.0001698547,2.4869267e-05,0.0
108872092,0.008635206,-0.008170085,-0.0025921157,-0.00023677622,-0.00023972924,4.5264092e-05,0.0
108902436,-0.013850366,-0.0071871793,0.003987037,-0.0003066126,-0.00030227154,3.5440953e-05,0.0
108934450,-0.005980647,0.01791511,-0.00043862272,-0.0003601021,-0.00037285336,2.538456e-05,0.0
108967269,0.0025946472,0.017981904,-0.0051058643,-0.00042448856,-0.00045125827,2.6967946e-05,0.0
108999310,0.01732044,-0.0024264394,-0.004361341,-0.0005119293,-0.00051363645,3.664098e-05,0.0
109031214,-0.012882663,-0.0063511143,0.00065064896,-0.00058495125,-0.0005800328,4.1743828e-05,0.0
109059267,-0.0017824824,0.0006841357,0.0008957634,-0.00062831497,-0.00064887584,3.519426e-05,0.0
109091247,0.022317633,-0.010367537,-0.003636303,-0.0006834636,-0.00071386807,3.4988872e-05,0.0
109123237,0.02987347,0.0043192366,-0.0038310443,-0.0007626232,-0.00078223855,4.7354526e-05,0.0
109155298,-0.03936928,0.010542445,-0.0033175247,-0.00081358576,-0.0008483939,5.333183e-05,0.0
109187229,-0.046967395,0.043478195,-0.0024634837,-0.00081530615,-0.00092521193,4.81333e-05,0.0
109219299,-0.016416397,-0.0023901374,0.0011935295,-0.00075855665,-0.0009971696,4.9513696e-05,0.0
109251214,-0.10013712,0.02828712,-0.01013561,-0.0007051916,-0.0010732649,5.833213e-05,0.0
109283273,-0.084964134,0.023258654,0.0049765827,-0.00062229874,-0.0011366978,5.6238496e-05,0.0
109311286,0.030820997,-5.991204e-05,0.020757921,-0.00057265226,-0.0012275049,3.0550465e-05,0.0
109343291,0.0071243793,-0.026447069,0.009071816,-0.000548141,-0.0013341508,-1.0936525e-06,0.0
109375216,0.10749597,-0.039950937,-0.004357467,-0.0006248613,-0.0014088036,5.0289195e-06,0.0
109407210,-0.016844591,-0.039599903,-0.012031643,-0.00065157795,-0.0014914903,5.7983274e-05,0.0
109439316,0.02068454,-0.07001835,0.017115291,-0.0006024402,-0.0015673027,5.1832594e-05,0.0
109471248,0.017068515,-0.12042136,0.016248666,-0.0005802505,-0.001638395,1.2585639e-05,0.0
109503217,0.04992675,-0.00014018707,0.0031519681,-0.00059189135,-0.0017672338,9.219616e-06,0.0
109535215,0.044215403,0.038084902,0.00090672576,-0.0005698757,-0.0018431495,-2.4065512e-05,0.0
109567249,0.022524798,-0.020113893,0.004104206,-0.0006657382,-0.0019068733,-5.829803e-05,0.0
109595250,-0.08535047,-0.020265732,0.0051947595,-0.00061853864,-0.0020155208,-6.851829e-05,0.0
109627221,0.017714918,-0.047669716,0.0059835603,-0.0005646973,-0.0021087609,-9.525888e-05,0.0
109658428,0.026517455,-0.13079663,0.03143349,-0.00061597157,-0.0021454853,-0.0001427968,0.0
109690417,-0.04109557,0.10660769,-0.00787333,-0.0005796323,-0.0022031155,-0.0001693334,0.0
109722437,0.025620345,0.06681434,-0.036264565,-0.0005612735,-0.0023456428,-0.00012703617,0.0
109754442,0.052728526,-0.062335897,4.1479594e-05,-0.00055176916,-0.0023860638,-0.000110510104,0.0
109786477,0.035764523,-0.07110215,0.034494087,-0.0005480944,-0.0024513595,-0.00017766445,0.0
109818418,-0.024642803,0.063457474,-0.006924502,-0.0005121438,-0.002546733,-0.00024212566,0.0
109850477,-0.02425934,0.11908927,-0.036461886,-0.00049357855,-0.0026578398,-0.00020507102,0.0
109878438,0.02011869,0.05543885,-0.016336886,-0.00049885147,-0.0027318897,-0.00016521712,0.0
109910452,-0.021256555,0.027551679,-0.0002511488,-0.0005145608,-0.00277162,-0.00018477064,0.0
109942449,0.022300022,-0.016152976,0.0031903274,-0.00054789503,-0.0028269482,-0.00022396146,0.0
109974453,-0.043827105,0.003128556,0.016028779,-0.0005426651,-0.0029744706,-0.00022326162,0.0
110006422,0.04338059,-0.021630475,0.008537503,-0.0005276717,-0.0029548232,-0.00025874813,0.0
110038451,0.038515784,0.023797888,0.007888308,-0.0006041807,-0.0029890065,-0.00031076052,0.0
110070449,-0.07782806,0.04675511,0.040098686,-0.00063450856,-0.003065206,-0.00042605452,0.0
110102458,-0.063168086,0.02419539,0.01422205,-0.0004407615,-0.0031593374,-0.00050770305,0.0
110134410,-0.20474307,0.034165446,0.020603256,-0.000173939,-0.003315338,-0.0005969486,0.0
110166464,-0.1175475,0.071295924,0.013025607,0.00010036978,-0.003498862,-0.0006901601,0.0
110198452,0.070025705,-0.07254641,0.04160562,0.00023607856,-0.0035714312,-0.00080191967,0.0
110230415,0.019341398,-0.12988028,-0.003632893,0.00027643025,-0.003523131,-0.00089455175,0.0
110262411,0.022547882,-0.09289416,0.040231247,0.00024696472,-0.0033906403,-0.0010151778,0.0
110294449,0.09303368,-0.010286411,0.01601942,0.00030421565,-0.003285297,-0.0011315525,0.0
110326476,0.06499202,-0.015027863,0.0077197934,0.00031367576,-0.003261222,-0.0012575076,0.0
110358487,-0.105825745,0.080969535,0.017682716,0.00040435162,-0.0033479603,-0.0014049561,0.0
110390422,0.070959374,0.036843374,0.0335017,0.00039861002,-0.0034379477,-0.0015931178,0.0
110421681,0.07430436,0.09422207,0.029135866,0.0003742872,-0.0035415092,-0.001787167,0.0
110453660,-0.026107207,0.030259596,0.03263552,0.00037000835,-0.0037076669,-0.0019847332,0.0
110486411,-0.06516291,0.12728605,0.015094849,0.00044160112,-0.0039222697,-0.0021934856,0.0
110517611,-0.053446684,-0.0731345,0.029937206,0.0005881558,-0.0040116594,-0.0024022874,0.0
110549701,-0.10315786,0.07561643,0.005782998,0.00082038634,-0.0041198963,-0.002600157,0.0
110581655,-0.007300659,-0.029170668,0.019133896,0.0010137744,-0.004255547,-0.002797231,0.0
110609683,0.10072738,-0.04217529,0.013399597,0.0010388596,-0.0043235393,-0.0029617453,0.0
110641662,0.0043511246,-0.032717388,0.0091101285,0.0010050011,-0.0043447562,-0.0031360663,0.0
110673662,0.041149106,-0.005754939,0.009763229,0.0010186372,-0.004392146,-0.0033187012,0.0
110705612,-0.038120717,-0.06296839,0.0040742555,0.0011007804,-0.004397524,-0.0034877036,0.0
110737711,0.1408887,0.09335128,0.021358449,0.0010391223,-0.0044987374,-0.0036798047,0.0
110769657,-0.009701148,-0.026831884,3.2866083e-05,0.0009026331,-0.0046750573,-0.0038442998,0.0
110801611,-0.07765184,-0.18439521,0.022933232,0.0010388298,-0.0045554447,-0.0040161097,0.0
110833612,-0.074397415,0.059025615,0.020899264,0.0011662178,-0.004518544,-0.0042259274,0.0
110861651,-0.03377094,0.02018471,0.015080899,0.0012167853,-0.0046189735,-0.004424727,0.0
110893614,0.024403526,0.15931046,0.004768193,0.0012725405,-0.004827116,-0.00463277,0.0
110925689,0.18429726,-0.11909552,0.00024975126,0.0011938256,-0.004909975,-0.004810134,0.0
110957641,-0.035358485,-0.051857416,0.004941889,0.0010872724,-0.004915414,-0.004964181,0.0
110989655,-0.12750593,-0.007724353,0.014813808,0.0012148954,-0.004935373,-0.005188067,0.0
111021627,-0.14832988,0.110837065,-0.00396567,0.00156212,-0.0050492547,-0.0053749974,0.0
111053693,0.050126147,0.016321218,0.0087041715,0.0017746304,-0.0052322736,-0.0055527072,0.0
111085659,0.014950183,0.0047016083,-0.021713452,0.0018015427,-0.005392528,-0.00571474,0.0
111117632,0.05777783,0.025274992,-0.0056334636,0.0016810437,-0.005516617,-0.0058580725,0.0
111149625,0.05473704,-0.080650076,-0.034668606,0.001683902,-0.0055401847,-0.005934049,0.0
111181627,-0.20044333,-0.049539074,-0.05582459,0.001921388,-0.005516037,-0.005936858,0.0
111215232,-0.087677196,0.0070256433,-0.03373061,0.0021987695,-0.00560674,-0.0059410143,0.0
111249655,0.056534376,0.0019797438,-0.030729994,0.0022921355,-0.005828518,-0.005958875,0.0
111281675,-0.12790844,0.026005406,-0.04566957,0.002402079,-0.0059454017,-0.005972949,0.0
111313614,0.012217586,-0.0128708575,-0.028851535,0.002573407,-0.00600972,-0.005960313,0.0
111344859,0.11408598,-0.010176989,-0.018819993,0.002639789,-0.0060936734,-0.0059812367,0.0
111372852,0.008549243,-0.037472676,-0.004476196,0.0026461114,-0.00618216,-0.0060263867,0.0
111404826,0.05276361,-0.020971002,-0.013420533,0.0026710047,-0.006268135,-0.0060734204,0.0
111436840,-0.04265288,-0.12289488,-0.013276004,0.0027865556,-0.00622717,-0.0061144545,0.0
111468811,-0.064198576,-0.0065089134,-0.012994186,0.0029581413,-0.0061483653,-0.0061568115,0.0
111500811,-0.0393545,-0.07512556,-0.0025915536,0.0031231213,-0.0061028916,-0.0062037692,0.0
111532881,0.052069113,0.07849347,0.0011160064,0.0032384864,-0.006196875,-0.0062451935,0.0
111564838,0.076813966,-0.008730169,0.0043418272,0.0032271256,-0.006293509,-0.006327026,0.0
111596823,0.04717386,-0.020589575,-0.015482802,0.003233859,-0.00634069,-0.0063978476,0.0
111628818,-0.069048,-0.053246286,-0.006041509,0.003347588,-0.006292993,-0.0064625693,0.0
111660841,0.053415548,0.05875953,-0.0010614647,0.0034490912,-0.0063186986,-0.0065465136,0.0
111692898,-0.06685603,0.0037997633,-0.011192723,0.0035673035,-0.0064180326,-0.006634015,0.0
111724862,0.024950735,0.034684632,-0.012916017,0.0037106888,-0.0064948965,-0.0066947658,0.0
111756814,0.05395654,0.06690484,-0.015468557,0.003805739,-0.0066379365,-0.0067431247,0.0
111788852,-0.048825536,-0.03095652,-0.0127982255,0.0038791785,-0.0067450963,-0.006786341,0.0
111820872,0.07636334,-0.025858924,-0.02932613,0.003906568,-0.0067744916,-0.0067918273,0.0
111852920,0.024196807,0.015308561,-0.037574667,0.003959381,-0.006781514,-0.0067538153,0.0
111884811,-0.038076565,-0.102983795,-0.04452793,0.0040273666,-0.006804836,-0.006673646,0.0
111916851,0.034496468,0.0039926567,-0.047646176,0.004139851,-0.0067708506,-0.0065720105,0.0
111948825,0.02810878,-0.076508336,-0.033055652,0.0041667866,-0.006702421,-0.006503374,0.0
111980112,-0.022766668,-0.04354322,-0.021347908,0.0042164642,-0.006617459,-0.0064366716,0.0
112012841,0.03861208,-0.10887128,-0.02640308,0.0043915273,-0.0064958795,-0.0063667404,0.0
112044044,0.062322836,0.061339524,-0.027516734,0.004379562,-0.0064824875,-0.0063019684,0.0
112076040,0.14940849,0.103649125,0.004298009,0.00414956,-0.0065858616,-0.006254001,0.0
112108136,0.074582264,-0.03785,0.0042173606,0.004037273,-0.0066056624,-0.006229903,0.0
112140021,-0.26956874,0.030241732,-0.016178768,0.0042376504,-0.006559696,-0.0062138033,0.0
112172057,-0.19487782,0.02404441,0.01645767,0.0046005505,-0.0066278907,-0.0062151314,0.0
112204040,0.0823456,0.09089425,0.00094447826,0.004757044,-0.0068427003,-0.0062586986,0.0
112236054,-0.01604468,-0.017635286,0.013898407,0.004685507,-0.0069626924,-0.006345786,0.0
112268036,-0.037927393,-0.14811692,0.018788755,0.004705095,-0.0067882263,-0.006407577,0.0
112300097,-0.17321739,0.024419487,0.008159911,0.005027262,-0.0066258027,-0.006491747,0.0
112328015,0.055892833,0.16925243,0.01815671,0.005195626,-0.0067470456,-0.006570022,0.0
112360052,0.13378258,0.07609783,0.04259808,0.005111888,-0.0069861556,-0.0066977437,0.0
112392053,-0.20782043,-0.16496356,0.028182011,0.005327437,-0.007022274,-0.0068350188,0.0
112424053,-0.23457672,-0.18078211,0.025991714,0.00580963,-0.0068082456,-0.006961065,0.0
112456026,0.01091864,0.024038719,0.014980855,0.006145946,-0.006654552,-0.0070884624,0.0
112488062,0.2942961,0.11268657,0.0021347757,0.0061149895,-0.0066755167,-0.007187238,0.0
112520054,0.19573045,0.13889134,0.016780134,0.005800439,-0.006914647,-0.007292847,0.0
112552088,0.07053269,0.04630816,0.026347585,0.005596554,-0.0071833017,-0.0074373605,0.0
112580054,-0.1729327,-0.08525131,0.019356648,0.005696806,-0.0072083785,-0.0075653577,0.0
112612069,0.067993805,-0.11211864,0.020705055,0.0058160955,-0.0070960363,-0.007695167,0.0
112644034,0.090111576,0.10049499,0.005623397,0.005767154,-0.0071010073,-0.007829877,0.0
112676073,0.06908387,0.13666496,0.023728076,0.0056539834,-0.0072681666,-0.007997457,0.0
112707276,0.02795485,-0.019169388,0.015119254,0.0056015267,-0.0073859817,-0.008121841,0.0
112739274,-0.17142601,-0.007989435,-0.0035709934,0.0057357242,-0.0075332974,-0.008245276,0.0
112771207,-0.08069943,0.06108082,0.027769662,0.0059372275,-0.007633801,-0.00841999,0.0
112803249,0.019417325,-0.10555854,0.01527885,0.006072403,-0.0075919246,-0.008578204,0.0
112835258,0.025318546,-0.097877696,-0.012522425,0.0062050913,-0.007498956,-0.008668956,0.0
112867291,0.046290435,-0.054425765,0.00064954476,0.0062020835,-0.007414699,-0.008756909,0.0
112895214,0.06528806,0.030321378,0.0039004483,0.0061001154,-0.0073947464,-0.008876092,0.0
112927207,-0.04726892,0.10581969,-0.01124143,0.006112222,-0.007443394,-0.008982427,0.0
112959279,0.05554721,0.14169365,-0.010406238,0.006086555,-0.00765836,-0.009056194,0.0
112991249,0.004446944,-0.010740577,-0.018444585,0.006026438,-0.0077989516,-0.009104551,0.0
113023217,-0.06604936,-0.006004803,-0.021118088,0.0061423355,-0.007857631,-0.009126422,0.0
113055252,0.07283414,-0.013986801,-0.016008124,0.00613225,-0.007909542,-0.009169302,0.0
113087215,0.027876865,-0.0071513513,-0.019119684,0.0059770746,-0.007990868,-0.009196257,0.0
113119350,-0.07981141,0.019791313,-0.019965766,0.0059901034,-0.008046074,-0.009216913,0.0
113147247,-0.010390364,-0.047464486,-0.022000078,0.0060712625,-0.008047083,-0.009232527,0.0
113179311,-0.019934949,-0.07323079,-0.014800774,0.0061026746,-0.008015913,-0.0092483815,0.0
113211226,0.016571363,0.066406064,-0.016643602,0.0060411873,-0.008115211,-0.009257074,0.0
113243231,-0.015948148,0.016337615,-0.019948836,0.0060395966,-0.008253061,-0.009246577,0.0
113275213,0.0016627844,-0.12260684,-0.032430544,0.006201025,-0.008208764,-0.009220686,0.0
113307319,0.070537396,-0.11672244,-0.022389056,0.0061778044,-0.008035607,-0.009203484,0.0
113339274,0.012172779,-0.029466962,-0.0036211242,0.0060074604,-0.007959605,-0.009209452,0.0
113371241,-0.047639962,0.102774605,-0.024624353,0.0060111503,-0.0080602225,-0.00917993,0.0
113399268,-0.07654317,-0.031148361,-0.00485702,0.0060988646,-0.008134931,-0.009162539,0.0
113431240,0.0014359398,0.034401312,-0.01580151,0.0061191157,-0.008197542,-0.00914256,0.0
113463261,0.038984608,0.1351279,-0.027455993,0.0060607363,-0.008337446,-0.009126261,0.0
113495258,-0.09251333,-0.079531334,-0.001085218,0.0061679427,-0.008396727,-0.009115211,0.0
113526451,-0.049249325,-0.07915124,-0.0023700888,0.0063029914,-0.008341089,-0.009134961,0.0
113558413,0.080163136,-0.040236663,-0.007264899,0.0063344496,-0.008255126,-0.009154422,0.0
113590442,0.0077264416,0.04739858,-0.014161084,0.0062734247,-0.00827284,-0.009147354,0.0
113622408,0.047800373,0.017715607,-0.0027834156,0.0061830836,-0.008324117,-0.009144623,0.0
113654417,0.11185362,-0.06724675,-0.0043616267,0.0060731303,-0.008274852,-0.009141524,0.0
113686454,-0.109412245,-0.010806562,-0.014631781,0.006109201,-0.00820947,-0.0091378745,0.0
113714453,-0.14033648,0.14671963,-0.016790057,0.006279093,-0.008287055,-0.009124526,0.0
113746411,-0.004920286,0.02530379,0.0032666656,0.00651341,-0.008388984,-0.009135933,0.0
113778488,0.062929094,-0.062005397,-0.023796212,0.0065475465,-0.008418207,-0.0090939095,0.0
113810415,0.08584467,0.027430415,-0.025781322,0.006376423,-0.008465974,-0.009038566,0.0
113842426,0.038883273,0.017936667,0.0072420905,0.006227638,-0.008448745,-0.009029781,0.0
113874415,-0.029486736,-0.12170955,0.019282475,0.0062982845,-0.008365349,-0.009064887,0.0
113906452,-0.0828724,-0.013628642,-0.0043264935,0.006419519,-0.008300492,-0.009113153,0.0
113938421,-0.1124108,0.13312031,-0.023628958,0.006513284,-0.008422017,-0.009120184,0.0
113966506,0.043994658,0.00575254,-0.005831045,0.0065456075,-0.008520248,-0.009096701,0.0
113998411,0.05136531,-0.010030058,-0.0057405764,0.006586655,-0.008531449,-0.009119012,0.0
114030461,0.064626716,0.0074893767,0.0020762556,0.006540697,-0.008478199,-0.009169082,0.0
114062411,-0.05591602,0.05402379,-0.019819751,0.006541817,-0.008484642,-0.009181657,0.0
114094442,-0.103002466,0.11297897,-0.011852505,0.0066920966,-0.008623653,-0.009181024,0.0
114126411,0.04709708,0.021943795,0.013881208,0.006736785,-0.00878954,-0.009209077,0.0
114158411,0.13015239,-0.12931584,0.0133965425,0.0065914323,-0.008759969,-0.009236921,0.0
114190447,-0.017682904,-0.14075422,-0.004534475,0.006546513,-0.008600394,-0.009213491,0.0
114218496,-0.096224144,0.018396318,-0.017124293,0.0066410853,-0.008547617,-0.009186247,0.0
114252060,-0.09592247,0.096015595,-0.0019177834,0.0067983456,-0.00867435,-0.009168226,0.0
114284075,-0.021911299,-0.0042020646,0.007076979,0.0068619894,-0.008814254,-0.009175823,0.0
114313627,0.112844735,-0.0017493439,-0.013573198,0.0068150153,-0.008839131,-0.009173235,0.0
114345642,0.061333176,0.007747924,-0.013467801,0.0067571416,-0.008819024,-0.009178777,0.0
114377665,0.016067853,0.018520975,-0.0030218477,0.0067365384,-0.008848518,-0.009167656,0.0
114409678,-0.0605865,-0.04744838,-0.013882324,0.0067508807,-0.008907049,-0.009130396,0.0
114441611,-0.07169079,-0.08717698,-0.0036700119,0.0068518287,-0.008839744,-0.009116668,0.0
114473652,0.00285818,-0.0019563916,-0.00774717,0.006979684,-0.0087293135,-0.009095293,0.0
114501611,0.035590764,0.013360933,-0.0049850233,0.0070464537,-0.008634597,-0.009079325,0.0
114533643,0.09162513,-0.03890251,-0.011121867,0.0070236367,-0.008568458,-0.009057539,0.0
114565655,0.029588621,0.011867874,0.001380156,0.0069498527,-0.008578451,-0.009042359,0.0
114597635,0.06464379,0.07535491,0.008660413,0.0068834014,-0.008628929,-0.009036572,0.0
114629611,-0.08031377,0.094783634,-0.007785791,0.006905687,-0.008699435,-0.009019685,0.0
114661682,0.0004611106,0.0011304683,0.0328477,0.0069773155,-0.008781539,-0.009062589,0.0
114693649,-0.13053466,0.056188803,0.0071746022,0.0071051437,-0.008920888,-0.00909179,0.0
114725637,0.023545314,-0.034187596,0.013603143,0.007159645,-0.008917578,-0.009127536,0.0
114753648,-0.08847092,-0.05051056,0.005663612,0.0072086225,-0.00887953,-0.009158621,0.0
114785616,-0.03352947,-0.04378923,0.023590574,0.0072226413,-0.008863012,-0.009209795,0.0
114817611,-0.13875335,-0.013030805,0.0041703368,0.007410057,-0.008908685,-0.0092406785,0.0
114849659,-0.015613126,0.044382516,-0.006965201,0.007620585,-0.008964691,-0.009272515,0.0
114881645,0.14663538,0.0127887195,0.0004379049,0.00749434,-0.009028315,-0.009298956,0.0
114913647,0.024531443,-0.063397326,-0.011686767,0.0073042647,-0.008963397,-0.0093264235,0.0
114945611,-0.194446,0.019619,-0.015009037,0.007452403,-0.008791923,-0.009336786,0.0
114976832,-0.0012435308,0.168023,-0.005066927,0.007670024,-0.008872895,-0.009317826,0.0
115009642,0.13291949,0.26657453,0.0060024494,0.00762723,-0.0092719775,-0.009337513,0.0
115037646,0.089740366,-0.019356184,0.004470606,0.00753878,-0.009553989,-0.009360377,0.0
115068822,-0.07586668,-0.111881845,-0.010644148,0.0075006373,-0.009513128,-0.009375116,0.0
115101628,0.009573826,-0.17259443,-0.0077068685,0.0075522694,-0.009186172,-0.009351109,0.0
115132840,0.06448203,-0.037129503,-0.0073554665,0.007570613,-0.008992536,-0.00930092,0.0
115164849,-0.07003758,0.15224378,-0.0026319467,0.0076849004,-0.009134984,-0.00930164,0.0
115196814,-0.15883712,0.025852203,0.020786451,0.00794049,-0.00929372,-0.009358404,0.0
115228826,0.09135626,-0.08995545,0.0088170795,0.008076709,-0.009347798,-0.009366391,0.0
115260811,0.09668901,-0.09351004,-0.001848426,0.00791759,-0.00929655,-0.009364779,0.0
115292884,-0.0065506143,-0.067837,-0.0061146864,0.0078044785,-0.009192975,-0.009379102,0.0
115320822,-0.10558723,-0.03865247,0.0026043707,0.00793557,-0.009111525,-0.009384961,0.0
115352874,-0.004524345,-0.015345098,0.0057214256,0.008126119,-0.009111214,-0.009394163,0.0
115384811,0.068962924,-0.12331439,0.0037037395,0.008062721,-0.009038541,-0.009383749,0.0
115416811,0.049024276,-0.0108949235,-0.00776653,0.007957477,-0.008971128,-0.009368349,0.0
115448818,-0.03815417,0.1244733,-0.01510667,0.007923344,-0.009047635,-0.009344309,0.0
115480845,0.05389221,0.020496273,-0.010315339,0.007980857,-0.009066227,-0.009324849,0.0
115512849,-0.014893947,-0.04376575,-0.0065856716,0.008005919,-0.008990918,-0.009305471,0.0
115544824,-0.11821498,-0.064062834,-0.006726833,0.0080851205,-0.008870301,-0.009288602,0.0
115576817,0.10721442,0.048007052,-0.0035457877,0.008152129,-0.0088470625,-0.00924458,0.0
115608890,0.07650509,0.1306639,-0.00027773326,0.008125505,-0.008984467,-0.009260119,0.0
115640811,0.033026636,0.009109882,0.019230383,0.008025403,-0.009094125,-0.009309893,0.0
115672862,0.01588952,-0.049881447,0.010425906,0.00790698,-0.009141402,-0.009352971,0.0
115704824,-0.10739749,0.09641197,-0.018236533,0.007923762,-0.009193235,-0.009370134,0.0
115736881,0.10429985,0.050120138,-0.012772432,0.007909059,-0.009282531,-0.009341026,0.0
115768016,0.007010999,-0.10364338,0.011107616,0.007866753,-0.009276848,-0.0093248,0.0
115800013,-0.09869148,-0.08322497,0.00874102,0.007901158,-0.009225536,-0.009356978,0.0
115827255,0.02225056,-0.039889045,0.011873266,0.007962617,-0.009166229,-0.0093922,0.0
115860065,-0.098956056,0.028221037,-0.018320136,0.00811677,-0.009236225,-0.009366334,0.0
115892040,-0.092208266,0.005244279,-0.004675644,0.008335068,-0.009340446,-0.009321505,0.0
115924051,0.05529832,-0.030020023,-0.0047283107,0.008347605,-0.00936291,-0.0093369065,0.0
115956015,0.0884629,-0.019767525,-0.008124787,0.008154517,-0.009345636,-0.009342,0.0
115988022,-0.10345257,-0.073957585,-0.00015736136,0.008114513,-0.009247492,-0.009335799,0.0
116020024,-0.15812106,-0.035302356,0.0020574532,0.008339181,-0.009187116,-0.009340356,0.0
116052052,0.001653669,0.010222583,-0.00724448,0.008469263,-0.009180031,-0.009355375,0.0
116080097,0.18450472,0.024222981,-0.0072141583,0.008370397,-0.009145386,-0.009344551,0.0
116112083,0.071121916,0.0026424602,0.0015605976,0.008202155,-0.00915251,-0.009350117,0.0
116144026,-0.09340729,-0.003915852,-0.00049498165,0.008174995,-0.0091782855,-0.009351548,0.0
116176015,-0.061675783,0.024357198,-0.0016632576,0.008274151,-0.009230687,-0.009338054,0.0
116208065,0.07594543,0.055726986,-0.010632453,0.008341238,-0.009251467,-0.009337501,0.0
116240061,0.1167281,0.06667659,-0.0010441518,0.008227249,-0.0093237925,-0.009337131,0.0
116272016,-0.086929396,-0.110756874,0.0039905515,0.008137427,-0.009330559,-0.009332019,0.0
116304020,-0.021174304,0.0013176657,-0.0065114214,0.008235078,-0.009259598,-0.009311446,0.0
116332057,-0.07189832,0.031598877,0.0009444138,0.008305987,-0.009304171,-0.00929988,0.0
116364041,0.06744462,0.035785075,0.022610435,0.008213745,-0.009446757,-0.009310439,0.0
116396042,0.07742649,-0.012675266,-0.00057000143,0.008085715,-0.0095236795,-0.009317683,0.0
116428022,-0.16696236,-0.11044626,-0.007500265,0.008260294,-0.00941295,-0.009319786,0.0
116460024,-0.118573464,-0.061398957,0.0036439397,0.008486008,-0.009333312,-0.009305838,0.0
116491258,0.096543625,0.07937886,-0.0023076527,0.008477313,-0.0093867965,-0.009311672,0.0
116523309,0.22122878,0.060588796,-0.00802525,0.008274903,-0.009449226,-0.009302515,0.0
116555214,-0.09801357,-0.09024291,-0.0018975121,0.0082370015,-0.009433074,-0.009296182,0.0
116587260,-0.18714361,-0.11047665,0.007747058,0.008475386,-0.009349949,-0.009291443,0.0
116619305,0.072288506,0.046839967,-7.065022e-05,0.0086689405,-0.009293538,-0.009323769,0.0
116647258,-0.015433755,0.0049236757,-0.001116186,0.008647379,-0.009307892,-0.009327749,0.0
116679323,0.048616007,-0.0090657715,-0.002520198,0.008637529,-0.009292497,-0.0093088485,0.0
116711266,0.15192896,0.03725137,-0.0014257275,0.008597437,-0.009344769,-0.009291008,0.0
116743214,0.13074473,0.06993824,-0.0040715663,0.008450621,-0.009398717,-0.009309753,0.0
116775258,0.071585566,0.02938901,0.009824971,0.0082931835,-0.009419034,-0.00933114,0.0
116807257,-0.057302944,-0.055683065,-0.015157157,0.008290384,-0.009444219,-0.009278507,0.0
116839343,-0.13903171,-0.010213642,-0.00588459,0.0084445365,-0.0094836615,-0.009236876,0.0
116871207,0.03146574,0.08600346,-0.0030570212,0.008497999,-0.009581974,-0.009266139,0.0
116899349,0.09584745,-0.0077802483,-0.009932537,0.008359841,-0.009627398,-0.0092614675,0.0
116931213,-0.06929961,-0.05679418,0.006726867,0.008294118,-0.009670835,-0.009233484,0.0
116963241,-0.12788591,0.0025912542,-0.004732405,0.008361004,-0.009722016,-0.009227248,0.0
116995240,0.016365105,-0.012388329,-0.01425753,0.00844072,-0.009676178,-0.00918514,0.0
117027291,0.178868,-0.024734594,0.00016692324,0.008350239,-0.009601734,-0.009189266,0.0
117059269,0.07215623,-0.0131686935,-0.0087635275,0.008119233,-0.009635481,-0.009170867,0.0
117091259,-0.09865166,-0.021976748,-0.007997703,0.008019829,-0.009687117,-0.009124108,0.0
117123247,-0.08778999,0.04331493,0.0012740719,0.0081112,-0.009690066,-0.009120906,0.0
117151245,-0.107328676,-0.084636986,0.012526691,0.008228235,-0.009640913,-0.009152728,0.0
117183252,0.09800095,-0.0004018165,0.00229713,0.008240297,-0.009567739,-0.009173219,0.0
117215257,0.11352528,-0.006600976,-0.0035473877,0.00811616,-0.009541305,-0.009176102,0.0
117246415,-0.034315016,0.06766172,0.005392847,0.007986713,-0.009598857,-0.009187663,0.0
117278440,0.04030425,-0.030315686,0.012345259,0.007881488,-0.009641874,-0.009188692,0.0
117312047,0.00070577645,-0.07208878,-0.00012260777,0.007733049,-0.009631889,-0.009179549,0.0
117343247,-0.08566973,0.038655892,-0.018629026,0.0077590887,-0.0095929485,-0.009158996,0.0
117375214,-0.01700499,0.11800039,0.0006257022,0.00781879,-0.009654911,-0.009157909,0.0
117406451,0.1154162,0.031123046,0.017679745,0.007753283,-0.009824083,-0.009158216,0.0
117438448,-0.0071226964,-0.070265636,0.011830147,0.0076049897,-0.0099056205,-0.009184368,0.0
117466464,-0.03267762,-0.050050844,-0.00037824898,0.0075892913,-0.009888335,-0.009197247,0.0
117498411,-0.1269858,-0.08619165,-0.015724603,0.0077567575,-0.009854704,-0.009150293,0.0
117530411,-0.121814184,0.03432709,-0.014492778,0.007911194,-0.00995268,-0.0090881465,0.0
117562414,0.005440528,0.065542996,0.008383129,0.0079434775,-0.01002428,-0.009116308,0.0
117594460,0.15423162,-0.0803499,-0.007662484,0.007869414,-0.009971186,-0.009121707,0.0
117626452,-0.033761434,-0.07429522,0.0021702615,0.007726136,-0.009870898,-0.009098176,0.0
117658457,-0.05889102,0.06356556,-0.005764883,0.007714867,-0.009911321,-0.0090721585,0.0
117690418,-0.056239408,0.09717181,0.0009994002,0.007804882,-0.010037039,-0.009071563,0.0
117718417,-0.13331255,-0.08225983,0.002004303,0.00793758,-0.010053468,-0.009090248,0.0
117750417,-0.06872725,-0.03595658,-0.012622137,0.0080273,-0.009926873,-0.009115007,0.0
117782439,0.06807314,0.07553421,-0.026992783,0.008039362,-0.009886399,-0.009064976,0.0
117814411,0.15294467,0.09686499,-0.0048048524,0.00784674,-0.010029967,-0.009026383,0.0
117846425,0.060231887,-0.032132044,0.007388918,0.00768746,-0.010074166,-0.009026555,0.0
117878418,-0.089433104,-0.072970115,-0.0001600535,0.007799773,-0.009963905,-0.009015467,0.0
117910478,-0.0026442958,0.04119702,-0.0053345594,0.00796124,-0.009943087,-0.008996344,0.0
117942421,0.14987676,0.019655427,-0.0004867809,0.007887583,-0.009979834,-0.008990769,0.0
117974439,0.023804251,-0.031161962,-0.0049437643,0.007831144,-0.009962315,-0.008985968,0.0
118005659,-0.09968857,-0.08164092,0.009948345,0.007903377,-0.009872902,-0.0089918645,0.0
118037652,-0.13310643,0.004036548,-0.014505882,0.008056065,-0.009834964,-0.008975334,0.0
118069614,0.056136563,0.16522959,-0.01714548,0.008147544,-0.00990255,-0.008937517,0.0
118101605,0.14253351,0.0050848625,0.004541012,0.008041623,-0.009991048,-0.008925958,0.0
118133650,0.010697242,-0.00632045,-0.008340722,0.007893187,-0.010076524,-0.008889679,0.0
118165652,0.070014425,0.040912885,-0.021029735,0.007763283,-0.010173882,-0.008828914,0.0
118197615,-0.110621154,-0.049363196,-0.010038772,0.007786034,-0.010111527,-0.008798819,0.0
118229671,-0.07988419,-0.023942363,0.014904996,0.0078441175,-0.010045784,-0.008777267,0.0
118261661,0.08579718,-0.008718338,0.0080068745,0.0078409165,-0.010038536,-0.008759175,0.0
118293654,-0.09077954,0.08165167,-0.015653595,0.007922137,-0.010083573,-0.0087858755,0.0
118325611,-0.021782251,0.029528435,0.020893764,0.008045264,-0.0101215895,-0.008829241,0.0
118357675,0.13798563,-0.048598398,0.01893656,0.008024414,-0.010083519,-0.008831298,0.0
118389636,0.09948627,-0.08319739,0.01321328,0.007866903,-0.010047844,-0.008857367,0.0
118421681,-0.032801423,-0.008046419,-0.0018421402,0.007810945,-0.01004117,-0.00883722,0.0
118453625,-0.051527746,0.05328218,-0.0010079662,0.007854377,-0.010157441,-0.008843251,0.0
118485643,-0.016082896,-0.042052917,0.002661234,0.007818894,-0.010159581,-0.008863056,0.0
118517616,-0.024637584,0.0006441526,-0.012558943,0.007812959,-0.01004688,-0.008874282,0.0
118549684,0.0057142144,0.045625124,-0.005102135,0.00783625,-0.010004255,-0.00888836,0.0
118581616,0.05346307,0.034560215,0.0131652765,0.007808494,-0.010038665,-0.008900298,0.0
118613611,-0.046156235,-0.034570333,-0.003835903,0.007850842,-0.010091168,-0.008891199,0.0
118645611,-0.05964437,0.073987,-0.0111176595,0.007920942,-0.01024343,-0.008871561,0.0
118673661,0.15624942,0.031403936,0.016769439,0.007833385,-0.010380918,-0.008898661,0.0
118705629,-0.06437075,-0.122028485,-0.009791619,0.007776741,-0.010404345,-0.00888907,0.0
118737684,-0.07319135,-0.010182599,-0.028092904,0.007781189,-0.010361344,-0.008827583,0.0
118769616,-0.0042645624,0.017199319,0.0044564013,0.007887931,-0.010332625,-0.008802986,0.0
118800041,-0.05728076,-0.05432356,0.0014324096,0.007966383,-0.010349556,-0.008806003,0.0
118832857,-0.072191276,-0.010364552,-0.012130109,0.008041935,-0.01034024,-0.008805532,0.0
118864859,-0.02064417,0.09748386,-0.012089188,0.008139854,-0.010369245,-0.008804127,0.0
118896818,0.07241044,0.012122575,0.004413313,0.008190772,-0.010438239,-0.008828615,0.0
118928841,0.08905571,0.015799858,-0.003742825,0.008125382,-0.010499679,-0.008827764,0.0
118960823,-0.002363359,-0.060803346,0.010703085,0.008042372,-0.010517324,-0.0088316295,0.0
118992913,-0.012138287,-0.06096371,0.005976932,0.007973497,-0.010520179,-0.008836825,0.0
119024817,-0.09338936,0.018291913,-0.0013708277,0.008028535,-0.010494141,-0.008833855,0.0
119056851,-0.0047616046,0.03646054,-0.0147133665,0.008155161,-0.0104681775,-0.008832502,0.0
119088863,0.07714133,0.050476477,-0.0020791644,0.0081695765,-0.01050265,-0.008822826,0.0
119120843,0.0148508325,0.015310474,-0.0021607303,0.008124946,-0.010587602,-0.008818994,0.0
