timestamp,time_utc_usec,lat,lon,alt,alt_ellipsoid,s_variance_m_s,c_variance_rad,eph,epv,hdop,vdop,noise_per_ms,jamming_indicator,vel_m_s,vel_n_m_s,vel_e_m_s,vel_d_m_s,cog_rad,timestamp_time_relative,heading,heading_offset,fix_type,vel_ned_valid,satellites_used
93510556,1562313266200020,488479143,23577111,77399,123580,1.264,0.6922586,9.339001,9.682,3.12,4.5699997,101,13,0.23300001,0.22700001,0.051000003,-1.136,4.1301746,0,nan,0.0,3,1,6
93713155,1562313266400020,488479143,23577093,77496,123677,1.116,0.69230664,9.360001,9.742001,3.12,4.5699997,101,13,0.52000004,0.273,-0.44300002,-1.09,4.1301746,0,nan,0.0,3,1,6
93909074,1562313266600020,488479138,23577069,77542,123723,1.153,0.6923522,9.379001,9.805,3.12,4.5699997,101,13,0.595,-0.026,-0.595,-0.97,4.1301746,0,nan,0.0,3,1,6
94106219,1562313266800020,488479130,23577043,77601,123782,1.304,0.69240385,9.401,9.872001,3.12,4.5699997,101,13,0.77800006,-0.165,-0.76100004,-0.93100005,4.1301746,0,nan,0.0,3,1,6
94313114,1562313267000021,488479133,23577039,77715,123896,1.1190001,0.6924511,9.422001,9.940001,3.12,4.5699997,101,10,0.45100003,0.115,-0.43600002,-1.105,4.1301746,0,nan,0.0,3,1,6
94512211,1562313267200021,488479134,23577027,77610,123791,1.1630001,0.6925028,9.438001,10.009001,3.12,4.5699997,101,10,0.75600004,0.22100002,-0.72300005,-1.064,4.1301746,0,nan,0.0,3,1,6
94733074,1562313267400021,488479130,23576997,77451,123632,1.332,0.6925555,9.456,10.080001,3.12,4.5699997,101,10,1.028,0.192,-1.01,-0.77500004,4.1301746,0,nan,0.0,3,1,6
94912246,1562313267600021,488479128,23576969,77288,123469,1.4300001,0.6926147,9.474,10.153001,3.12,4.5699997,101,10,1.2620001,0.125,-1.256,-0.8,4.1301746,0,nan,0.0,3,1,6
95109095,1562313267800021,488479125,23576948,77155,123337,1.4440001,0.6926719,9.492001,10.231001,3.12,4.5699997,101,10,1.021,-0.001,-1.021,-0.75200003,4.1301746,0,nan,0.0,3,1,6
95316098,1562313268000021,488479132,23576944,77035,123216,1.218,0.6927201,9.51,10.312,3.1299999,4.5699997,101,14,0.748,0.31800002,-0.67700005,-0.77400005,4.1301746,0,nan,0.0,3,1,6
95511245,1562313268200021,488479131,23576932,76968,123149,1.228,0.69276863,9.537001,10.396001,3.1299999,4.5699997,101,14,0.69000006,0.231,-0.65000004,-0.81100005,4.1301746,0,nan,0.0,3,1,6
95709056,1562313268400021,488479141,23576932,76893,123074,1.304,0.69282025,9.565001,10.484,3.1299999,4.5699997,101,14,0.776,0.61,-0.47800002,-0.82000005,4.1301746,0,nan,0.0,3,1,6
95912099,1562313268600021,488479144,23576936,76836,123018,1.363,0.6928742,9.585,10.575001,3.1299999,4.5699997,101,14,0.64900005,0.583,-0.28500003,-0.92700005,4.1301746,0,nan,0.0,3,1,6
96116117,1562313268800021,488479150,23576952,76747,122928,1.674,0.69294053,9.606001,10.668,3.1299999,4.5699997,101,14,0.625,0.609,0.143,-0.859,4.1301746,0,nan,0.0,3,1,6
96316107,1562313269000021,488479146,23576964,76586,122768,1.6,0.6930039,9.627001,10.765,3.1299999,4.5699997,101,12,0.432,0.41500002,0.12100001,-0.767,4.1301746,0,nan,0.0,3,1,6
96511334,1562313269200022,488479135,23576961,76365,122546,1.207,0.6930515,9.646001,10.863001,3.1299999,4.5699997,101,12,0.47500002,0.18100001,-0.439,-0.70900005,4.1301746,0,nan,0.0,3,1,6
96730158,1562313269400022,488479122,23576939,76349,122530,1.45,0.693109,9.67,10.965,3.1299999,4.5699997,101,12,0.633,-0.037,-0.632,-0.57900006,4.1301746,0,nan,0.0,3,1,6
96914629,1562313269600022,488479119,23576946,76408,122590,1.24,0.693158,9.695001,11.071,3.1299999,4.5699997,101,12,0.19600001,0.11800001,-0.156,-0.65500003,4.1301746,0,nan,0.0,3,1,6
97114172,1562313269800022,488479133,23576983,76512,122694,2.039,0.6932386,9.725,11.179001,3.1299999,4.5699997,101,12,0.97200006,0.74300003,0.62700003,-0.804,4.1301746,0,nan,0.0,3,1,6
97318051,1562313270000022,488479135,23576997,76617,122798,2.009,0.69331807,9.7560005,11.291,3.1299999,4.5699997,101,14,0.83500004,0.59000003,0.591,-0.80500007,4.1301746,0,nan,0.0,3,1,6
97516713,1562313270200022,488479135,23577028,76383,122565,1.437,0.69337493,9.5,11.216001,1.62,2.06,101,14,0.30600002,0.24400002,0.185,-0.53900003,4.1301746,0,nan,0.0,3,1,7
97717048,1562313270400022,488479136,23577079,75943,122124,1.348,0.69342834,9.305,11.200001,1.75,2.57,101,14,0.12900001,0.094000004,0.089,-0.39600003,4.1301746,0,nan,0.0,3,1,6
97914210,1562313270600022,488479135,23577108,75924,122105,1.342,0.6934812,9.129001,11.195001,1.75,2.57,101,14,0.119,0.094000004,0.072000004,-0.44700003,4.1301746,0,nan,0.0,3,1,6
98114283,1562313270800022,488479127,23577145,75621,121802,1.22,0.69352955,8.971001,11.210001,1.62,2.06,101,14,0.098000005,-0.064,-0.07300001,-0.54300004,4.1301746,0,nan,0.0,3,1,7
98309059,1562313271000022,488479125,23577173,75510,121692,1.386,0.6935844,8.826,11.219001,1.62,2.06,101,12,0.18400002,0.18100001,0.036000002,-0.418,4.1301746,0,nan,0.0,3,1,7
98512099,1562313271200022,488479119,23577192,75741,121922,1.246,0.6936336,8.694,11.222,1.62,2.06,101,12,0.12200001,-0.023000002,0.120000005,-0.679,4.1301746,0,nan,0.0,3,1,7
98728058,1562313271400023,488479110,23577224,75375,121556,1.1980001,0.69368106,8.574,11.236,1.62,2.06,101,12,0.069000006,-0.034,-0.060000002,-0.45600003,4.1301746,0,nan,0.0,3,1,7
98916055,1562313271600023,488479092,23577256,74737,120918,1.302,0.6937324,8.463,11.249001,1.62,2.06,101,12,0.36200002,-0.26700002,-0.245,-0.24900001,4.1301746,0,nan,0.0,3,1,7
99111416,1562313271800023,488479089,23577274,74804,120985,1.1960001,0.6937797,8.362,11.268001,1.62,2.06,101,12,0.101,-0.085,0.055000003,-0.377,4.1301746,0,nan,0.0,3,1,7
99317067,1562313272000023,488479089,23577291,74894,121075,1.2780001,0.69383013,8.269,11.279,1.62,2.06,101,15,0.18400002,0.051000003,0.177,-0.35300002,4.1301746,0,nan,0.0,3,1,7
99512163,1562313272200023,488479087,23577304,75041,121223,1.273,0.69388056,8.184,11.295,1.62,2.06,101,15,0.101,0.08400001,0.055000003,-0.425,4.1301746,0,nan,0.0,3,1,7
99716052,1562313272400023,488479085,23577317,75132,121313,1.294,0.6939317,8.106,11.320001,1.62,2.06,101,15,0.134,0.134,-0.015000001,-0.46,4.1301746,0,nan,0.0,3,1,7
99915130,1562313272600023,488479087,23577331,75313,121495,1.3180001,0.69398373,8.032001,11.341001,1.62,2.06,101,15,0.194,0.193,0.020000001,-0.55300003,4.1301746,0,nan,0.0,3,1,7
100115135,1562313272800023,488479096,23577335,75930,122111,1.3280001,0.69403625,7.9620004,11.356001,1.62,2.06,101,15,0.261,0.21900001,0.143,-0.58900005,4.1301746,0,nan,0.0,3,1,7
100315141,1562313273000023,488479096,23577348,76116,122297,1.3440001,0.6940893,7.8960004,11.372001,1.62,2.06,101,11,0.291,0.268,0.11100001,-0.554,4.1301746,0,nan,0.0,3,1,7
100515138,1562313273200023,488479083,23577381,75444,121625,1.2190001,0.69413745,7.8100004,11.224001,1.23,1.3299999,101,11,0.14500001,0.051000003,0.135,-0.395,4.1301746,0,nan,0.0,3,1,8
100735194,1562313273400023,488479083,23577393,75689,121870,1.289,0.69418824,7.7520003,11.244,1.23,1.3299999,101,11,0.25300002,0.23900001,0.083000004,-0.569,4.1301746,0,nan,0.0,3,1,8
100910128,1562313273600024,488479092,23577399,76257,122438,1.34,0.69424134,7.6910005,11.261001,1.23,1.3299999,101,11,0.37600002,0.34800002,0.14400001,-0.615,4.1301746,0,nan,0.0,3,1,8
101115101,1562313273800024,488479097,23577412,76613,122794,1.386,0.69429594,7.6340003,11.283001,1.23,1.3299999,101,11,0.41900003,0.388,0.156,-0.57900006,4.1301746,0,nan,0.0,3,1,8
101321114,1562313274000024,488479098,23577417,76896,123078,1.2650001,0.694346,7.5810003,11.299001,1.23,1.3299999,100,11,0.307,0.30200002,-0.056,-0.601,4.1301746,0,nan,0.0,3,1,8
101513092,1562313274200024,488479093,23577423,76921,123103,1.1680001,0.69439214,7.531,11.315001,1.23,1.3299999,100,11,0.17300001,0.13800001,-0.105000004,-0.48700002,4.1301746,0,nan,0.0,3,1,8
101718175,1562313274400024,488479084,23577430,76921,123102,1.1290001,0.6944368,7.4830003,11.332001,1.23,1.3299999,100,11,0.098000005,0.07,-0.069000006,-0.504,4.1301746,0,nan,0.0,3,1,8
101917065,1562313274600024,488479083,23577437,77170,123352,1.1800001,0.6944834,7.438,11.348001,1.23,1.3299999,100,11,0.18200001,0.16100001,-0.083000004,-0.531,4.1301746,0,nan,0.0,3,1,8
102115631,1562313274800024,488479073,23577447,77133,123314,1.0830001,0.69452596,7.3950005,11.366,1.23,1.3299999,100,11,0.133,0.013,-0.133,-0.605,4.1301746,0,nan,0.0,3,1,8
102316233,1562313275000024,488479071,23577455,77320,123501,1.2240001,0.69457436,7.3550005,11.384001,1.23,1.3299999,100,10,0.33200002,0.321,-0.082,-0.64400005,4.1301746,0,nan,0.0,3,1,8
102512307,1562313275200024,488479058,23577464,77101,123283,1.0550001,0.694616,7.3180003,11.406,1.23,1.3299999,100,10,0.209,-0.018000001,-0.208,-0.50600004,4.1301746,0,nan,0.0,3,1,8
102733062,1562313275400024,488479048,23577477,77165,123346,1.126,0.69466054,7.287,11.427001,1.23,1.3299999,100,10,0.15200001,-0.125,0.087000005,-0.43,4.1301746,0,nan,0.0,3,1,8
102919390,1562313275600024,488479039,23577490,77039,123221,1.156,0.6947061,7.2570004,11.449,1.23,1.3299999,100,10,0.115,-0.11000001,-0.036000002,-0.209,4.1301746,0,nan,0.0,3,1,8
103115319,1562313275800025,488479040,23577505,77321,123502,1.225,0.6947544,7.2320004,11.479,1.23,1.3299999,100,10,0.15,0.059000004,0.13800001,-0.34800002,4.1301746,0,nan,0.0,3,1,8
103321061,1562313276000025,488479028,23577516,77212,123394,1.103,0.69479793,7.2030005,11.498,1.23,1.3299999,100,13,0.17400001,-0.097,-0.14500001,-0.34300002,4.1301746,0,nan,0.0,3,1,8
103509140,1562313276200025,488479026,23577528,77617,123798,1.1400001,0.69484293,7.1740003,11.501,1.62,2.06,100,13,0.08800001,0.013,0.087000005,-0.33200002,4.1301746,0,nan,0.0,3,1,7
103717603,1562313276400025,488479015,23577539,77499,123681,1.289,0.6948939,7.1480002,11.524,1.62,2.06,100,13,0.179,-0.16900001,-0.056,-0.202,4.1301746,0,nan,0.0,3,1,7
103914189,1562313276600025,488479013,23577553,77790,123971,1.192,0.69494087,7.1250005,11.553,1.62,2.06,100,13,0.14,0.022000002,0.13800001,-0.26500002,4.1301746,0,nan,0.0,3,1,7
104112095,1562313276800025,488479016,23577565,78207,124388,1.268,0.69499093,7.102,11.569,1.62,2.06,100,13,0.187,0.16800001,0.082,-0.36200002,4.1301746,0,nan,0.0,3,1,7
104315100,1562313277000025,488479019,23577581,78806,124988,1.24,0.6950398,7.0810003,11.59,1.62,2.06,100,10,0.333,0.263,0.20400001,-0.70100003,4.1301746,0,nan,0.0,3,1,7
104514358,1562313277200025,488479014,23577590,78898,125079,1.23,0.6950883,7.0650005,11.620001,1.62,2.06,100,10,0.209,0.20400001,-0.044000003,-0.43600002,4.1301746,0,nan,0.0,3,1,7
104735163,1562313277400025,488479001,23577598,78960,125141,1.1040001,0.69513196,7.05,11.648001,1.62,2.06,100,10,0.069000006,-0.061000004,-0.031000001,-0.397,4.1301746,0,nan,0.0,3,1,7
104914675,1562313277600025,488478996,23577607,79229,125411,1.151,0.6951773,7.037,11.68,1.62,2.06,100,10,0.11100001,-0.009000001,0.11100001,-0.40800002,4.1301746,0,nan,0.0,3,1,7
105113105,1562313277800025,488478997,23577615,79765,125946,1.2190001,0.69522554,7.024,11.707001,1.62,2.06,100,10,0.15300001,0.14600001,0.042000003,-0.44900003,4.1301746,0,nan,0.0,3,1,7
105314546,1562313278000026,488478987,23577615,79715,125897,1.0500001,0.6952669,7.0130005,11.741,1.62,2.06,100,13,0.20300001,0.016,-0.202,-0.42900002,4.1301746,0,nan,0.0,3,1,7
105513215,1562313278200026,488478981,23577613,79784,125965,1.0350001,0.69530773,7.0010004,11.77,1.62,2.06,100,13,0.143,0.020000001,-0.142,-0.246,4.1301746,0,nan,0.0,3,1,7
105714174,1562313278400026,488478981,23577615,80157,126338,1.202,0.695355,6.9890003,11.801001,1.62,2.06,100,13,0.080000006,0.065000005,0.047000002,-0.32900003,4.1301746,0,nan,0.0,3,1,7
105914307,1562313278600026,488478979,23577621,80553,126735,1.217,0.69540304,6.9750004,11.820001,1.62,2.06,100,13,0.133,0.089,0.098000005,-0.314,4.1301746,0,nan,0.0,3,1,7
106108095,1562313278800026,488478987,23577632,81232,127413,1.393,0.695458,6.9610004,11.84,1.62,2.06,100,13,0.418,0.34600002,0.23400001,-0.42800003,4.1301746,0,nan,0.0,3,1,7
106316146,1562313279000026,488478999,23577643,82040,128222,1.3360001,0.6955107,6.9470005,11.8550005,1.62,2.06,100,10,0.53800005,0.45600003,0.28500003,-0.69000006,4.1301746,0,nan,0.0,3,1,7
106735626,1562313279400026,488479002,23577662,82897,129079,1.3610001,0.6956165,6.9080005,11.806001,1.23,1.3299999,100,10,0.47900003,0.44200003,0.186,-0.59800005,4.1301746,0,nan,0.0,3,1,8
107714580,1562313280400027,488479022,23577695,85518,131699,1.205,0.69585437,6.879,11.910001,1.23,1.3299999,100,13,0.342,0.319,0.124000005,-0.98800004,4.1301746,0,nan,0.0,3,1,8
107916094,1562313280600027,488479020,23577702,85827,132008,1.1700001,0.69590044,6.8820004,11.944,1.23,1.3299999,100,13,0.15400001,0.075,0.135,-0.734,4.1301746,0,nan,0.0,3,1,8
108114677,1562313280800027,488479026,23577714,86245,132426,1.2700001,0.6959505,6.8820004,11.969001,1.23,1.3299999,100,13,0.38500002,0.363,0.12900001,-0.86600006,4.1301746,0,nan,0.0,3,1,8
108313698,1562313281000027,488479027,23577721,86606,132787,1.19,0.6959973,6.885,11.997001,1.23,1.3299999,100,10,0.16800001,0.162,0.045,-0.785,4.1301746,0,nan,0.0,3,1,8
108515114,1562313281200027,488479024,23577723,86796,132977,1.1290001,0.6960418,6.886,12.02,1.23,1.3299999,100,10,0.091000006,0.080000006,-0.044000003,-0.545,4.1301746,0,nan,0.0,3,1,8
108727244,1562313281400027,488479027,23577729,87116,133298,1.2600001,0.69609135,6.8910003,12.053,1.23,1.3299999,100,10,0.28300002,0.282,0.028,-0.772,4.1301746,0,nan,0.0,3,1,8
108913541,1562313281600027,488479031,23577731,87489,133671,1.2080001,0.69613886,6.8950005,12.078001,1.23,1.3299999,100,10,0.261,0.254,-0.058000002,-0.75500005,4.1301746,0,nan,0.0,3,1,8
109113419,1562313281800027,488479035,23577733,87877,134059,1.164,0.69618475,6.899,12.104001,1.23,1.3299999,100,10,0.17400001,0.17400001,-0.003,-0.97400004,4.1301746,0,nan,0.0,3,1,8
109313144,1562313282000027,488479050,23577745,88797,134978,1.266,0.69623464,6.9030004,12.132001,1.23,1.3299999,90,13,0.531,0.41000003,0.337,-1.149,4.1301746,0,nan,0.0,3,1,8
109513123,1562313282200028,488479067,23577760,89841,136022,1.3060001,0.6962895,6.9030004,12.149,1.62,2.05,90,13,0.689,0.611,0.319,-1.2080001,4.1301746,0,nan,0.0,3,1,7
109712224,1562313282400028,488479065,23577764,90177,136359,1.1980001,0.69633657,6.9080005,12.185,1.62,2.05,90,13,0.27400002,0.259,0.08800001,-1.041,4.1301746,0,nan,0.0,3,1,7
109916111,1562313282600028,488479071,23577769,90744,136926,1.2190001,0.6963846,6.9110003,12.214001,1.62,2.05,90,13,0.358,0.35700002,0.033,-1.154,4.1301746,0,nan,0.0,3,1,7
110116087,1562313282800028,488479063,23577765,90904,137086,1.125,0.6964289,6.9150004,12.242001,1.62,2.05,90,13,0.177,0.039,-0.17300001,-0.91400003,4.1301746,0,nan,0.0,3,1,7
110312073,1562313283000028,488479073,23577771,91551,137732,1.2490001,0.6964781,6.919,12.267,1.62,2.05,90,10,0.404,0.35700002,0.18900001,-1.087,4.1301746,0,nan,0.0,3,1,7
110508185,1562313283200028,488479074,23577774,91963,138145,1.1910001,0.69652873,6.925,12.293,1.62,2.05,90,10,0.312,0.30100003,0.079,-1.2490001,4.1301746,0,nan,0.0,3,1,7
110728129,1562313283400028,488479051,23577772,92272,138453,1.276,0.69659245,6.9330006,12.321001,1.62,2.05,90,10,0.68,-0.674,-0.09200001,-1.468,4.1301746,0,nan,0.0,3,1,7
110912099,1562313283600028,488479045,23577764,92479,138661,1.143,0.69663906,6.9400005,12.349001,1.62,2.05,90,10,0.425,-0.19900002,-0.37600002,-1.102,4.1301746,0,nan,0.0,3,1,7
111112154,1562313283800028,488479038,23577753,92608,138789,1.0890001,0.6966834,6.9480004,12.378,1.62,2.05,90,10,0.42600003,0.012,-0.42600003,-1.046,4.1301746,0,nan,0.0,3,1,7
111309067,1562313284000028,488479040,23577752,92961,139143,1.166,0.6967293,6.9570003,12.411,1.62,2.05,90,10,0.158,0.158,0.010000001,-0.97800004,4.1301746,0,nan,0.0,3,1,7
111512079,1562313284200028,488479042,23577753,93077,139258,1.3240001,0.69678146,6.9690003,12.449,1.62,2.05,90,10,0.38900003,0.33,0.20500001,-0.82500005,4.1301746,0,nan,0.0,3,1,7
111716173,1562313284400029,488479047,23577755,93419,139600,1.3130001,0.69683313,6.9830003,12.485001,1.62,2.05,90,10,0.423,0.38900003,0.164,-1.019,4.1301746,0,nan,0.0,3,1,7
111912259,1562313284600029,488479052,23577765,93713,139894,1.4230001,0.69688916,7.0010004,12.525001,1.62,2.05,90,10,0.657,0.35500002,0.55200005,-1.164,4.1301746,0,nan,0.0,3,1,7
112110369,1562313284800029,488479064,23577783,93943,140124,1.5600001,0.69695044,7.0270004,12.55,1.62,2.05,90,10,1.0220001,0.615,0.81600004,-1.128,4.1301746,0,nan,0.0,3,1,7
112315157,1562313285000029,488479066,23577786,94486,140667,1.366,0.6970042,7.063,12.580001,1.62,2.05,90,10,0.305,0.095000006,0.289,-1.1,4.1301746,0,nan,0.0,3,1,7
112515136,1562313285200029,488479074,23577769,94796,140977,1.128,0.6970485,7.103,12.608001,1.62,2.05,90,10,0.549,0.29200003,-0.46500003,-0.91800004,4.1301746,0,nan,0.0,3,1,7
112721123,1562313285400029,488479058,23577741,95005,141186,1.567,0.6971103,7.1470003,12.619,1.62,2.05,90,10,0.814,-0.393,-0.71300006,-0.998,4.1301746,0,nan,0.0,3,1,7
112909164,1562313285600029,488479037,23577702,95573,141754,1.8160001,0.69718444,7.1870003,12.618001,1.62,2.05,90,10,1.4720001,-1.001,-1.079,-1.1800001,4.1301746,0,nan,0.0,3,1,7
113109132,1562313285800029,488479031,23577654,95622,141803,1.7520001,0.6972534,7.2260003,12.626,1.62,2.05,90,10,1.6450001,-0.64400005,-1.514,-0.37800002,4.1301746,0,nan,0.0,3,1,7
113310230,1562313286000029,488479005,23577617,95369,141550,1.7120001,0.6973206,7.255,12.639001,1.62,2.05,90,10,1.4990001,-0.772,-1.2850001,-0.52900004,4.1301746,0,nan,0.0,3,1,7
113506169,1562313286200029,488478995,23577599,95046,141228,1.4150001,0.69737625,7.2850003,12.652,1.62,2.05,90,10,0.85400003,-0.273,-0.809,-0.629,4.1301746,0,nan,0.0,3,1,7
113712161,1562313286400029,488478993,23577595,94898,141079,1.205,0.69742376,7.2970004,12.659,1.62,2.05,90,10,0.26900002,0.066,-0.26000002,-0.83500004,4.1301746,0,nan,0.0,3,1,7
113905185,1562313286600030,488478999,23577594,94814,140996,1.536,0.69748414,7.3120003,12.6710005,1.62,2.05,90,10,0.476,0.46300003,-0.113000005,-0.804,4.1301746,0,nan,0.0,3,1,7
114108100,1562313286800030,488479007,23577598,94727,140908,1.667,0.6975496,7.3320003,12.684001,1.62,2.05,90,10,0.609,0.60200006,0.09200001,-0.80500007,4.1301746,0,nan,0.0,3,1,7
114313128,1562313287000030,488478998,23577611,94441,140623,1.414,0.69760525,7.352,12.694,1.62,2.05,90,11,0.41300002,0.21400002,0.35300002,-0.96000004,4.1301746,0,nan,0.0,3,1,7
114512093,1562313287200030,488478999,23577627,94262,140444,1.5400001,0.6976658,7.3910003,12.706,1.62,2.05,90,11,0.57600003,0.317,0.48100004,-0.85400003,4.1301746,0,nan,0.0,3,1,7
114724069,1562313287400030,488479010,23577646,94178,140360,1.8160001,0.6977372,7.4370003,12.713,1.62,2.05,90,11,0.84400004,0.61800003,0.57500005,-0.73800004,4.1301746,0,nan,0.0,3,1,7
114908101,1562313287600030,488479022,23577659,94142,140323,2.009,0.6978161,7.4870005,12.725,1.62,2.05,90,11,0.73800004,0.595,0.43500003,-0.46800002,4.1301746,0,nan,0.0,3,1,7
115109577,1562313287800030,488479031,23577655,94488,140669,1.3690001,0.69786984,7.5360003,12.722001,1.62,2.05,90,11,0.083000004,0.072000004,-0.041,-0.492,4.1301746,0,nan,0.0,3,1,7
115311307,1562313288000030,488479037,23577652,94345,140527,1.394,0.6979247,7.5800004,12.696001,1.62,2.05,90,11,0.187,-0.028,-0.185,-0.165,4.1301746,0,nan,0.0,3,1,7
115503196,1562313288200030,488479042,23577665,93941,140122,1.552,0.6979856,7.623,12.670001,1.8199999,2.52,90,11,0.20300001,0.037,0.2,-0.13100001,4.1301746,0,nan,0.0,3,1,6
115704251,1562313288400030,488479053,23577668,94017,140198,1.332,0.6980379,7.668,12.690001,1.8199999,2.52,90,11,0.27800003,0.134,-0.24300002,-0.31100002,4.1301746,0,nan,0.0,3,1,6
115907116,1562313288600030,488479049,23577664,93823,140005,1.9620001,0.69811505,7.7190003,12.714001,1.8199999,2.52,90,11,0.446,-0.323,-0.307,-0.155,4.1301746,0,nan,0.0,3,1,6
116106034,1562313288800031,488479062,23577664,93610,139791,1.355,0.69816834,7.7680006,12.729001,1.8199999,2.52,90,11,0.29500002,0.030000001,-0.293,0.10700001,4.1301746,0,nan,0.0,3,1,6
116310258,1562313289000031,488479062,23577677,93219,139401,1.6090001,0.6982315,7.82,12.747001,1.8199999,2.52,90,11,0.112,0.11100001,0.013,-0.3,4.1301746,0,nan,0.0,3,1,6
116502171,1562313289200031,488479065,23577685,92771,138952,1.838,0.6983036,7.873,12.765,1.8199999,2.52,90,11,0.102000006,0.1,-0.016,-0.079,4.1301746,0,nan,0.0,3,1,6
116712300,1562313289400031,488479065,23577714,91598,137780,1.9930001,0.69838196,7.925,12.729001,1.8199999,2.52,90,11,0.628,0.27600002,0.564,-0.143,4.1301746,0,nan,0.0,3,1,6
116906529,1562313289600031,488479085,23577755,91046,137227,2.0,0.6984603,7.9790006,12.695001,1.8199999,2.52,90,11,1.151,0.56100005,1.005,-0.61300004,4.1301746,0,nan,0.0,3,1,6
117108232,1562313289800031,488479110,23577796,90201,136382,2.127,0.732696,8.024,12.651001,1.8199999,2.52,90,11,1.534,1.0270001,1.1400001,-0.43300003,5.554161,0,nan,0.0,3,1,6
117311172,1562313290000031,488479132,23577836,90411,136592,1.6990001,0.7327675,8.075001,12.673,1.8199999,2.52,89,11,1.8850001,-0.019000001,1.8850001,-0.323,5.554161,0,nan,0.0,3,1,6
117528394,1562313290200031,488479121,23577839,90212,136393,1.771,0.73283386,8.129001,12.698001,1.62,2.05,89,11,0.64100003,-0.50600004,0.393,0.045,5.554161,0,nan,0.0,3,1,7
117708299,1562313290400031,488479150,23577829,90477,136658,1.843,0.7329028,8.194,12.723001,1.62,2.05,89,11,0.347,-0.119,-0.326,0.19800001,5.554161,0,nan,0.0,3,1,7
117913053,1562313290600031,488479180,23577808,90339,136520,1.59,0.7329623,8.2560005,12.693001,1.62,2.05,89,11,0.6,-0.038000003,-0.59900004,0.15,5.554161,0,nan,0.0,3,1,7
118112113,1562313290800031,488479210,23577787,89952,136133,1.6150001,0.7330227,8.313001,12.6640005,1.62,2.05,89,11,0.536,-0.076000005,-0.531,0.252,5.554161,0,nan,0.0,3,1,7
118313054,1562313291000032,488479218,23577798,89707,135888,1.5630001,0.73308116,8.371,12.686001,1.62,2.05,84,11,0.448,-0.37100002,0.25100002,-0.087000005,5.554161,0,nan,0.0,3,1,7
118512110,1562313291200032,488479211,23577824,89516,135697,1.4360001,0.7331349,8.423,12.714001,1.62,2.05,84,11,1.1980001,-0.88100004,0.81200004,-0.324,5.554161,0,nan,0.0,3,1,7
118708096,1562313291400032,488479226,23577834,89336,135517,1.4710001,0.7331899,8.469001,12.738001,1.62,2.05,84,11,0.16800001,-0.16800001,0.010000001,-0.31100002,5.554161,0,nan,0.0,3,1,7
118908058,1562313291600032,488479221,23577840,88585,134766,1.8050001,0.7332573,8.501,12.755001,1.8199999,2.52,84,11,0.22900002,-0.22600001,-0.039,0.24700001,5.554161,0,nan,0.0,3,1,6
119103142,1562313291800032,488479215,23577882,87641,133822,1.8310001,0.7333259,8.534,12.778001,1.8199999,2.52,84,11,0.57900006,0.256,0.51900005,-0.065000005,5.554161,0,nan,0.0,3,1,6
119303223,1562313292000032,488479221,23577885,87333,133514,1.7470001,0.73339117,8.570001,12.801001,1.8199999,2.52,84,11,0.046000004,0.023000002,0.040000003,-0.079,5.554161,0,nan,0.0,3,1,6
119504271,1562313292200032,488479215,23577879,86433,132614,2.036,0.7334674,8.594001,12.768001,1.8199999,2.52,84,11,0.30100003,-0.268,-0.13800001,0.133,5.554161,0,nan,0.0,3,1,6
119703430,1562313292400032,488479218,23577869,85612,131793,1.9820001,0.7335414,8.597,12.718,1.8199999,2.52,84,11,0.39200002,-0.316,-0.23200001,0.148,5.554161,0,nan,0.0,3,1,6
119905404,1562313292600032,488479211,23577885,84299,130481,1.001,0.7335789,8.607,12.679001,1.8199999,2.52,84,11,0.43,-0.22100002,0.36900002,0.134,5.554161,0,nan,0.0,3,1,6
120102334,1562313292800032,488479203,23577878,83827,130008,1.978,0.7336528,8.627001,12.709001,1.8199999,2.52,84,11,0.559,-0.54800004,-0.108,0.321,5.554161,0,nan,0.0,3,1,6
120306142,1562313293000033,488479201,23577870,83440,129622,2.1360002,0.7337327,8.660001,12.734,1.8199999,2.52,84,11,0.615,-0.462,-0.407,0.224,5.554161,0,nan,0.0,3,1,6
120509055,1562313293200033,488479194,23577877,82782,128963,2.1090002,0.73381144,8.701,12.762001,1.8199999,2.52,84,11,0.317,-0.30900002,-0.069000006,0.22000001,5.554161,0,nan,0.0,3,1,6
120705808,1562313293400033,488479201,23577882,82412,128593,1.2440001,0.73385787,8.735001,12.776001,1.8199999,2.52,84,11,0.045,0.044000003,0.010000001,0.35200003,5.554161,0,nan,0.0,3,1,6
120905885,1562313293600033,488479218,23577887,82414,128595,1.228,0.73390377,8.754001,12.775001,1.8199999,2.52,84,11,0.049000002,0.027,0.041,0.11100001,5.554161,0,nan,0.0,3,1,6
121110134,1562313293800033,488479225,23577892,82234,128415,1.332,0.7339535,8.768001,12.772,1.8199999,2.52,84,11,0.109000005,0.09900001,-0.045,0.016,5.554161,0,nan,0.0,3,1,6
121312364,1562313294000033,488479243,23577897,82389,128571,1.853,0.7340228,8.776,12.764001,1.8199999,2.52,84,10,0.192,0.16100001,0.104,-0.164,5.554161,0,nan,0.0,3,1,6
121512097,1562313294200033,488479208,23577888,81557,127738,1.429,0.7340762,8.769,12.762001,1.8199999,2.52,84,10,0.58000004,0.062000003,-0.577,0.266,5.554161,0,nan,0.0,3,1,6
121709170,1562313294400033,488479204,23577877,81331,127513,1.396,0.73412836,8.766001,12.780001,1.8199999,2.52,84,10,0.601,0.17300001,-0.57500005,0.12200001,5.554161,0,nan,0.0,3,1,6
121912097,1562313294600033,488479199,23577852,81281,127463,1.9510001,0.73420113,8.778001,12.814001,1.8199999,2.52,84,10,0.573,-0.079,-0.56700003,0.136,5.554161,0,nan,0.0,3,1,6
122117115,1562313294800033,488479208,23577832,81253,127434,1.6100001,0.7342614,8.799001,12.848001,1.8199999,2.52,84,10,0.63500005,0.246,-0.58500004,-0.019000001,5.554161,0,nan,0.0,3,1,6
122315191,1562313295000033,488479185,23577787,80429,126611,2.273,0.7343462,8.817,12.849001,1.8199999,2.52,84,11,0.91400003,-0.52000004,-0.75200003,0.21000001,5.554161,0,nan,0.0,3,1,6
122513179,1562313295200034,488479173,23577768,79582,125764,1.442,0.73440343,8.835,12.883,1.8199999,2.52,84,11,1.519,0.625,-1.3840001,0.193,5.554161,0,nan,0.0,3,1,6
122714202,1562313295400034,488479143,23577731,78023,124204,1.299,0.70113796,8.842,12.907001,1.8199999,2.52,84,11,2.845,1.4080001,-2.4720001,0.23400001,5.3847322,0,nan,0.0,3,1,6
122911147,1562313295600034,488479155,23577724,77290,123472,1.343,0.70119053,8.845,12.909,1.8199999,2.52,84,11,0.57000005,0.54200006,-0.17500001,0.238,5.3847322,0,nan,0.0,3,1,6
123114166,1562313295800034,488479146,23577711,76017,122198,1.4490001,0.7012472,8.843,12.865001,1.8199999,2.52,84,11,0.36200002,0.28800002,0.21900001,0.22000001,5.3847322,0,nan,0.0,3,1,6
123314137,1562313296000034,488479163,23577681,75076,121258,1.593,0.70130956,8.848001,12.815001,1.8199999,2.52,84,11,0.44400004,0.44300002,0.016,0.027,5.3847322,0,nan,0.0,3,1,6
123517052,1562313296200034,488479145,23577673,74307,120488,1.131,0.7013537,8.847,12.797001,1.8199999,2.52,84,11,0.287,-0.132,0.254,0.21800001,5.3847322,0,nan,0.0,3,1,6
123713249,1562313296400034,488479121,23577664,73775,119956,1.6700001,0.701419,8.844001,12.803,1.8199999,2.52,84,11,0.275,-0.21000001,-0.177,0.46100003,5.3847322,0,nan,0.0,3,1,6
123919204,1562313296600034,488479183,23577622,74569,120750,1.3390001,0.7014713,8.843,12.7890005,1.8199999,2.52,84,11,0.65900004,0.59900004,-0.27600002,-0.25,5.3847322,0,nan,0.0,3,1,6
124115170,1562313296800034,488479186,23577592,73245,119427,1.4180001,0.7015268,8.851001,12.745001,1.8199999,2.52,84,11,0.272,0.264,0.064,0.12200001,5.3847322,0,nan,0.0,3,1,6
124308056,1562313297000034,488479187,23577579,73103,119284,1.2540001,0.7015757,8.853001,12.7560005,1.8199999,2.52,84,11,0.47800002,0.411,-0.24400002,0.008,5.3847322,0,nan,0.0,3,1,6
124513392,1562313297200034,488479193,23577574,73072,119253,1.7780001,0.7016454,8.852,12.767,1.8199999,2.52,84,11,0.56200004,0.528,0.193,-0.011000001,5.3847322,0,nan,0.0,3,1,6
124713189,1562313297400035,488479196,23577573,72893,119075,1.6910001,0.70171136,8.8550005,12.785001,1.8199999,2.52,84,11,0.61700004,0.563,0.25100002,0.13900001,5.3847322,0,nan,0.0,3,1,6
124917095,1562313297600035,488479188,23577578,72179,118360,1.5790001,0.7017731,8.846001,12.753,1.8199999,2.52,84,11,0.43400002,0.328,0.284,0.16700001,5.3847322,0,nan,0.0,3,1,6
125117139,1562313297800035,488479181,23577581,71726,117908,1.5270001,0.70183265,8.834001,12.715,1.8199999,2.52,84,11,0.246,0.126,0.21100001,0.10300001,5.3847322,0,nan,0.0,3,1,6
125316149,1562313298000035,488479188,23577582,71448,117629,1.7680001,0.70190173,8.839001,12.709001,1.8199999,2.52,84,13,0.35300002,0.284,0.209,0.033,5.3847322,0,nan,0.0,3,1,6
125545102,1562313298200035,488479082,23577606,68652,114833,1.6430001,0.701966,8.824,12.661,1.62,2.05,84,13,0.564,-0.53800005,-0.16600001,1.023,5.3847322,0,nan,0.0,3,1,7
125721051,1562313298400035,488479032,23577643,67045,113226,1.2540001,0.70201504,8.795,12.564,1.23,1.3299999,84,13,0.439,-0.082,0.432,0.623,5.3847322,0,nan,0.0,3,1,8
125916076,1562313298600035,488479003,23577677,65734,111916,2.025,0.7020941,8.76,12.429001,1.23,1.3299999,84,13,0.80300003,0.559,0.577,0.33800003,5.3847322,0,nan,0.0,3,1,8
126120087,1562313298800035,488478949,23577712,63903,110084,1.8470001,0.70216614,8.726001,12.276001,1.23,1.3299999,84,13,0.78000003,0.39900002,0.67,0.43,5.3847322,0,nan,0.0,3,1,8
126319135,1562313299000035,488478905,23577695,62627,108808,1.447,0.7022227,8.704,12.127001,1.23,1.3299999,84,11,0.469,-0.29000002,-0.36900002,0.901,5.3847322,0,nan,0.0,3,1,8
126515155,1562313299200035,488478888,23577678,61891,108073,1.473,0.7022801,8.715,12.051001,1.23,1.3299999,84,11,0.363,-0.17500001,-0.31800002,0.615,5.3847322,0,nan,0.0,3,1,8
126716063,1562313299400036,488478832,23577691,60646,106828,1.273,0.7023299,8.67,11.887001,1.23,1.3299999,84,11,0.064,-0.027,-0.058000002,0.2,5.3847322,0,nan,0.0,3,1,8
126911151,1562313299600036,488478812,23577696,59603,105784,1.0990001,0.7023728,8.6710005,11.77,1.23,1.3299999,84,11,0.22800002,-0.042000003,0.22500001,0.09,5.3847322,0,nan,0.0,3,1,8
127118176,1562313299800036,488478791,23577701,58693,104874,1.2490001,0.70242167,8.677,11.708,1.23,1.3299999,84,11,0.21800001,0.192,-0.10300001,0.34300002,5.3847322,0,nan,0.0,3,1,8
127321061,1562313300000036,488478789,23577715,58578,104759,1.8820001,0.702495,8.696,11.684001,1.23,1.3299999,84,15,0.555,0.272,0.48400003,-0.33200002,5.3847322,0,nan,0.0,3,1,8
127534358,1562313300200036,488478791,23577749,58142,104324,2.026,0.702574,8.72,11.678,1.23,1.3299999,84,15,1.1860001,0.683,0.97,-0.275,5.3847322,0,nan,0.0,3,1,8
127713250,1562313300400036,488478789,23577782,57679,103860,2.1130002,0.7026566,8.726001,11.675,1.23,1.3299999,84,15,1.4840001,1.0370001,1.062,-0.21300001,5.3847322,0,nan,0.0,3,1,8
127917090,1562313300600036,488478786,23577813,57281,103463,2.084,0.7718444,8.724,11.673,1.23,1.3299999,84,15,1.6300001,1.105,1.199,-0.19700001,6.1663604,0,nan,0.0,3,1,8
128114280,1562313300800036,488478771,23577823,56915,103096,1.6800001,0.7719041,8.718,11.669001,1.23,1.3299999,84,15,0.9710001,0.37800002,0.89400005,0.116000004,6.1663604,0,nan,0.0,3,1,8
128318136,1562313301000036,488478751,23577837,56606,102787,1.6370001,0.7719622,8.691,11.666,1.23,1.3299999,84,13,0.808,0.279,0.758,0.023000002,6.1663604,0,nan,0.0,3,1,8
128516078,1562313301200036,488478718,23577849,56142,102324,1.228,0.77200586,8.669001,11.679001,1.23,1.3299999,84,13,0.91600007,-0.312,0.86100006,0.33800003,6.1663604,0,nan,0.0,3,1,8
128713168,1562313301400036,488478717,23577872,56059,102240,1.383,0.7720551,8.651,11.696,1.23,1.3299999,84,13,0.92600006,-0.113000005,0.92,-0.044000003,6.1663604,0,nan,0.0,3,1,8
128913131,1562313301600037,488478714,23577907,55497,101678,1.9030001,0.7721226,8.649,11.698001,1.23,1.3299999,84,13,1.197,0.73,0.94900006,0.094000004,6.1663604,0,nan,0.0,3,1,8
129114119,1562313301800037,488478723,23577921,55264,101445,2.104,0.7721973,8.658,11.696,1.23,1.3299999,84,13,0.822,0.614,0.54700005,0.003,6.1663604,0,nan,0.0,3,1,8
129315217,1562313302000037,488478740,23577913,55387,101568,2.2640002,0.7722778,8.675,11.6970005,1.23,1.3299999,84,19,0.43500003,0.42200002,0.105000004,-0.07300001,6.1663604,0,nan,0.0,3,1,8
129524108,1562313302200037,488478751,23577899,55148,101329,1.5740001,0.7723336,8.675,11.679001,1.23,1.3299999,84,19,0.80700004,0.70100003,-0.4,0.148,6.1663604,0,nan,0.0,3,1,8
129716067,1562313302400037,488478773,23577898,55284,101465,1.8720001,0.77240014,8.610001,11.567,1.23,1.3299999,84,19,0.52500004,0.47300002,0.22600001,-0.11000001,6.1663604,0,nan,0.0,3,1,8
129911337,1562313302600037,488478790,23577921,55106,101287,1.8610001,0.7724661,8.594001,11.563001,1.23,1.3299999,84,19,1.046,0.818,0.651,-0.356,6.1663604,0,nan,0.0,3,1,8
130116093,1562313302800037,488478781,23577925,54375,100556,1.8090001,0.7725303,8.578,11.545,1.23,1.3299999,84,19,0.528,0.37500003,0.37100002,0.031000001,6.1663604,0,nan,0.0,3,1,8
130316125,1562313303000037,488478756,23577915,53958,100139,1.585,0.7725865,8.55,11.508,1.23,1.3299999,84,15,0.57500005,-0.57500005,-0.007,0.28,6.1663604,0,nan,0.0,3,1,8
130515142,1562313303200037,488478722,23577904,53205,99386,1.7700001,0.77264935,8.521001,11.467001,1.23,1.3299999,84,15,0.90900004,-0.60400003,-0.679,0.49100003,6.1663604,0,nan,0.0,3,1,8
130715109,1562313303400037,488478701,23577892,52637,98818,1.7320001,0.7727108,8.495001,11.425,1.23,1.3299999,84,15,0.79600006,-0.669,-0.432,0.62100005,6.1663604,0,nan,0.0,3,1,8
130915140,1562313303600037,488478669,23577890,51598,97780,1.6910001,0.7727708,8.47,11.359,1.23,1.3299999,84,15,0.77400005,-0.58000004,-0.513,0.776,6.1663604,0,nan,0.0,3,1,8
131122209,1562313303800038,488478662,23577882,51113,97295,1.406,0.7728208,8.450001,11.298,1.23,1.3299999,84,15,0.38300002,-0.22200002,-0.31300002,0.86100006,6.1663604,0,nan,0.0,3,1,8
131318060,1562313304000038,488478665,23577867,50833,97014,1.2980001,0.77286667,8.448,11.274,1.23,1.3299999,84,15,0.42400002,-0.029000001,-0.423,0.90000004,6.1663604,0,nan,0.0,3,1,8
131537193,1562313304200038,488478655,23577853,50325,96506,1.393,0.7729162,8.442,11.248,1.23,1.3299999,84,15,0.49300003,-0.24300002,-0.42800003,1.0960001,6.1663604,0,nan,0.0,3,1,8
131713064,1562313304400038,488478644,23577847,49771,95952,1.3740001,0.7729649,8.433001,11.222,1.23,1.3299999,84,15,0.47700003,-0.35500002,-0.31800002,1.144,6.1663604,0,nan,0.0,3,1,8
131913677,1562313304600038,488478638,23577830,49557,95738,1.6430001,0.7730232,8.428,11.209001,1.23,1.3299999,84,15,0.82000005,-0.72700006,-0.381,1.0610001,6.1663604,0,nan,0.0,3,1,8
132113201,1562313304800038,488478626,23577827,49194,95375,1.4860001,0.77307594,8.404,11.161,1.23,1.3299999,84,15,0.771,-0.75600004,-0.148,0.9620001,6.1663604,0,nan,0.0,3,1,8
132316239,1562313305000038,488478608,23577820,48607,94788,1.452,0.7731274,8.382,11.124001,1.23,1.3299999,84,14,0.642,-0.48600003,-0.41900003,1.0450001,6.1663604,0,nan,0.0,3,1,8
132518166,1562313305200038,488478610,23577814,48614,94796,1.2520001,0.7731719,8.391001,11.114,1.23,1.3299999,84,14,0.74600005,-0.68500006,0.296,0.96800005,6.1663604,0,nan,0.0,3,1,8
132715313,1562313305400038,488478627,23577833,48747,94929,1.406,0.7732217,8.363001,11.023001,1.23,1.3299999,84,14,0.712,0.112,0.70400006,0.59800005,6.1663604,0,nan,0.0,3,1,8
132917202,1562313305600038,488478639,23577851,48719,94900,1.6320001,0.7732796,8.378,11.037001,1.23,1.3299999,84,14,0.82800007,0.303,0.77000004,0.514,6.1663604,0,nan,0.0,3,1,8
133115180,1562313305800039,488478629,23577857,48409,94590,1.315,0.7733262,8.398001,11.048,1.23,1.3299999,84,14,0.25300002,0.067,0.24400002,0.48400003,6.1663604,0,nan,0.0,3,1,8
133317153,1562313306000039,488478601,23577849,47908,94089,1.7190001,0.77338713,8.418,11.056001,1.23,1.3299999,84,15,0.71400005,-0.66700006,-0.256,0.70000005,6.1663604,0,nan,0.0,3,1,8
133533188,1562313306200039,488478582,23577846,47510,93691,1.715,0.7734479,8.408,11.065001,1.23,1.3299999,84,15,0.637,-0.546,-0.32900003,0.49500003,6.1663604,0,nan,0.0,3,1,8
133718839,1562313306400039,488478584,23577837,47606,93787,1.6060001,0.77350473,8.396001,11.0720005,1.23,1.3299999,84,15,0.49400002,-0.492,-0.045,0.365,6.1663604,0,nan,0.0,3,1,8
133920191,1562313306600039,488478585,23577831,47515,93696,1.514,0.7735585,8.382,11.082001,1.23,1.3299999,84,15,0.23700002,-0.132,-0.19700001,0.30400002,6.1663604,0,nan,0.0,3,1,8
134112052,1562313306800039,488478575,23577818,47543,93724,1.7910001,0.77362186,8.369,11.096001,1.23,1.3299999,84,15,0.68100005,-0.64100003,-0.22900002,0.1,6.1663604,0,nan,0.0,3,1,8
134311272,1562313307000039,488478557,23577800,47415,93597,1.8210001,0.7736864,8.356,11.108001,1.23,1.3299999,84,12,0.98800004,-0.87500006,-0.46,0.282,6.1663604,0,nan,0.0,3,1,8
134510169,1562313307200039,488478541,23577787,47351,93533,1.789,0.77374977,8.345,11.124001,1.23,1.3299999,84,12,0.99500006,-0.94600004,-0.307,0.365,6.1663604,0,nan,0.0,3,1,8
134710336,1562313307400039,488478545,23577788,47299,93481,1.143,0.7737903,8.338,11.1380005,1.23,1.3299999,84,12,0.256,-0.16800001,0.194,0.72,6.1663604,0,nan,0.0,3,1,8
134913181,1562313307600039,488478536,23577792,46965,93146,1.235,0.7738341,8.325001,11.149,1.23,1.3299999,84,12,0.125,-0.116000004,-0.049000002,0.70900005,6.1663604,0,nan,0.0,3,1,8
135113110,1562313307800039,488478537,23577797,46871,93052,1.0830001,0.7738725,8.315001,11.1640005,1.23,1.3299999,84,12,0.23700002,-0.057000004,0.23,0.63500005,6.1663604,0,nan,0.0,3,1,8
135313569,1562313308000040,488478528,23577780,46841,93023,1.5910001,0.7739287,8.305,11.177001,1.23,1.3299999,84,13,0.648,-0.623,-0.18,0.859,6.1663604,0,nan,0.0,3,1,8
135529679,1562313308200040,488478509,23577784,46507,92688,1.3840001,0.77397776,8.301001,11.1970005,1.23,1.3299999,84,13,0.52900004,-0.497,0.18100001,0.731,6.1663604,0,nan,0.0,3,1,8
135709079,1562313308400040,488478506,23577754,46623,92804,1.6960001,0.77403796,8.279,11.166,1.23,1.3299999,84,13,0.75900006,-0.651,-0.39000002,0.91400003,6.1663604,0,nan,0.0,3,1,8
135909078,1562313308600040,488478492,23577741,46344,92525,1.5450001,0.77409273,8.272,11.183001,1.23,1.3299999,84,13,0.55700004,-0.453,-0.32500002,0.87000006,6.1663604,0,nan,0.0,3,1,8
136109078,1562313308800040,488478477,23577725,46153,92334,1.289,0.7741383,8.26,11.205001,1.23,1.3299999,84,13,0.284,-0.27,-0.089,1.0,6.1663604,0,nan,0.0,3,1,8
136309092,1562313309000040,488478457,23577712,45984,92166,1.4590001,0.77418995,8.247001,11.225,1.23,1.3299999,84,12,0.44200003,-0.423,-0.128,0.78800005,6.1663604,0,nan,0.0,3,1,8
136512143,1562313309200040,488478423,23577721,45674,91856,1.2750001,0.77423954,8.237,11.249001,1.23,1.3299999,84,12,1.1500001,-0.84000003,0.786,0.8,6.1663604,0,nan,0.0,3,1,8
136713177,1562313309400040,488478404,23577734,45445,91626,1.153,0.77428037,8.229,11.272,1.23,1.3299999,84,12,0.63500005,-0.30400002,0.55700004,0.61700004,6.1663604,0,nan,0.0,3,1,8
136915128,1562313309600040,488478389,23577751,45175,91356,1.144,0.77432084,8.219001,11.292001,1.23,1.3299999,84,12,0.734,-0.19500001,0.708,0.45400003,6.1663604,0,nan,0.0,3,1,8
137113214,1562313309800040,488478389,23577763,45095,91276,1.365,0.7743692,8.205,11.313001,1.23,1.3299999,84,12,0.62100005,0.33200002,0.52500004,0.31300002,6.1663604,0,nan,0.0,3,1,8
137309126,1562313310000040,488478389,23577777,44960,91141,1.3790001,0.77441806,8.200001,11.345,1.23,1.3299999,84,11,0.768,0.256,0.72400004,0.335,6.1663604,0,nan,0.0,3,1,8
137531131,1562313310200041,488478388,23577795,44853,91034,1.3570001,0.7744661,8.193001,11.372001,1.23,1.3299999,84,11,0.98700005,0.23600002,0.95900005,0.418,6.1663604,0,nan,0.0,3,1,8
137711185,1562313310400041,488478366,23577789,44681,90863,1.442,0.77451724,8.188001,11.404,1.23,1.3299999,84,11,0.455,-0.335,0.30800003,0.72400004,6.1663604,0,nan,0.0,3,1,8
137912072,1562313310600041,488478342,23577775,44337,90519,1.5280001,0.7745713,8.186001,11.436001,1.23,1.3299999,84,11,0.37600002,-0.317,-0.202,0.72900003,6.1663604,0,nan,0.0,3,1,8
138112059,1562313310800041,488478329,23577768,44270,90451,1.202,0.7746139,8.182,11.461,1.23,1.3299999,84,11,0.15300001,-0.082,0.12900001,0.586,6.1663604,0,nan,0.0,3,1,8
138314135,1562313311000041,488478315,23577764,44011,90192,1.0910001,0.7746525,8.179001,11.487,1.23,1.3299999,84,13,0.10300001,0.027,0.09900001,0.558,6.1663604,0,nan,0.0,3,1,8
138509419,1562313311200041,488478281,23577746,43621,89802,1.6610001,0.7747113,8.178,11.515,1.23,1.3299999,84,13,0.72800004,-0.68500006,-0.24800001,0.924,6.1663604,0,nan,0.0,3,1,8
138711210,1562313311400041,488478282,23577704,43913,90094,1.6570001,0.77476996,8.159,11.483001,1.23,1.3299999,84,13,0.92,-0.49400002,-0.776,0.91,6.1663604,0,nan,0.0,3,1,8
138910244,1562313311600041,488478273,23577695,43801,89982,1.5220001,0.77482384,8.172,11.527,1.23,1.3299999,84,13,0.21100001,-0.14,-0.157,0.674,6.1663604,0,nan,0.0,3,1,8
139114802,1562313311800041,488478261,23577682,43782,89963,1.2620001,0.77486837,8.198,11.577001,1.23,1.3299999,84,13,0.087000005,-0.054,0.069000006,0.564,6.1663604,0,nan,0.0,3,1,8
139310160,1562313312000041,488478266,23577672,43792,89974,1.493,0.77492124,8.229,11.6310005,1.23,1.3299999,84,12,0.66700006,0.66,-0.098000005,0.25800002,6.1663604,0,nan,0.0,3,1,8
139530194,1562313312200041,488478261,23577683,43648,89829,1.9520001,0.7749904,8.264,11.687,1.23,1.3299999,84,12,0.89500004,0.58100003,0.68100005,0.254,6.1663604,0,nan,0.0,3,1,8
139713847,1562313312400042,488478246,23577703,43308,89489,1.603,0.77504706,8.293,11.738001,1.23,1.3299999,84,12,1.026,0.22800002,1.0,0.48000002,6.1663604,0,nan,0.0,3,1,8
139909048,1562313312600042,488478232,23577727,42806,88987,1.468,0.7750989,8.314,11.786,1.23,1.3299999,84,12,0.97700006,0.273,0.938,0.54200006,6.1663604,0,nan,0.0,3,1,8
140113048,1562313312800042,488478230,23577761,42591,88772,1.6060001,0.77515584,8.335,11.829,1.23,1.3299999,84,12,1.2850001,0.32700002,1.243,0.31100002,6.1663604,0,nan,0.0,3,1,8
140311529,1562313313000042,488478240,23577774,42631,88813,1.7650001,0.7752183,8.371,11.878,1.23,1.3299999,84,12,1.0090001,0.44500002,0.906,0.342,6.1663604,0,nan,0.0,3,1,8
140513048,1562313313200042,488478230,23577779,42377,88558,1.401,0.7752679,8.410001,11.927001,1.23,1.3299999,84,12,0.65500003,0.058000002,0.65300006,0.62100005,6.1663604,0,nan,0.0,3,1,8
140713231,1562313313400042,488478197,23577771,41707,87888,1.59,0.77532405,8.4470005,11.97,1.23,1.3299999,84,12,0.47100002,-0.47100002,-0.010000001,0.957,6.1663604,0,nan,0.0,3,1,8
140916059,1562313313600042,488478194,23577755,41737,87919,1.8470001,0.7753894,8.491,12.024,1.23,1.3299999,84,12,0.45000002,-0.30100003,-0.33400002,0.637,6.1663604,0,nan,0.0,3,1,8
141114238,1562313313800042,488478186,23577758,41497,87678,1.5170001,0.7754431,8.537001,12.081,1.23,1.3299999,84,12,0.29900002,-0.26500002,0.13800001,0.66,6.1663604,0,nan,0.0,3,1,8
141314347,1562313314000042,488478168,23577759,41587,87769,1.554,0.7754979,8.581,12.13,1.23,1.3299999,84,16,1.284,-1.0810001,0.69200003,0.712,6.1663604,0,nan,0.0,3,1,8
141536180,1562313314200042,488478150,23577763,41704,87885,1.7260001,0.775559,8.615001,12.179001,1.23,1.3299999,84,16,1.2620001,-1.133,0.55600005,0.72700006,6.1663604,0,nan,0.0,3,1,8
141708107,1562313314400043,488478131,23577766,41772,87954,1.733,0.7756203,8.634001,12.225,1.8199999,2.51,84,16,0.64000005,-0.60300004,0.21400002,0.46100003,6.1663604,0,nan,0.0,3,1,6
141911707,1562313314600043,488478097,23577759,41428,87609,1.8320001,0.775685,8.653001,12.279,1.8199999,2.51,84,16,0.483,-0.47300002,-0.098000005,0.65900004,6.1663604,0,nan,0.0,3,1,6
142109165,1562313314800043,488478043,23577746,41516,87697,1.7780001,0.77574784,8.634001,12.328001,1.8199999,2.51,84,16,0.72200006,-0.707,0.15100001,0.45900002,6.1663604,0,nan,0.0,3,1,6
142310814,1562313315000043,488478000,23577727,41638,87819,1.8080001,0.77581173,8.612,12.369,1.8199999,2.51,84,10,0.943,-0.943,0.029000001,0.568,6.1663604,0,nan,0.0,3,1,6
142502418,1562313315200043,488477970,23577722,41548,87729,1.904,0.7758789,8.592,12.405001,1.8199999,2.51,84,10,0.316,-0.25800002,-0.18300001,0.186,6.1663604,0,nan,0.0,3,1,6
142710202,1562313315400043,488477936,23577705,41305,87486,1.7990001,0.7759426,8.573,12.428,1.8199999,2.51,84,10,0.25300002,-0.163,-0.194,0.19700001,6.1663604,0,nan,0.0,3,1,6
142913106,1562313315600043,488477912,23577677,41308,87489,1.835,0.77600735,8.559,12.452001,1.8199999,2.51,84,10,0.565,-0.393,-0.40600002,0.333,6.1663604,0,nan,0.0,3,1,6
143110397,1562313315800043,488477890,23577642,41054,87236,1.8510001,0.7760728,8.5460005,12.443001,1.8199999,2.51,84,10,0.92800003,-0.708,-0.59900004,0.416,6.1663604,0,nan,0.0,3,1,6
143310666,1562313316000043,488477872,23577608,40823,87004,1.8650001,0.7761386,8.537001,12.433001,1.8199999,2.51,84,12,0.99600005,-0.73300004,-0.675,0.48900002,6.1663604,0,nan,0.0,3,1,6
143509122,1562313316200043,488477850,23577588,40176,86357,1.4480001,0.77620775,8.541,12.486001,1.8199999,2.51,84,12,1.9420002,0.92300004,-1.7080001,0.22500001,6.1663604,0,nan,0.0,3,1,6
143711450,1562313316400043,488477842,23577569,39992,86173,1.9770001,0.77627754,8.591001,12.553,1.8199999,2.51,84,12,0.558,-0.003,-0.558,0.30100003,6.1663604,0,nan,0.0,3,1,6
143907016,1562313316600044,488477813,23577567,39363,85544,2.325,0.77635956,8.651,12.593,1.8199999,2.51,84,12,0.476,-0.44700003,-0.163,0.568,6.1663604,0,nan,0.0,3,1,6
144109380,1562313316800044,488477766,23577538,38613,84794,2.525,0.7764488,8.711,12.623,1.8199999,2.51,84,12,1.266,-1.141,-0.54800004,1.08,6.1663604,0,nan,0.0,3,1,6
144308189,1562313317000044,488477765,23577568,38320,84501,1.794,0.77651197,8.755,12.677001,1.8199999,2.51,84,13,0.50200003,-0.485,0.128,0.73800004,6.1663604,0,nan,0.0,3,1,6
144509129,1562313317200044,488477780,23577572,38631,84812,1.0480001,0.7765489,8.775001,12.725,1.8199999,2.51,84,13,0.17600001,0.13800001,0.109000005,0.545,6.1663604,0,nan,0.0,3,1,6
144707309,1562313317400044,488477805,23577587,38970,85152,1.506,0.7766022,8.791,12.741,1.8199999,2.51,84,13,0.83500004,0.259,0.79300004,0.35900003,6.1663604,0,nan,0.0,3,1,6
144907151,1562313317600044,488477815,23577609,39237,85418,1.3920001,0.7766514,8.7890005,12.779,1.8199999,2.51,84,13,1.3130001,0.083000004,1.3100001,0.37,6.1663604,0,nan,0.0,3,1,6
145099313,1562313317800044,488477817,23577642,39103,85285,1.5370001,0.7767055,8.788,12.814001,1.8199999,2.51,84,13,1.228,0.26700002,1.1980001,0.24700001,6.1663604,0,nan,0.0,3,1,6
145311061,1562313318000044,488477829,23577662,39192,85374,1.7220001,0.7767664,8.812,12.85,1.8199999,2.51,84,10,1.223,0.568,1.0840001,0.32700002,6.1663604,0,nan,0.0,3,1,6
145508072,1562313318200044,488477823,23577664,39086,85268,1.251,0.7768106,8.839001,12.861001,1.8199999,2.51,84,10,0.72800004,0.082,0.72300005,0.492,6.1663604,0,nan,0.0,3,1,6
145711227,1562313318400044,488477818,23577647,39210,85391,1.36,0.77685857,8.862,12.880001,1.8199999,2.51,84,10,0.16000001,-0.123,0.102000006,0.64100003,6.1663604,0,nan,0.0,3,1,6
145907805,1562313318600044,488477776,23577616,38685,84867,1.945,0.7769272,8.887,12.902,1.8199999,2.51,84,10,1.016,-0.93700004,-0.393,0.957,6.1663604,0,nan,0.0,3,1,6
146110177,1562313318800045,488477744,23577586,38560,84741,1.9420002,0.7769956,8.912001,12.958,1.8199999,2.51,84,10,1.187,-1.072,-0.51000005,1.1240001,6.1663604,0,nan,0.0,3,1,6
146308814,1562313319000045,488477736,23577597,38499,84680,1.5610001,0.77705073,8.941,13.007001,1.8199999,2.51,84,12,0.462,-0.42700002,0.17600001,0.651,6.1663604,0,nan,0.0,3,1,6
146513986,1562313319200045,488477725,23577584,38615,84797,1.8800001,0.7771171,8.956,13.022,1.8199999,2.51,84,12,0.572,-0.55700004,-0.13100001,0.49400002,6.1663604,0,nan,0.0,3,1,6
146709134,1562313319400045,488477704,23577582,38286,84467,1.7360001,0.7771783,8.97,13.032001,1.8199999,2.51,84,12,0.37800002,-0.377,-0.030000001,0.52000004,6.1663604,0,nan,0.0,3,1,6
146905867,1562313319600045,488477688,23577566,38244,84426,1.7580001,0.7772403,8.979,13.053,1.8199999,2.51,84,12,0.59900004,-0.59000003,-0.104,0.74300003,6.1663604,0,nan,0.0,3,1,6
147108290,1562313319800045,488477682,23577561,38265,84446,1.485,0.7772926,8.983001,13.05,1.8199999,2.51,84,12,0.296,-0.294,0.033,0.68700004,6.1663604,0,nan,0.0,3,1,6
147305159,1562313320000045,488477687,23577557,38499,84680,1.3110001,0.77733886,8.992001,13.054001,1.8199999,2.51,84,12,0.13100001,-0.098000005,0.087000005,0.43800002,6.1663604,0,nan,0.0,3,1,6
147508218,1562313320200045,488477690,23577554,38621,84803,1.192,0.77738094,9.011001,13.055,1.8199999,2.51,84,12,0.31100002,-0.179,0.254,0.335,6.1663604,0,nan,0.0,3,1,6
147706178,1562313320400045,488477668,23577557,38303,84484,1.659,0.7774396,9.049001,13.093,1.8199999,2.51,84,12,0.39600003,-0.38700002,0.082,0.44300002,6.1663604,0,nan,0.0,3,1,6
147911297,1562313320600045,488477620,23577559,37746,83928,2.085,0.7775131,9.0720005,13.067,1.8199999,2.51,84,12,0.90500003,-0.878,-0.21900001,0.402,6.1663604,0,nan,0.0,3,1,6
148112048,1562313320800045,488477565,23577566,37118,83299,2.2240002,0.7775914,9.092,13.041,1.8199999,2.51,84,12,0.95000005,-0.827,-0.46800002,-0.117000006,6.1663604,0,nan,0.0,3,1,6
148311230,1562313321000046,488477566,23577582,36978,83159,1.1850001,0.7776333,9.1,13.017,1.8199999,2.51,84,11,0.37,-0.259,0.264,0.142,6.1663604,0,nan,0.0,3,1,6
148512132,1562313321200046,488477543,23577609,36319,82500,1.131,0.7776731,9.113001,13.005001,1.8199999,2.51,84,11,0.77500004,-0.39400002,0.66700006,0.67,6.1663604,0,nan,0.0,3,1,6
148706206,1562313321400046,488477507,23577629,35798,81979,1.437,0.7777237,9.1380005,12.994,1.8199999,2.51,84,11,0.781,-0.684,0.37800002,0.59400004,6.1663604,0,nan,0.0,3,1,6
148911160,1562313321600046,488477497,23577668,35178,81359,1.2520001,0.7777756,9.181001,13.01,1.8199999,2.51,84,11,0.99500006,-0.216,0.9710001,1.0780001,6.1663604,0,nan,0.0,3,1,6
149106154,1562313321800046,488477529,23577685,35599,81780,1.838,0.7778403,9.225,13.037001,1.8199999,2.51,84,11,0.74500006,0.52000004,0.53300005,0.71800005,6.1663604,0,nan,0.0,3,1,6
149309075,1562313322000046,488477558,23577697,35963,82144,1.769,0.7779026,9.267,13.069,1.8199999,2.51,84,11,0.91400003,0.35700002,0.841,0.61800003,6.1663604,0,nan,0.0,3,1,6
149509561,1562313322200046,488477591,23577708,35683,81864,2.078,0.7779759,9.327001,13.103001,1.8199999,2.51,84,11,1.404,1.404,0.033,1.049,6.1663604,0,nan,0.0,3,1,6
149710382,1562313322400046,488477626,23577723,35579,81760,2.513,0.7780644,9.385,13.145,1.8199999,2.51,84,11,1.6400001,1.6120001,0.30100003,0.808,6.1663604,0,nan,0.0,3,1,6
149909686,1562313322600046,488477645,23577723,35970,82151,2.411,0.7781494,9.423,13.184001,1.8199999,2.51,84,11,0.934,0.864,0.354,0.256,6.1663604,0,nan,0.0,3,1,6
150110359,1562313322800046,488477651,23577722,35735,81916,2.0370002,0.77822113,9.462001,13.216001,1.8199999,2.51,84,11,0.65500003,0.65500003,0.014,0.45100003,6.1663604,0,nan,0.0,3,1,6
150310208,1562313323000046,488477673,23577727,35889,82070,1.8370001,0.7782859,9.503,13.246,1.8199999,2.51,84,12,0.61700004,0.37800002,0.48800004,0.544,6.1663604,0,nan,0.0,3,1,6
150514190,1562313323200047,488477669,23577737,35630,81811,1.5860001,0.77834177,9.552,13.278001,1.8199999,2.51,84,12,0.37,0.11000001,0.354,0.544,6.1663604,0,nan,0.0,3,1,6
150713083,1562313323400047,488477710,23577759,35516,81697,2.4390001,0.7784276,9.612,13.307,1.8199999,2.51,84,12,1.213,1.1500001,0.38700002,0.48900002,6.1663604,0,nan,0.0,3,1,6
150912066,1562313323600047,488477678,23577770,35189,81370,1.197,0.77846986,9.644,13.314001,1.8199999,2.51,84,12,0.753,-0.319,0.683,0.282,6.1663604,0,nan,0.0,3,1,6
151112420,1562313323800047,488477671,23577757,34971,81152,1.9290001,0.77853775,9.663,13.297001,1.8199999,2.51,84,12,0.46300003,-0.42400002,-0.187,0.55700004,6.1663604,0,nan,0.0,3,1,6
151317048,1562313324000047,488477683,23577749,35011,81192,2.16,0.77861387,9.68,13.264001,1.8199999,2.51,84,14,0.363,-0.279,-0.23300001,0.30400002,6.1663604,0,nan,0.0,3,1,6
151515814,1562313324200047,488477774,23577749,35744,81925,1.835,0.7786784,9.691,13.239,1.8199999,2.51,84,14,1.1830001,1.113,0.402,0.89000005,6.1663604,0,nan,0.0,3,1,6
151711114,1562313324400047,488477809,23577761,35921,82102,2.194,0.77875555,9.726001,13.240001,1.8199999,2.51,84,14,1.051,0.81700003,0.661,0.39000002,6.1663604,0,nan,0.0,3,1,6
151917057,1562313324600047,488477832,23577770,36165,82347,2.1920002,0.77883273,9.742001,13.250001,1.8199999,2.51,84,14,0.79300004,0.669,0.42700002,-0.223,6.1663604,0,nan,0.0,3,1,6
152115445,1562313324800047,488477880,23577833,36479,82660,1.9950001,0.6820795,9.761001,13.288001,1.8199999,2.51,84,14,2.4450002,0.99500006,2.2340002,-0.40800002,0.60117495,0,nan,0.0,3,1,6
152319182,1562313325000047,488477928,23577869,36727,82908,2.1320002,0.4832619,9.753,13.309001,1.8199999,2.51,84,14,2.288,1.7220001,1.5070001,-0.615,0.6794903,0,nan,0.0,3,1,6
152518370,1562313325200047,488477937,23577891,36799,82980,1.9490001,0.7367593,9.7560005,13.321001,1.8199999,2.51,84,14,1.557,0.90800005,1.2650001,-0.563,0.76029974,0,nan,0.0,3,1,6
152714163,1562313325400048,488477965,23577907,37145,83326,2.0010002,0.73683363,9.745001,13.319,1.8199999,2.51,84,14,1.439,1.1290001,0.892,-0.45700002,0.76029974,0,nan,0.0,3,1,6
152913052,1562313325600048,488477951,23577896,37102,83284,1.4590001,0.73688793,9.727,13.299001,1.8199999,2.51,84,14,0.12900001,0.009000001,0.12900001,-0.24000001,0.76029974,0,nan,0.0,3,1,6
153113150,1562313325800048,488477956,23577909,37300,83481,1.5610001,0.73694605,9.707001,13.275001,1.8199999,2.51,84,14,0.36800003,0.056,0.363,-0.62600005,0.76029974,0,nan,0.0,3,1,6
153315312,1562313326000048,488477953,23577918,37358,83539,1.447,0.7369998,9.704,13.265,1.8199999,2.51,84,16,0.30400002,0.09,0.29000002,-0.845,0.76029974,0,nan,0.0,3,1,6
153515147,1562313326200048,488477937,23577925,37131,83312,1.7030001,0.7370633,9.695001,13.246,1.8199999,2.51,84,16,0.41700003,0.11400001,0.40100002,-0.24300002,0.76029974,0,nan,0.0,3,1,6
153714149,1562313326400048,488477980,23577929,37811,83992,1.8640001,0.7371326,9.689,13.234,1.8199999,2.51,84,16,1.0860001,0.77500004,0.76100004,0.15900001,0.76029974,0,nan,0.0,3,1,6
153934240,1562313326600048,488478069,23577987,38300,84481,1.8390001,0.32166836,9.673,13.202001,1.62,2.05,84,16,3.0230002,2.703,1.355,0.45000002,0.51189315,0,nan,0.0,3,1,7
154121116,1562313326800048,488478198,23578032,39266,85447,2.078,0.24808405,9.668,13.1640005,1.62,2.05,84,16,3.9190001,3.561,1.6370001,0.497,0.46101335,0,nan,0.0,3,1,7
154314128,1562313327000048,488478318,23578047,40457,86638,2.354,0.4133374,9.675,13.143001,1.23,1.3299999,84,15,3.5240002,3.4840002,0.53300005,0.123,0.37893486,0,nan,0.0,3,1,8
154512075,1562313327200048,488478377,23578086,41240,87422,2.19,0.73255306,9.675,13.123001,1.23,1.3299999,84,15,2.344,1.7590001,1.549,-0.36600003,0.46181828,0,nan,0.0,3,1,8
154708143,1562313327400049,488478511,23578131,42910,89092,2.098,0.7731843,9.64,13.016001,1.62,2.05,84,15,1.9120001,1.4790001,1.2110001,-0.19900002,0.5679713,0,nan,0.0,3,1,7
154911292,1562313327600049,488478605,23578157,44650,90831,1.2420001,0.7732283,9.5720005,12.836,1.62,2.05,84,15,0.58900005,-0.046000004,0.587,-0.507,0.5679713,0,nan,0.0,3,1,7
155112065,1562313327800049,488478695,23578145,46651,92832,2.0500002,0.7733009,9.530001,12.713,1.62,2.05,84,15,1.264,-1.225,-0.31100002,-0.22000001,0.5679713,0,nan,0.0,3,1,7
155311345,1562313328000049,488478771,23578159,47606,93787,1.2520001,0.7733454,9.463,12.582001,1.62,2.05,84,11,0.23900001,0.021000002,-0.238,-0.45900002,0.5679713,0,nan,0.0,3,1,7
155499783,1562313328200049,488478844,23578165,47847,94028,1.3100001,0.77339184,9.376,12.387001,1.62,2.05,84,11,0.41000003,0.062000003,0.40600002,-0.29000002,0.5679713,0,nan,0.0,3,1,7
155708218,1562313328400049,488478916,23578131,48981,95163,1.7350001,0.77345324,9.282001,12.191001,1.62,2.05,84,11,1.2490001,-0.791,-0.96700007,0.2,0.5679713,0,nan,0.0,3,1,7
155927134,1562313328600049,488478930,23578081,49551,95732,1.6290001,0.54459363,9.154,11.948001,1.62,2.05,84,11,2.2210002,-1.3850001,-1.7360001,0.26900002,4.970888,0,nan,0.0,3,1,7
156111181,1562313328800049,488478935,23578020,49716,95898,1.618,0.7123112,8.976001,11.601001,1.62,2.05,84,11,1.9620001,-1.3060001,-1.4640001,0.887,4.606632,0,nan,0.0,3,1,7
156312104,1562313329000049,488478920,23577974,50164,96345,1.291,0.7123723,8.732,11.26,1.62,2.05,84,15,1.3670001,-0.703,-1.172,0.80700004,4.606632,0,nan,0.0,3,1,7
156506600,1562313329200049,488478871,23577960,49519,95701,0.82600003,0.7124163,8.491,10.942,1.62,2.05,84,15,0.637,-0.22100002,-0.597,0.94900006,4.606632,0,nan,0.0,3,1,7
157110310,1562313329800050,488478781,23577831,48936,95117,0.94600004,0.71259034,8.075001,10.472,1.62,2.05,84,15,1.3540001,0.448,-1.2780001,1.075,4.606632,0,nan,0.0,3,1,7
157312140,1562313330000050,488478712,23577775,48607,94789,0.81200004,0.7126491,7.8980002,10.393001,1.62,2.05,84,14,1.003,0.85,-0.53300005,1.153,4.606632,0,nan,0.0,3,1,7
157514312,1562313330200050,488478719,23577747,48600,94781,0.994,0.7126998,7.8360004,10.366,1.62,2.05,84,14,0.377,0.001,0.377,1.2570001,4.606632,0,nan,0.0,3,1,7
157714133,1562313330400050,488478672,23577718,48279,94460,0.85700005,0.7127528,7.7180004,10.334001,1.62,2.05,84,14,0.73800004,0.54,0.503,1.164,4.606632,0,nan,0.0,3,1,7
157934295,1562313330600050,488478690,23577698,48246,94427,1.011,0.712805,7.6530004,10.274,1.62,2.05,84,14,0.93100005,0.39000002,0.845,0.99000007,4.606632,0,nan,0.0,3,1,7
158109646,1562313330800050,488478707,23577637,48611,94792,0.9250001,0.71284235,7.5780005,10.201,1.62,2.05,84,14,0.15,0.15,-0.009000001,0.95900005,4.606632,0,nan,0.0,3,1,7
158311212,1562313331000050,488478696,23577603,48861,95042,1.1930001,0.71288824,7.5010004,10.151,1.62,2.05,84,10,0.40500003,-0.29500002,-0.27800003,0.84400004,4.606632,0,nan,0.0,3,1,7
158518131,1562313331200050,488478637,23577539,48502,94684,0.721,0.7129221,7.3320003,9.990001,1.62,2.05,84,10,0.42100003,0.407,-0.105000004,0.77400005,4.606632,0,nan,0.0,3,1,7
158720115,1562313331400050,488478609,23577466,48412,94593,0.64000005,0.7129516,7.037,9.863001,1.62,2.05,84,10,0.372,0.36600003,0.063,0.67,4.606632,0,nan,0.0,3,1,7
158924064,1562313331600050,488478561,23577413,46250,92431,0.81200004,0.7129868,6.8820004,9.642,1.62,2.05,84,10,0.77400005,0.711,0.307,0.48900002,4.606632,0,nan,0.0,3,1,7
159115193,1562313331800051,488478563,23577379,46314,92495,0.81000006,0.71301794,6.774,9.522,1.62,2.05,84,10,0.661,0.63600004,0.179,0.305,4.606632,0,nan,0.0,3,1,7
159319150,1562313332000051,488478494,23577349,44885,91066,0.82600003,0.7130497,6.5940003,9.279,1.62,2.05,84,18,0.762,0.70900005,0.27800003,0.254,4.606632,0,nan,0.0,3,1,7
159514555,1562313332200051,488478432,23577323,44509,90691,0.744,0.7130942,6.4290004,9.226001,1.62,2.05,84,18,1.07,1.0220001,0.31800002,0.437,4.606632,0,nan,0.0,3,1,7
159715220,1562313332400051,488478349,23577302,43796,89977,0.86500007,0.7131376,6.2760005,9.137,1.62,2.05,84,18,0.90900004,0.48200002,0.77000004,0.67200005,4.606632,0,nan,0.0,3,1,7
159934506,1562313332600051,488478371,23577320,43710,89892,1.0170001,0.630966,6.229,9.092,1.62,2.05,84,18,1.389,0.89500004,1.062,0.328,6.0354576,0,nan,0.0,3,1,7
160118215,1562313332800051,488478407,23577334,43761,89943,1.054,0.640569,6.1640005,8.994,1.62,2.05,84,18,1.4250001,1.215,0.74500006,0.24400002,0.14518031,0,nan,0.0,3,1,7
160313076,1562313333000051,488478445,23577355,43989,90171,1.3750001,0.64063966,6.1450005,8.966001,1.62,2.05,84,12,1.5780001,1.258,0.95400006,0.497,0.14518031,0,nan,0.0,3,1,7
160515172,1562313333200051,488478472,23577350,44369,90550,1.085,0.6406861,6.137,8.940001,1.62,2.05,84,12,0.46,-0.027,0.46,-0.068,0.14518031,0,nan,0.0,3,1,7
160710401,1562313333400051,488478500,23577331,44841,91022,1.182,0.6407367,6.1280003,8.904,1.62,2.05,84,12,0.43400002,0.057000004,0.43,0.060000002,0.14518031,0,nan,0.0,3,1,7
160914136,1562313333600051,488478534,23577302,45416,91597,1.434,0.6407981,6.1130004,8.861,1.62,2.05,84,12,0.559,0.54200006,0.13700001,-0.068,0.14518031,0,nan,0.0,3,1,7
161113064,1562313333800051,488478553,23577308,45304,91485,1.2340001,0.640851,6.097,8.833,1.62,2.05,84,12,0.497,0.36900002,0.333,0.171,0.14518031,0,nan,0.0,3,1,7
161322178,1562313334000052,488478587,23577284,45923,92105,1.0660001,0.64090425,6.0740004,8.824,1.62,2.05,84,15,1.2440001,1.2420001,0.069000006,0.059000004,0.14518031,0,nan,0.0,3,1,7
161521107,1562313334200052,488478601,23577274,46007,92189,1.144,0.7444022,6.038,8.811001,1.62,2.05,84,15,1.1780001,0.97700006,0.65800005,0.104,0.33576345,0,nan,0.0,3,1,7
161720150,1562313334400052,488478603,23577271,45403,91585,0.887,0.7444349,6.0210004,8.784,1.62,2.05,84,15,0.294,0.185,0.22900002,0.569,0.33576345,0,nan,0.0,3,1,7
161937099,1562313334600052,488478613,23577272,45306,91487,1.074,0.74447435,6.01,8.776,1.62,2.05,84,15,0.74500006,0.708,0.23200001,0.44300002,0.33576345,0,nan,0.0,3,1,7
162121058,1562313334800052,488478638,23577295,45117,91299,1.575,0.60996044,6.0080004,8.767,1.62,2.05,84,15,1.3470001,0.94000006,0.96400005,0.094000004,0.61218727,0,nan,0.0,3,1,7
162323376,1562313335000052,488478660,23577319,44943,91124,1.536,0.5720568,6.004,8.761001,1.62,2.05,84,14,1.3900001,0.97400004,0.99200004,-0.022000002,0.70925605,0,nan,0.0,3,1,7
162515278,1562313335200052,488478690,23577302,45489,91670,1.353,0.5721215,6.0000005,8.766001,1.62,2.05,84,14,1.0940001,1.0270001,0.37800002,-0.11400001,0.70925605,0,nan,0.0,3,1,7
162715256,1562313335400052,488478725,23577285,46030,92212,1.452,0.5721912,6.004,8.774,1.62,2.05,84,14,1.105,1.042,0.36800003,-0.16700001,0.70925605,0,nan,0.0,3,1,7
