timestamp,states[0],states[1],states[2],states[3],states[4],states[5],states[6],states[7],states[8],states[9],states[10],states[11],states[12],states[13],states[14],states[15],states[16],states[17],states[18],states[19],states[20],states[21],states[22],states[23],vibe[0],vibe[1],vibe[2],covariances[0],covariances[1],covariances[2],covariances[3],covariances[4],covariances[5],covariances[6],covariances[7],covariances[8],covariances[9],covariances[10],covariances[11],covariances[12],covariances[13],covariances[14],covariances[15],covariances[16],covariances[17],covariances[18],covariances[19],covariances[20],covariances[21],covariances[22],covariances[23],control_mode_flags,pos_horiz_accuracy,pos_vert_accuracy,mag_test_ratio,vel_test_ratio,pos_test_ratio,hgt_test_ratio,tas_test_ratio,hagl_test_ratio,beta_test_ratio,time_slip,gps_check_fail_flags,filter_fault_flags,innovation_check_flags,solution_status_flags,n_states,pre_flt_fail,health_flags,timeout_flags
93443869,0.92948234,0.0019846642,0.0043830266,0.3688353,1.9562108e-06,-0.0029847485,-0.0005384734,0.00021371932,-0.001758584,-0.022001471,-1.2834718e-05,-3.8066278e-06,7.258647e-07,-6.3259654e-06,5.868669e-06,0.000825721,0.20522559,9.9048005e-09,0.3203534,0.0,0.0,0.0,0.0,0.0,5.2616713e-11,8.292901e-06,0.00075969135,5.5686605e-06,7.871257e-05,7.872212e-05,3.3541983e-05,0.0051205033,0.00512045,0.01154692,0.0073897503,0.007389641,0.0613689,9.937297e-12,9.937866e-12,1.8603275e-11,1.8705238e-06,1.8698887e-06,5e-08,0.0,0.0,0.0,0.0,0.0,0.0,0.0,0.0,531,0.12157052,0.24772747,0.038874805,0.0,3.5703422e-05,0.025239386,0.0,0.0,0.0,0.015948,488,0,0,165,24,0,0,0
93647890,0.9295533,0.0019652224,0.004409819,0.36865652,-4.2216125e-06,-0.0035857144,-0.0005228631,0.00020340954,-0.001992384,-0.021800382,-1.2837768e-05,-3.8041646e-06,7.944915e-07,-6.3254024e-06,5.8436085e-06,0.00082561583,0.20522559,9.9048005e-09,0.3203534,0.0,0.0,0.0,0.0,0.0,5.4818622e-11,8.503184e-06,0.0010808215,5.565233e-06,7.873081e-05,7.874046e-05,3.353246e-05,0.0051898574,0.005189794,0.01163884,0.007567735,0.007567642,0.06220932,9.944559e-12,9.94511e-12,1.8598727e-11,1.8705229e-06,1.8698878e-06,5.0000068e-08,0.0,0.0,0.0,0.0,0.0,0.0,0.0,0.0,531,0.12302592,0.24941796,0.043073777,0.0,3.9283877e-05,0.022180388,0.0,0.0,0.0,0.015948,488,0,0,165,24,0,0,0
93847118,0.9295321,0.0019334789,0.004429049,0.3687098,0.0002175894,-0.0032623424,-0.00037155944,0.00020626995,-0.002106456,-0.018041847,-1.2841293e-05,-3.8015557e-06,7.745342e-07,-6.3199413e-06,5.8383794e-06,0.00082424225,0.20522559,9.9048005e-09,0.3203534,0.0,0.0,0.0,0.0,0.0,5.1895065e-11,8.035679e-06,0.0012533485,5.563721e-06,7.871742e-05,7.8727164e-05,3.352515e-05,0.005079734,0.00507965,0.011507794,0.0073173293,0.0073172604,0.06123328,9.942888e-12,9.9434115e-12,1.8609796e-11,1.870522e-06,1.869887e-06,5e-08,0.0,0.0,0.0,0.0,0.0,0.0,0.0,0.0,531,0.120973505,0.24745359,0.062129706,0.0,4.2759577e-05,0.017232025,0.0,0.0,0.0,0.015948,488,0,0,165,24,0,0,0
94047068,0.9296566,0.0019671167,0.004427748,0.3683954,-0.00014931093,-0.0035868848,-0.007261293,0.00017633186,-0.0022831499,-0.036898736,-1.2845018e-05,-3.797955e-06,9.1697217e-07,-6.3487405e-06,5.7856587e-06,0.00083088735,0.20522559,9.9048005e-09,0.3203534,0.0,0.0,0.0,0.0,0.0,5.2775347e-11,7.811259e-06,0.00088190223,5.5608525e-06,7.8731784e-05,7.874162e-05,3.3515727e-05,0.005152245,0.005152129,0.011596683,0.0074907034,0.007490644,0.062042132,9.951414e-12,9.951914e-12,1.8605924e-11,1.870522e-06,1.869887e-06,5.0000036e-08,0.0,0.0,0.0,0.0,0.0,0.0,0.0,0.0,531,0.12239832,0.24908258,0.058295786,0.0,4.5782475e-05,0.015338606,0.0,0.0,0.0,0.015948,488,0,0,165,24,0,0,0
94255114,0.9296935,0.001959313,0.0043979306,0.36830246,0.00044073956,-0.0047184555,-0.0031178514,0.00016788876,-0.0024497912,-0.024475386,-1.2849034e-05,-3.7948112e-06,9.597939e-07,-6.305882e-06,5.7933357e-06,0.0008258199,0.20522559,9.9048005e-09,0.3203534,0.0,0.0,0.0,0.0,0.0,4.727191e-11,7.5261078e-06,0.0006295244,5.552075e-06,7.8728044e-05,7.8737954e-05,3.3466717e-05,0.005149783,0.0051496197,0.011602627,0.007499335,0.0074992822,0.06217603,9.950056e-12,9.95053e-12,1.8592619e-11,1.8705211e-06,1.8698861e-06,5.0000036e-08,0.0,0.0,0.0,0.0,0.0,0.0,0.0,0.0,531,0.12246884,0.24935122,0.027856832,0.0,4.8973718e-05,0.012705433,0.0,0.0,0.0,0.015948,488,0,0,165,24,0,0,0
94454290,0.9297877,0.0019805369,0.004425665,0.3680644,0.00066058524,-0.0037450544,-0.0070260935,0.0002059491,-0.0026015607,-0.033107467,-1.2853454e-05,-3.7908296e-06,1.0656985e-06,-6.2957183e-06,5.7784505e-06,0.0008284803,0.20522559,9.9048005e-09,0.3203534,0.0,0.0,0.0,0.0,0.0,5.2543313e-11,8.119697e-06,0.0013526371,5.5492987e-06,7.8718396e-05,7.8728364e-05,3.345811e-05,0.005130868,0.005130669,0.011577394,0.007451615,0.007451563,0.062007867,9.947245e-12,9.947688e-12,1.8588691e-11,1.8705183e-06,1.8698832e-06,5.000007e-08,0.0,0.0,0.0,0.0,0.0,0.0,0.0,0.0,531,0.122078575,0.24901378,0.061676525,0.0,5.1635125e-05,0.05989918,0.0,0.0,0.0,0.015948,488,0,0,165,24,0,0,0
94662282,0.9299217,0.001992308,0.0044312105,0.36772558,-0.000222513,-0.0039095874,-0.0067284983,0.00018874535,-0.0026282102,-0.028613826,-1.2858972e-05,-3.7861057e-06,1.2348112e-06,-6.2469217e-06,5.7673583e-06,0.0008261218,0.20522559,9.9048005e-09,0.3203534,0.0,0.0,0.0,0.0,0.0,5.6307445e-11,8.500473e-06,0.0009765916,5.541038e-06,7.8695666e-05,7.8705714e-05,3.3409433e-05,0.0050587333,0.0050584846,0.011485589,0.007272538,0.007272483,0.061224107,9.938514e-12,9.9389195e-12,1.8575828e-11,1.8705127e-06,1.8698777e-06,5e-08,0.0,0.0,0.0,0.0,0.0,0.0,0.0,0.0,531,0.12060274,0.24743505,0.014862014,0.0,5.3345662e-05,0.017384406,0.0,0.0,0.0,0.015948,488,0,0,165,24,0,0,0
94862269,0.9300274,0.0019992762,0.0044234507,0.36745813,-0.00067406305,-0.0035588692,-0.00996866,6.2720246e-05,-0.0026307513,-0.037728366,-1.2863505e-05,-3.7818104e-06,1.35053e-06,-6.223835e-06,5.7636676e-06,0.0008288516,0.20522559,9.9048005e-09,0.3203534,0.0,0.0,0.0,0.0,0.0,5.947156e-11,8.470291e-06,0.0006924504,5.538018e-06,7.868431e-05,7.869446e-05,3.3402186e-05,0.0050550974,0.005054784,0.01147058,0.007250713,0.0072506466,0.061107144,9.9377425e-12,9.938113e-12,1.857233e-11,1.8705065e-06,1.8698714e-06,5e-08,0.0,0.0,0.0,0.0,0.0,0.0,0.0,0.0,531,0.12042159,0.2471986,0.058843017,0.0,5.3394848e-05,0.014308611,0.0,0.0,0.0,0.015948,488,0,0,165,24,0,0,0
95062269,0.93010706,0.0019913404,0.0044085067,0.3672566,-0.0013960552,-0.004377438,-0.016362721,-0.00014594657,-0.0027189802,-0.05297747,-1.2867712e-05,-3.777313e-06,1.4553526e-06,-6.2058093e-06,5.7588486e-06,0.00083354674,0.20522559,9.9048005e-09,0.3203534,0.0,0.0,0.0,0.0,0.0,5.7537617e-11,8.28935e-06,0.0005221517,5.5362366e-06,7.86736e-05,7.868382e-05,3.339405e-05,0.0050601936,0.0050598164,0.011462226,0.0072435667,0.0072434843,0.061024584,9.938006e-12,9.938338e-12,1.8568948e-11,1.8704993e-06,1.8698643e-06,5.0000036e-08,0.0,0.0,0.0,0.0,0.0,0.0,0.0,0.0,531,0.12036216,0.24703154,0.06411886,0.0,5.446607e-05,0.011304888,0.0,0.0,0.0,0.015948,488,0,0,165,24,0,0,0
95265469,0.9301955,0.0020130316,0.004357358,0.36703315,-0.0020517798,-0.0048410324,-0.011394973,-0.00042452142,-0.002896675,-0.0391067,-1.2872054e-05,-3.7726209e-06,1.5597931e-06,-6.130089e-06,5.7651678e-06,0.00082723924,0.20522559,9.9048005e-09,0.3203534,0.0,0.0,0.0,0.0,0.0,5.4206716e-11,8.283004e-06,0.0009680605,5.5246896e-06,7.866307e-05,7.867338e-05,3.3329587e-05,0.005070062,0.0050696214,0.011459425,0.007247739,0.0072476347,0.06097172,9.9387824e-12,9.939081e-12,1.8552411e-11,1.8704912e-06,1.8698563e-06,5.0000033e-08,0.0,0.0,0.0,0.0,0.0,0.0,0.0,0.0,531,0.12039673,0.24692452,0.046597652,0.0,5.7995992e-05,0.010088436,0.0,0.0,0.0,0.015948,488,0,0,165,24,0,0,0
95465512,0.9302687,0.0020644004,0.0043368633,0.36684763,-0.0021108408,-0.0037687172,-0.0148866745,-0.0007238571,-0.0029426883,-0.05159206,-1.2875873e-05,-3.7670545e-06,1.6422591e-06,-6.0867183e-06,5.7708976e-06,0.0008310204,0.20522559,9.9048005e-09,0.3203534,0.0,0.0,0.0,0.0,0.0,6.0317445e-11,8.831658e-06,0.00066360796,5.52248e-06,7.865004e-05,7.866042e-05,3.332571e-05,0.0050782263,0.0050777495,0.011453501,0.0072569405,0.007256812,0.06099748,9.946896e-12,9.947158e-12,1.8559716e-11,1.8704817e-06,1.869847e-06,5e-08,0.0,0.0,0.0,0.0,0.0,0.0,0.0,0.0,531,0.120473035,0.24697667,0.057128172,0.0,5.972778e-05,0.03488584,0.0,0.0,0.0,0.015948,488,0,0,165,24,0,0,0
95673469,0.93038607,0.002072701,0.0043292763,0.36654988,-0.0027270992,-0.0042676525,-0.016568242,-0.0009996558,-0.0030169475,-0.055754546,-1.2879726e-05,-3.7608474e-06,1.777778e-06,-6.0133902e-06,5.774796e-06,0.0008312859,0.20522559,9.9048005e-09,0.3203534,0.0,0.0,0.0,0.0,0.0,5.783097e-11,8.1576845e-06,0.0004964634,5.5225837e-06,7.86377e-05,7.8648176e-05,3.333722e-05,0.005108388,0.0051078736,0.011484502,0.0073224436,0.007322284,0.06124518,9.94962e-12,9.949849e-12,1.8560636e-11,1.8704675e-06,1.8698328e-06,5.0000036e-08,0.0,0.0,0.0,0.0,0.0,0.0,0.0,0.0,531,0.1210154,0.24747764,0.045384683,0.0,6.0534967e-05,0.021964846,0.0,0.0,0.0,0.015948,488,0,0,165,24,0,0,0
95873469,0.93049353,0.0020794105,0.0042840405,0.36627758,-0.002047024,-0.003778268,-0.01146187,-0.0011853687,-0.0030273597,-0.036586933,-1.2883402e-05,-3.7547013e-06,1.8947818e-06,-5.9029676e-06,5.779775e-06,0.0008229048,0.20522559,9.9048005e-09,0.3203534,0.0,0.0,0.0,0.0,0.0,6.1631866e-11,8.551257e-06,0.0004093316,5.5194655e-06,7.861845e-05,7.862901e-05,3.3331384e-05,0.0051148906,0.005114353,0.0114837065,0.0073273173,0.0073271333,0.0612017,9.949689e-12,9.949884e-12,1.8557636e-11,1.870449e-06,1.8698145e-06,5.000007e-08,0.0,0.0,0.0,0.0,0.0,0.0,0.0,0.0,531,0.121055566,0.24738978,0.04235878,0.0,6.01749e-05,0.026688196,0.0,0.0,0.0,0.015948,488,0,0,165,24,0,0,0
96076669,0.9305535,0.002124184,0.004231726,0.3661255,-0.0013395556,-0.0032064798,-0.0076093213,-0.0011846492,-0.002864199,-0.024779813,-1.2886762e-05,-3.7481727e-06,1.9634679e-06,-5.7875786e-06,5.7892616e-06,0.0008178092,0.20522559,9.9048005e-09,0.3203534,0.0,0.0,0.0,0.0,0.0,5.870047e-11,8.532899e-06,0.0025854358,5.50788e-06,7.858003e-05,7.8590616e-05,3.3268458e-05,0.0050373487,0.0050368053,0.0113820825,0.007137239,0.007137042,0.06027818,9.939587e-12,9.9397495e-12,1.8541649e-11,1.8704246e-06,1.8697903e-06,5e-08,0.0,0.0,0.0,0.0,0.0,0.0,0.0,0.0,531,0.11947502,0.24551615,0.019082278,0.0,5.8118363e-05,0.033769548,0.0,0.0,0.0,0.015948,488,0,0,165,24,0,0,0
96280669,0.93069816,0.002123546,0.0042127967,0.3657576,-0.00026787046,-0.0027159967,-0.007894893,-0.0010334037,-0.0027400863,-0.027736185,-1.2890219e-05,-3.7416112e-06,2.1370188e-06,-5.686414e-06,5.8053834e-06,0.0008182596,0.20522559,9.9048005e-09,0.3203534,0.0,0.0,0.0,0.0,0.0,5.847779e-11,8.49358e-06,0.0020074656,5.5084092e-06,7.856518e-05,7.8575766e-05,3.3281867e-05,0.005090584,0.005090014,0.011434121,0.007245039,0.007244814,0.060662504,9.9519845e-12,9.952115e-12,1.855018e-11,1.8703972e-06,1.8697632e-06,5.000006e-08,0.0,0.0,0.0,0.0,0.0,0.0,0.0,0.0,531,0.12037381,0.2462976,0.068834305,0.0,5.476126e-05,0.00077422935,0.0,0.0,0.0,0.015948,488,0,0,165,24,0,0,0
96480675,0.93081635,0.0021334852,0.0041950573,0.36545724,0.0007790966,-0.0014880928,-0.00470423,-0.00074789213,-0.0024763546,-0.017271277,-1.2893524e-05,-3.736138e-06,2.2615548e-06,-5.5839155e-06,5.8187156e-06,0.00081368006,0.20522559,9.9048005e-09,0.3203534,0.0,0.0,0.0,0.0,0.0,5.5267062e-11,8.445957e-06,0.0015917886,5.504748e-06,7.854053e-05,7.855106e-05,3.3276025e-05,0.0050983434,0.0050977655,0.011444556,0.007260073,0.00725983,0.060644224,9.950453e-12,9.950558e-12,1.8544624e-11,1.8703669e-06,1.869733e-06,5.0000068e-08,0.0,0.0,0.0,0.0,0.0,0.0,0.0,0.0,531,0.12049856,0.24626048,0.032556072,0.0,4.9743117e-05,0.02874435,0.0,0.0,0.0,0.015948,488,0,0,165,24,0,0,0
96681480,0.9308649,0.0021349508,0.004177765,0.36533377,0.0016313187,-0.0014168487,-0.008169921,-0.00037450923,-0.0020942406,-0.03024987,-1.2896397e-05,-3.7314871e-06,2.3110854e-06,-5.5060846e-06,5.833346e-06,0.0008180459,0.20522559,9.9048005e-09,0.3203534,0.0,0.0,0.0,0.0,0.0,5.548777e-11,8.454938e-06,0.0015016338,5.5018622e-06,7.8500925e-05,7.8511395e-05,3.3271146e-05,0.005024296,0.0050237165,0.0113538755,0.007087081,0.007086835,0.05980521,9.941067e-12,9.941145e-12,1.8542487e-11,1.8703364e-06,1.8697029e-06,5e-08,0.0,0.0,0.0,0.0,0.0,0.0,0.0,0.0,531,0.11905426,0.24455103,0.04643118,0.0,4.249071e-05,0.013286464,0.0,0.0,0.0,0.015948,488,0,0,165,24,0,0,0
96887876,0.9309966,0.0021642938,0.0041984594,0.36499742,0.0020603193,-0.00090377347,-0.013052811,5.2177355e-05,-0.0018150905,-0.045982327,-1.2899739e-05,-3.7273835e-06,2.4725289e-06,-5.446702e-06,5.8639434e-06,0.0008230772,0.20522559,9.9048005e-09,0.3203534,0.0,0.0,0.0,0.0,0.0,5.290018e-11,8.331855e-06,0.002264917,5.4932693e-06,7.848789e-05,7.849836e-05,3.3226654e-05,0.0050699385,0.0050693457,0.011409668,0.007190099,0.0071898326,0.06018774,9.946433e-12,9.9464915e-12,1.8531074e-11,1.8703118e-06,1.8696786e-06,5.0000022e-08,0.0,0.0,0.0,0.0,0.0,0.0,0.0,0.0,531,0.11991635,0.2453319,0.029180855,0.0,3.669514e-05,0.005904127,0.0,0.0,0.0,0.015948,488,0,0,165,24,0,0,0
97087869,0.93106,0.002208927,0.004154024,0.36483565,0.0018615301,-0.0005687528,-0.016961876,0.00038986496,-0.0015490529,-0.05211543,-1.290276e-05,-3.7249736e-06,2.5422803e-06,-5.398302e-06,5.8831342e-06,0.0008241526,0.20522559,9.9048005e-09,0.3203534,0.0,0.0,0.0,0.0,0.0,5.615044e-11,8.478632e-06,0.0014994979,5.490485e-06,7.847296e-05,7.8483456e-05,3.3222273e-05,0.005089074,0.0050884816,0.011430434,0.0072295545,0.0072292765,0.06029511,9.949168e-12,9.949214e-12,1.852989e-11,1.87029e-06,1.8696568e-06,5.0000068e-08,0.0,0.0,0.0,0.0,0.0,0.0,0.0,0.0,531,0.12024488,0.24555062,0.027385084,0.0,3.125219e-05,0.0029490343,0.0,0.0,0.0,0.015948,488,0,0,165,24,0,0,0
97295896,0.9311432,0.0022061132,0.004135381,0.3646236,0.0021735006,0.0003514972,-0.011050889,0.00067258836,-0.0012150122,-0.0347023,-1.2906175e-05,-3.7234436e-06,2.632983e-06,-5.3547933e-06,5.888344e-06,0.0008163462,0.20522559,9.9048005e-09,0.3203534,0.0,0.0,0.0,0.0,0.0,5.721672e-11,8.301961e-06,0.0012428488,5.4902744e-06,7.84618e-05,7.847232e-05,3.323606e-05,0.0051177437,0.0051171626,0.011476838,0.007314042,0.0073137516,0.060672775,9.951226e-12,9.95126e-12,1.85316e-11,1.8702692e-06,1.869636e-06,5e-08,0.0,0.0,0.0,0.0,0.0,0.0,0.0,0.0,531,0.12094542,0.24631844,0.0351076,0.0,2.4664194e-05,0.0070314766,0.0,0.0,0.0,0.015948,488,0,0,165,24,0,0,0
97494294,0.931243,0.0021696805,0.004103634,0.3643694,0.0031861882,0.00048355508,-0.008972781,0.0010083744,-0.00089238764,-0.025395053,-1.29091695e-05,-3.722727e-06,2.7224764e-06,-5.32274e-06,5.9035688e-06,0.0008118984,0.20522559,9.9048005e-09,0.3203534,0.0,0.0,0.0,0.0,0.0,5.6183058e-11,8.287328e-06,0.0016404444,5.486002e-06,7.8460645e-05,7.8471196e-05,3.323331e-05,0.005183361,0.0051827896,0.011576086,0.0074983723,0.007498067,0.061555605,9.957879e-12,9.957904e-12,1.8529647e-11,1.8702502e-06,1.869617e-06,5.0000068e-08,0.0,0.0,0.0,0.0,0.0,0.0,0.0,0.0,531,0.12245995,0.24810402,0.04466056,0.0,1.943026e-05,0.03355326,0.0,0.0,0.0,0.015948,488,0,0,165,24,0,0,0
97695070,0.93132544,0.0021974328,0.004122218,0.36415812,0.004007652,0.00012465201,-0.01048535,0.0013782885,-0.00061490736,-0.026703104,-1.29123355e-05,-3.7228622e-06,2.8045556e-06,-5.286469e-06,5.941345e-06,0.0008116434,0.20522559,9.9048005e-09,0.3203534,0.0,0.0,0.0,0.0,0.0,5.3338885e-11,8.459525e-06,0.0015858028,5.4824204e-06,7.844246e-05,7.8453035e-05,3.3229324e-05,0.0051442664,0.005143728,0.011557283,0.007441318,0.0074410196,0.06143353,9.95154e-12,9.9515595e-12,1.8526848e-11,1.8702275e-06,1.8695944e-06,5e-08,0.0,0.0,0.0,0.0,0.0,0.0,0.0,0.0,531,0.121993184,0.24785788,0.03721971,0.0,2.799994e-05,0.041390445,0.0,0.0,0.0,0.015948,488,0,0,165,24,0,0,0
97903068,0.9313783,0.002219849,0.004143101,0.36402255,0.004679239,0.0013746945,-0.011243142,0.0018662745,-0.00031293076,-0.029688174,-1.2915484e-05,-3.7242125e-06,2.8525988e-06,-5.2459154e-06,5.9856725e-06,0.00081203243,0.20522559,9.9048005e-09,0.3203534,0.0,0.0,0.0,0.0,0.0,5.422955e-11,8.033907e-06,0.0010354714,5.481829e-06,7.84352e-05,7.8445686e-05,3.324393e-05,0.0051458525,0.005145337,0.011576907,0.007468139,0.007467845,0.061665017,9.951115e-12,9.951135e-12,1.8529095e-11,1.8702033e-06,1.8695702e-06,5.000007e-08,0.0,0.0,0.0,0.0,0.0,0.0,0.0,0.0,531,0.122212864,0.24832442,0.031456135,0.0,3.6398873e-05,0.04509915,0.0,0.0,0.0,0.015948,488,0,0,165,24,0,0,0
98103115,0.93147,0.0021714352,0.0041284664,0.36378828,0.004832896,0.0020195828,-0.017355328,0.002196647,6.154635e-05,-0.050320126,-1.2919063e-05,-3.7264397e-06,2.945402e-06,-5.1852844e-06,6.081728e-06,0.00081869966,0.20522559,9.9048005e-09,0.3203534,0.0,0.0,0.0,0.0,0.0,4.80654e-11,7.844929e-06,0.0007356445,5.478294e-06,7.8411846e-05,7.842224e-05,3.3240827e-05,0.00503786,0.0050373767,0.011454409,0.007222508,0.0072222413,0.060661282,9.937591e-12,9.937613e-12,1.8526942e-11,1.8701741e-06,1.869541e-06,5e-08,0.0,0.0,0.0,0.0,0.0,0.0,0.0,0.0,531,0.120186314,0.24629511,0.066944525,0.0,4.457793e-05,0.011050155,0.0,0.0,0.0,0.015948,488,0,0,165,24,0,0,0
98302281,0.93155056,0.002197678,0.004196528,0.36358112,0.005543611,0.003342989,-0.017266711,0.0026942058,0.0005010619,-0.05045817,-1.2922094e-05,-3.7292941e-06,3.0244105e-06,-5.140416e-06,6.140888e-06,0.0008173123,0.20522559,9.9048005e-09,0.3203534,0.0,0.0,0.0,0.0,0.0,5.0242796e-11,7.8414205e-06,0.0014228958,5.4657785e-06,7.842621e-05,7.843659e-05,3.318131e-05,0.00512597,0.005125496,0.01155679,0.0074205566,0.007420285,0.061549067,9.94814e-12,9.948169e-12,1.8511652e-11,1.8701484e-06,1.8695155e-06,5.000007e-08,0.0,0.0,0.0,0.0,0.0,0.0,0.0,0.0,531,0.12182299,0.24809085,0.01912555,0.0,5.288783e-05,0.011036982,0.0,0.0,0.0,0.015948,488,0,0,165,24,0,0,0
98510316,0.9315419,0.0021735823,0.0041771117,0.3636034,0.006274714,0.004667459,-0.016420625,0.0031579938,0.0010970647,-0.0507207,-1.2924827e-05,-3.7346442e-06,3.012634e-06,-5.0845088e-06,6.219986e-06,0.0008161108,0.20522559,9.9048005e-09,0.3203534,0.0,0.0,0.0,0.0,0.0,5.2889998e-11,7.9609545e-06,0.0013274549,5.466072e-06,7.842799e-05,7.843837e-05,3.319529e-05,0.005135672,0.005135201,0.011576648,0.0074504423,0.0074501825,0.061748285,9.948754e-12,9.948792e-12,1.8513439e-11,1.8701153e-06,1.8694824e-06,5.0000075e-08,0.0,0.0,0.0,0.0,0.0,0.0,0.0,0.0,531,0.122068115,0.24849202,0.008265155,0.0,6.2050865e-05,0.001450211,0.0,0.0,0.0,0.015948,488,0,0,165,24,0,0,0
98710269,0.9316348,0.0021624872,0.0042269332,0.363365,0.0061334656,0.0052826647,-0.017745707,0.003464683,0.001693164,-0.05710706,-1.2927809e-05,-3.740611e-06,3.111292e-06,-5.0117615e-06,6.348679e-06,0.0008171397,0.20522559,9.9048005e-09,0.3203534,0.0,0.0,0.0,0.0,0.0,5.3165986e-11,7.987836e-06,0.0008772199,5.4628417e-06,7.842534e-05,7.8435674e-05,3.3192675e-05,0.005108857,0.005108395,0.011552143,0.007397774,0.0073975287,0.06160422,9.944616e-12,9.944667e-12,1.8511429e-11,1.8700779e-06,1.8694451e-06,5e-08,0.0,0.0,0.0,0.0,0.0,0.0,0.0,0.0,531,0.12163594,0.24820198,0.04134304,0.0,7.033218e-05,0.028511891,0.0,0.0,0.0,0.015948,488,0,0,165,24,0,0,0
98910275,0.9316876,0.002150754,0.004244412,0.36322948,0.0056496128,0.006151419,-0.016334953,0.0037490614,0.0023680998,-0.05300595,-1.2929858e-05,-3.7474194e-06,3.1561917e-06,-4.947951e-06,6.4592527e-06,0.00081423385,0.20522559,9.9048005e-09,0.3203534,0.0,0.0,0.0,0.0,0.0,5.3774693e-11,8.057501e-06,0.00062101026,5.459355e-06,7.8440775e-05,7.8451034e-05,3.3190572e-05,0.0051759,0.0051754285,0.0116361,0.0075610806,0.007560832,0.06239145,9.952021e-12,9.9520826e-12,1.8509545e-11,1.8700409e-06,1.8694082e-06,5.000007e-08,0.0,0.0,0.0,0.0,0.0,0.0,0.0,0.0,531,0.122971185,0.2497828,0.035220984,0.0,7.429077e-05,0.0052138628,0.0,0.0,0.0,0.015948,488,0,0,165,24,0,0,0
99117516,0.9317692,0.002158472,0.004240666,0.36302015,0.004618501,0.00626267,-0.022145791,0.0037823047,0.002890544,-0.07400792,-1.2931465e-05,-3.755651e-06,3.2444925e-06,-4.8643437e-06,6.6715425e-06,0.0008204931,0.20522559,9.9048005e-09,0.3203534,0.0,0.0,0.0,0.0,0.0,5.5235552e-11,8.190785e-06,0.0014790472,5.4502157e-06,7.844515e-05,7.84554e-05,3.3149692e-05,0.0051689567,0.0051684896,0.01163749,0.007559305,0.0075590643,0.062499803,9.950184e-12,9.95026e-12,1.849883e-11,1.8699952e-06,1.8693626e-06,5.0000033e-08,0.0,0.0,0.0,0.0,0.0,0.0,0.0,0.0,531,0.12295678,0.2499996,0.013890173,0.0,7.6043594e-05,0.0052548237,0.0,0.0,0.0,0.015948,488,0,0,165,24,0,0,0
99317475,0.93187124,0.0021485472,0.0042664465,0.3627578,0.004359223,0.0063995384,-0.021971913,0.0037468537,0.0033686962,-0.072514504,-1.2932643e-05,-3.7635657e-06,3.3548301e-06,-4.7969656e-06,6.8315217e-06,0.0008183994,0.20522559,9.9048005e-09,0.3203534,0.0,0.0,0.0,0.0,0.0,5.3372026e-11,8.218832e-06,0.0010338266,5.4558122e-06,7.8459154e-05,7.846932e-05,3.3203614e-05,0.0052138334,0.005213372,0.011703418,0.007681524,0.0076812804,0.06315476,9.954087e-12,9.954176e-12,1.850918e-11,1.8699507e-06,1.869318e-06,5.000007e-08,0.0,0.0,0.0,0.0,0.0,0.0,0.0,0.0,531,0.12394678,0.25130612,0.07945355,0.0,7.469746e-05,0.04533615,0.0,0.0,0.0,0.015948,488,0,0,165,24,0,0,0
99517468,0.93194824,0.0021725758,0.004297783,0.36255926,0.003839343,0.006155143,-0.014772856,0.0034773175,0.0035553735,-0.054707173,-1.2933144e-05,-3.7741042e-06,3.434312e-06,-4.720601e-06,7.0090314e-06,0.0008102902,0.20522559,9.9048005e-09,0.3203534,0.0,0.0,0.0,0.0,0.0,5.1842596e-11,8.361929e-06,0.00076943473,5.4524808e-06,7.84465e-05,7.845663e-05,3.320139e-05,0.0050849738,0.0050845486,0.011549668,0.007377524,0.0073773027,0.06191456,9.9379515e-12,9.938058e-12,1.8507312e-11,1.8698929e-06,1.8692604e-06,5e-08,0.0,0.0,0.0,0.0,0.0,0.0,0.0,0.0,531,0.121469446,0.24882637,0.027245117,0.0,7.218214e-05,0.028537262,0.0,0.0,0.0,0.015948,488,0,0,165,24,0,0,0
99725509,0.93206054,0.0022017707,0.004296176,0.36227036,0.003613981,0.005301114,-0.014772745,0.0033352152,0.003752138,-0.055036936,-1.2933265e-05,-3.7828045e-06,3.5713965e-06,-4.6549453e-06,7.2084604e-06,0.0008090067,0.20522559,9.9048005e-09,0.3203534,0.0,0.0,0.0,0.0,0.0,5.1955214e-11,8.178217e-06,0.000812521,5.4438356e-06,7.846105e-05,7.847124e-05,3.315995e-05,0.005109356,0.005108949,0.0115634035,0.0074121947,0.0074119717,0.062057655,9.940901e-12,9.941023e-12,1.849649e-11,1.86984e-06,1.869208e-06,5.0000065e-08,0.0,0.0,0.0,0.0,0.0,0.0,0.0,0.0,531,0.121754535,0.24911374,0.038328573,0.0,7.442844e-05,0.015762992,0.0,0.0,0.0,0.015948,488,0,0,165,24,0,0,0
99924668,0.9320939,0.0022191035,0.004289971,0.36218458,0.003407708,0.005042137,-0.011663687,0.0032249587,0.0037448467,-0.047424924,-1.2932615e-05,-3.7920388e-06,3.6091674e-06,-4.5977945e-06,7.395899e-06,0.0008051809,0.20522559,9.9048005e-09,0.3203534,0.0,0.0,0.0,0.0,0.0,6.1160584e-11,8.865515e-06,0.0013265157,5.4412217e-06,7.847239e-05,7.8482546e-05,3.315742e-05,0.0051137363,0.0051133544,0.011548178,0.0073940256,0.0073938062,0.061916787,9.941504e-12,9.941643e-12,1.849476e-11,1.8697863e-06,1.8691544e-06,5.0000068e-08,0.0,0.0,0.0,0.0,0.0,0.0,0.0,0.0,531,0.12160523,0.24883084,0.061777458,0.0,7.441783e-05,0.0027510256,0.0,0.0,0.0,0.015948,488,0,0,165,24,0,0,0
100132682,0.932186,0.0022172513,0.004295337,0.36194736,0.0033934645,0.0045947423,-0.01310477,0.0030900512,0.0037399405,-0.051809117,-1.2932016e-05,-3.8007122e-06,3.709253e-06,-4.543763e-06,7.615039e-06,0.0008058516,0.20522559,9.9048005e-09,0.3203534,0.0,0.0,0.0,0.0,0.0,5.856855e-11,8.838879e-06,0.0008712922,5.4407e-06,7.848623e-05,7.8496334e-05,3.3173208e-05,0.0051332098,0.005132846,0.011564244,0.0074283704,0.007428153,0.062042635,9.943134e-12,9.94329e-12,1.8496751e-11,1.8697298e-06,1.8690979e-06,5.0000036e-08,0.0,0.0,0.0,0.0,0.0,0.0,0.0,0.0,531,0.12188733,0.2490836,0.0020355226,0.0,7.51805e-05,0.0032024342,0.0,0.0,0.0,0.015948,488,0,0,165,24,0,0,0
100332669,0.93222463,0.0022516623,0.0042776987,0.36184815,0.0024882327,0.005516151,-0.018108612,0.0029423274,0.0038343268,-0.066660136,-1.2930928e-05,-3.8086362e-06,3.752591e-06,-4.5032652e-06,7.836741e-06,0.00081029633,0.20522559,9.9048005e-09,0.3203534,0.0,0.0,0.0,0.0,0.0,5.7708772e-11,8.29711e-06,0.000589237,5.429187e-06,7.850787e-05,7.851801e-05,3.3114706e-05,0.0052027255,0.0052023763,0.011645618,0.007593562,0.0075933426,0.0627777,9.950395e-12,9.950566e-12,1.8482117e-11,1.8696771e-06,1.8690453e-06,5.0000065e-08,0.0,0.0,0.0,0.0,0.0,0.0,0.0,0.0,531,0.12323516,0.25055477,0.056639608,0.0,7.6084594e-05,0.016356565,0.0,0.0,0.0,0.015948,488,0,0,165,24,0,0,0
100535890,0.93232393,0.0022278386,0.004290505,0.36159208,0.0022395335,0.0049191834,-0.020196209,0.0025759586,0.0037111775,-0.07053339,-1.2929685e-05,-3.8177777e-06,3.8720127e-06,-4.4575554e-06,8.079622e-06,0.00081021443,0.20522559,9.9048005e-09,0.3203534,0.0,0.0,0.0,0.0,0.0,5.9042826e-11,8.497083e-06,0.0007785503,5.435385e-06,7.8498815e-05,7.850892e-05,3.3168704e-05,0.0050839367,0.0050836187,0.011502883,0.007316027,0.0073158317,0.061579064,9.934736e-12,9.934927e-12,1.8493438e-11,1.8696113e-06,1.8689794e-06,5e-08,0.0,0.0,0.0,0.0,0.0,0.0,0.0,0.0,531,0.12096222,0.24815129,0.014380284,0.0,7.533379e-05,0.007682104,0.0,0.0,0.0,0.015948,488,0,0,165,24,0,0,0
100735868,0.9324225,0.0022065053,0.00430496,0.36133754,0.0024375587,0.006431781,-0.019377967,0.0023888994,0.0038931754,-0.07567223,-1.2928123e-05,-3.8256157e-06,3.96541e-06,-4.432345e-06,8.288478e-06,0.00081046094,0.20522559,9.9048005e-09,0.3203534,0.0,0.0,0.0,0.0,0.0,5.84028e-11,8.465654e-06,0.00092125975,5.4318157e-06,7.851328e-05,7.8523415e-05,3.3171855e-05,0.0051016794,0.0051013804,0.011495982,0.0073292907,0.007329104,0.061583027,9.950571e-12,9.950777e-12,1.850872e-11,1.8695546e-06,1.8689227e-06,5.0000054e-08,0.0,0.0,0.0,0.0,0.0,0.0,0.0,0.0,531,0.12107186,0.24815927,0.005586996,0.0,7.786509e-05,0.027950786,0.0,0.0,0.0,0.015948,488,0,0,165,24,0,0,0
100935883,0.93247414,0.0021989746,0.004287993,0.3612046,0.0022234665,0.00660894,-0.021207534,0.0022884237,0.004261268,-0.0843957,-1.2925961e-05,-3.8329026e-06,4.005211e-06,-4.441684e-06,8.480938e-06,0.00081216206,0.20522559,9.9048005e-09,0.3203534,0.0,0.0,0.0,0.0,0.0,5.8013823e-11,8.45228e-06,0.00069474126,5.4190145e-06,7.8535515e-05,7.8545694e-05,3.3114095e-05,0.0051893806,0.005189078,0.011592702,0.007522812,0.007522622,0.062361345,9.9597535e-12,9.959974e-12,1.8492798e-11,1.8695065e-06,1.8688747e-06,5.0000104e-08,0.0,0.0,0.0,0.0,0.0,0.0,0.0,0.0,531,0.12265983,0.24972254,0.009938638,0.0,8.3197934e-05,0.013436411,0.0,0.0,0.0,0.015948,488,0,0,165,24,0,0,0
101143924,0.93246835,0.002147978,0.004295769,0.36121973,0.0013728875,0.0065793097,-0.020666366,0.002056051,0.004436234,-0.087398335,-1.2922418e-05,-3.842058e-06,3.9656743e-06,-4.481939e-06,8.6847585e-06,0.000811656,0.20522559,9.9048005e-09,0.3203534,0.0,0.0,0.0,0.0,0.0,5.890401e-11,8.531341e-06,0.0005539373,5.4173897e-06,7.8540215e-05,7.8550336e-05,3.313174e-05,0.005198681,0.0051983767,0.011606813,0.0075527746,0.0075525916,0.062489238,9.959616e-12,9.95985e-12,1.849542e-11,1.8694534e-06,1.8688216e-06,5.0000068e-08,0.0,0.0,0.0,0.0,0.0,0.0,0.0,0.0,531,0.12290389,0.24997847,0.07357933,0.0,8.794437e-05,0.014757004,0.0,0.0,0.0,0.015948,488,0,0,165,24,0,0,0
101343085,0.932482,0.0021415155,0.0042967224,0.3611847,0.0009068318,0.006852503,-0.014495885,0.0018078239,0.0045611467,-0.073180966,-1.291864e-05,-3.851046e-06,3.9593733e-06,-4.5304782e-06,8.847967e-06,0.00080512173,0.20522559,9.9048005e-09,0.3203534,0.0,0.0,0.0,0.0,0.0,5.4950378e-11,8.166649e-06,0.0006101567,5.4223783e-06,7.8534475e-05,7.854468e-05,3.3187065e-05,0.0051664766,0.005166174,0.011576621,0.0074909623,0.007490793,0.062245518,9.954319e-12,9.954567e-12,1.8506693e-11,1.8694013e-06,1.8687697e-06,5.000007e-08,0.0,0.0,0.0,0.0,0.0,0.0,0.0,0.0,531,0.12239998,0.24949051,0.007709485,0.0,9.039138e-05,0.0031778852,0.0,0.0,0.0,0.015948,488,0,0,165,24,0,0,0
101551083,0.9325752,0.0021532925,0.00430692,0.36094376,-0.0005499834,0.0058324337,-0.019451048,0.0013703746,0.0045159194,-0.09274465,-1.29141945e-05,-3.8594185e-06,4.052752e-06,-4.6606074e-06,9.0745225e-06,0.0008110521,0.20522559,9.9048005e-09,0.3203534,0.0,0.0,0.0,0.0,0.0,5.446103e-11,8.281053e-06,0.000834212,5.4124066e-06,7.8519566e-05,7.8529796e-05,3.3146604e-05,0.005091538,0.005091236,0.011486959,0.007312923,0.00731277,0.06142669,9.943687e-12,9.943949e-12,1.8494706e-11,1.8693465e-06,1.8687149e-06,5.0000025e-08,0.0,0.0,0.0,0.0,0.0,0.0,0.0,0.0,531,0.12093673,0.24784409,0.021105982,0.0,9.071005e-05,0.043270204,0.0,0.0,0.0,0.015948,488,0,0,165,24,0,0,0
101751068,0.9326469,0.002130063,0.004312596,0.36075842,-0.00023812767,0.0051799263,-0.016949397,0.0010153118,0.0045506926,-0.087723084,-1.2910355e-05,-3.8657886e-06,4.1337044e-06,-4.7435315e-06,9.20364e-06,0.0008077428,0.20522559,9.9048005e-09,0.3203534,0.0,0.0,0.0,0.0,0.0,5.8786497e-11,8.442171e-06,0.000625547,5.4094594e-06,7.853043e-05,7.854065e-05,3.3144846e-05,0.005168065,0.0051677506,0.011578182,0.007492644,0.007492487,0.06219601,9.952119e-12,9.952389e-12,1.84931e-11,1.8693029e-06,1.8686713e-06,5.000006e-08,0.0,0.0,0.0,0.0,0.0,0.0,0.0,0.0,531,0.12241377,0.24939127,0.040964566,0.0,9.069246e-05,0.010798178,0.0,0.0,0.0,0.015948,424,0,0,165,24,0,0,0
101951076,0.93272483,0.0020653838,0.0043424773,0.3605569,-0.00030121053,0.0048040645,-0.022522867,0.0007323292,0.004367357,-0.10452335,-1.2905484e-05,-3.8722183e-06,4.212233e-06,-4.884936e-06,9.364826e-06,0.00081244344,0.20522559,9.9048005e-09,0.3203534,0.0,0.0,0.0,0.0,0.0,5.614286e-11,8.464153e-06,0.00071452884,5.3972362e-06,7.8523844e-05,7.8534096e-05,3.308807e-05,0.005150341,0.005150026,0.011558244,0.00745237,0.007452219,0.062010027,9.94907e-12,9.949349e-12,1.8478835e-11,1.8692552e-06,1.8686238e-06,5.000006e-08,0.0,0.0,0.0,0.0,0.0,0.0,0.0,0.0,531,0.12208435,0.24901813,0.06801427,0.0,8.7076936e-05,0.008487292,0.0,0.0,0.0,0.015948,424,0,0,165,24,0,0,0
102157514,0.93288517,0.0020790938,0.004384419,0.36014113,-0.0010478013,0.004903191,-0.021218734,0.00039589542,0.004149881,-0.10459122,-1.2900764e-05,-3.878083e-06,4.3837226e-06,-5.004653e-06,9.48026e-06,0.0008104483,0.20522559,9.9048005e-09,0.3203534,0.0,0.0,0.0,0.0,0.0,5.578998e-11,8.55499e-06,0.0017133577,5.3871972e-06,7.8509234e-05,7.851957e-05,3.3050423e-05,0.005088906,0.005088602,0.011478553,0.0072983312,0.0072981874,0.061275125,9.941094e-12,9.941382e-12,1.846885e-11,1.8692049e-06,1.8685735e-06,5.0000025e-08,0.0,0.0,0.0,0.0,0.0,0.0,0.0,0.0,531,0.12081605,0.24753813,0.062381443,0.0,8.3424275e-05,0.008528223,0.0,0.0,0.0,0.015948,424,0,0,165,24,0,0,0
102358275,0.93302566,0.0021203372,0.0043796645,0.3597771,-0.0016005781,0.00444437,-0.021562785,6.119299e-05,0.004022848,-0.11123632,-1.2896253e-05,-3.8825783e-06,4.5419392e-06,-5.1302845e-06,9.576708e-06,0.00081107573,0.20522559,9.9048005e-09,0.3203534,0.0,0.0,0.0,0.0,0.0,5.3078857e-11,8.455361e-06,0.0016606735,5.3838176e-06,7.8506426e-05,7.851678e-05,3.3050288e-05,0.005090777,0.005090482,0.011475668,0.0072898045,0.007289663,0.06116071,9.941829e-12,9.9421235e-12,1.8468277e-11,1.8691613e-06,1.8685299e-06,5.0000022e-08,0.0,0.0,0.0,0.0,0.0,0.0,0.0,0.0,531,0.120745465,0.24730691,0.03464566,0.0,8.0920756e-05,0.021697437,0.0,0.0,0.0,0.015948,424,0,0,165,24,0,0,0
102566275,0.9330956,0.0020893922,0.00438832,0.3595959,-0.0011919591,0.004277716,-0.02416165,-0.00019386088,0.0037865113,-0.12140789,-1.28903e-05,-3.887616e-06,4.6003015e-06,-5.2765026e-06,9.6823305e-06,0.0008130822,0.20522559,9.9048005e-09,0.3203534,0.0,0.0,0.0,0.0,0.0,5.1302247e-11,8.375921e-06,0.0010787048,5.3824624e-06,7.849503e-05,7.850533e-05,3.3069256e-05,0.0050430926,0.005042809,0.011409815,0.0071654744,0.0071653365,0.060520463,9.935433e-12,9.935734e-12,1.8471358e-11,1.8691144e-06,1.8684831e-06,5e-08,0.0,0.0,0.0,0.0,0.0,0.0,0.0,0.0,531,0.11971136,0.24600907,0.02465997,0.0,7.6839904e-05,0.019328607,0.0,0.0,0.0,0.015948,424,0,0,165,24,0,0,0
102766269,0.93317366,0.0020836703,0.004425857,0.35939273,-0.0015184234,0.0041774646,-0.022130124,-0.00038944892,0.0036410629,-0.11953871,-1.28852635e-05,-3.891491e-06,4.6835403e-06,-5.3751974e-06,9.752915e-06,0.00081052585,0.20522559,9.9048005e-09,0.3203534,0.0,0.0,0.0,0.0,0.0,5.1292103e-11,8.149803e-06,0.00093698874,5.379246e-06,7.8496196e-05,7.8506586e-05,3.30697e-05,0.005059518,0.005059243,0.011419945,0.0071882783,0.0071881427,0.0605197,9.936957e-12,9.937259e-12,1.8470397e-11,1.869073e-06,1.8684417e-06,5.0000036e-08,0.0,0.0,0.0,0.0,0.0,0.0,0.0,0.0,531,0.11990171,0.24600752,0.003743127,0.0,7.3211086e-05,0.0014992116,0.0,0.0,0.0,0.015948,424,0,0,165,24,0,0,0
102969481,0.93325734,0.002066455,0.0043981574,0.35917574,-0.0018613427,0.0037701144,-0.013821419,-0.0005787965,0.0034999552,-0.099363066,-1.2880294e-05,-3.8951566e-06,4.754631e-06,-5.422597e-06,9.8117935e-06,0.0008015767,0.20522559,9.9048005e-09,0.3203534,0.0,0.0,0.0,0.0,0.0,5.3766016e-11,8.293204e-06,0.0013006282,5.3749013e-06,7.849754e-05,7.8508005e-05,3.3071432e-05,0.005075046,0.0050747786,0.011432331,0.0072138854,0.0072137527,0.060539484,9.93867e-12,9.938977e-12,1.8469969e-11,1.8690329e-06,1.8684016e-06,5.0000054e-08,0.0,0.0,0.0,0.0,0.0,0.0,0.0,0.0,531,0.1201151,0.24604772,0.033209346,0.0,7.035098e-05,0.032751963,0.0,0.0,0.0,0.015948,424,0,0,165,24,0,0,0
103169504,0.93330616,0.0020990723,0.004396166,0.35904852,-0.0025912337,0.0031219579,-0.010031076,-0.0008326669,0.0033340368,-0.09215456,-1.2874918e-05,-3.898422e-06,4.7895714e-06,-5.5069077e-06,9.871964e-06,0.0007978312,0.20522559,9.9048005e-09,0.3203534,0.0,0.0,0.0,0.0,0.0,4.972877e-11,8.157825e-06,0.0008979492,5.3713716e-06,7.850153e-05,7.851197e-05,3.3075572e-05,0.0051091914,0.005108941,0.011454873,0.007275924,0.007275795,0.060716506,9.949458e-12,9.949769e-12,1.847853e-11,1.8689933e-06,1.8683621e-06,5.000007e-08,0.0,0.0,0.0,0.0,0.0,0.0,0.0,0.0,531,0.12063051,0.2464072,0.014714142,0.0,6.66438e-05,0.023768015,0.0,0.0,0.0,0.015948,424,0,0,165,24,0,0,0
103369507,0.9333883,0.0021320262,0.004422067,0.3588347,-0.004002559,0.002218747,-0.011230611,-0.0012283613,0.0029248141,-0.09717785,-1.2869058e-05,-3.900678e-06,4.8773563e-06,-5.651355e-06,9.900905e-06,0.0007988202,0.20522559,9.9048005e-09,0.3203534,0.0,0.0,0.0,0.0,0.0,4.6246982e-11,7.765925e-06,0.00069416093,5.368123e-06,7.848218e-05,7.8492594e-05,3.307638e-05,0.005034576,0.005034353,0.011365436,0.007102502,0.007102385,0.059870612,9.93942e-12,9.939735e-12,1.8477676e-11,1.8689491e-06,1.8683179e-06,5e-08,0.0,0.0,0.0,0.0,0.0,0.0,0.0,0.0,531,0.11918426,0.24468473,0.06378842,0.0,5.934573e-05,0.009255545,0.0,0.0,0.0,0.015948,424,0,0,165,24,0,0,0
103576693,0.9334563,0.0021421183,0.0044439333,0.35865736,-0.0043180767,0.0013692499,-0.011911636,-0.0016946921,0.0025025276,-0.09966796,-1.2863036e-05,-3.9017527e-06,4.9440387e-06,-5.7866114e-06,9.896913e-06,0.0007988146,0.20522559,9.9048005e-09,0.3203534,0.0,0.0,0.0,0.0,0.0,4.727584e-11,7.894765e-06,0.0006175511,5.358657e-06,7.84673e-05,7.847782e-05,3.303947e-05,0.004999037,0.004998848,0.0113209905,0.0070174993,0.007017395,0.05940241,9.934272e-12,9.934584e-12,1.846806e-11,1.8689045e-06,1.8682736e-06,5e-08,0.0,0.0,0.0,0.0,0.0,0.0,0.0,0.0,531,0.11846896,0.24372609,0.00078832865,0.0,5.0768867e-05,0.017523028,0.0,0.0,0.0,0.015948,424,0,0,165,24,0,0,0
103776669,0.9335439,0.0021741262,0.0044390988,0.35842904,-0.0044601853,0.0005695309,-0.009725568,-0.00210074,0.0021066482,-0.09792771,-1.2857846e-05,-3.9014362e-06,5.028375e-06,-5.8909063e-06,9.864269e-06,0.00079725217,0.20522559,9.9048005e-09,0.3203534,0.0,0.0,0.0,0.0,0.0,4.444052e-11,7.9469455e-06,0.0022979677,5.3547265e-06,7.846188e-05,7.847243e-05,3.3040767e-05,0.005018911,0.0050187563,0.0113463355,0.0070607043,0.0070606065,0.059505317,9.935701e-12,9.936013e-12,1.846637e-11,1.8688643e-06,1.8682333e-06,5e-08,0.0,0.0,0.0,0.0,0.0,0.0,0.0,0.0,531,0.118833125,0.24393712,0.00440403,0.0,4.274156e-05,0.01743231,0.0,0.0,0.0,0.015948,424,0,0,165,24,0,0,0
103976669,0.93356353,0.0021965543,0.004439062,0.3583778,-0.004407588,0.00033910634,-0.008050786,-0.0024379354,0.0017554776,-0.09771707,-1.2852736e-05,-3.9007878e-06,5.025588e-06,-5.9801278e-06,9.827969e-06,0.00079650444,0.20522559,9.9048005e-09,0.3203534,0.0,0.0,0.0,0.0,0.0,5.385713e-11,8.13959e-06,0.0015019458,5.3507633e-06,7.847032e-05,7.8480916e-05,3.3042958e-05,0.005116323,0.0051161996,0.011470207,0.0072950227,0.0072949305,0.060503513,9.947947e-12,9.948257e-12,1.8467002e-11,1.8688277e-06,1.8681967e-06,5.0000036e-08,0.0,0.0,0.0,0.0,0.0,0.0,0.0,0.0,531,0.12078888,0.24597462,0.04826834,0.0,4.8754857e-05,0.025714943,0.0,0.0,0.0,0.015948,424,0,0,165,24,0,0,0
104184684,0.93363875,0.0021686235,0.004423735,0.35818213,-0.0045189606,0.0009160953,-0.0033071581,-0.002593345,0.0014597191,-0.088667355,-1.28470665e-05,-3.8986673e-06,5.096862e-06,-6.064069e-06,9.768973e-06,0.00079264207,0.20522559,9.9048005e-09,0.3203534,0.0,0.0,0.0,0.0,0.0,5.475296e-11,8.156655e-06,0.0012850775,5.3497406e-06,7.844854e-05,7.845913e-05,3.3062686e-05,0.005053753,0.0050536613,0.011412003,0.0071730013,0.007172923,0.059992313,9.9390565e-12,9.939361e-12,1.8470437e-11,1.8687824e-06,1.8681515e-06,5e-08,0.0,0.0,0.0,0.0,0.0,0.0,0.0,0.0,531,0.119774476,0.24493328,0.050395038,0.0,5.2609164e-05,0.051645912,0.0,0.0,0.0,0.015948,424,0,0,165,24,0,0,0
104383869,0.933694,0.0021290404,0.0044007213,0.35803872,-0.004405476,0.0005500795,0.0011243548,-0.0027717908,0.0013111442,-0.07907289,-1.2841908e-05,-3.896398e-06,5.1396746e-06,-6.1312767e-06,9.715918e-06,0.00078875053,0.20522559,9.9048005e-09,0.3203534,0.0,0.0,0.0,0.0,0.0,5.563861e-11,8.296558e-06,0.0022609022,5.3458098e-06,7.844078e-05,7.845147e-05,3.3064614e-05,0.005055883,0.00505582,0.011424261,0.0071898983,0.007189833,0.060075477,9.9389975e-12,9.939299e-12,1.8470158e-11,1.8687431e-06,1.8681122e-06,5e-08,0.0,0.0,0.0,0.0,0.0,0.0,0.0,0.0,531,0.119915515,0.24510299,0.014651922,0.0,5.625852e-05,0.022466162,0.0,0.0,0.0,0.015948,424,0,0,165,24,0,0,0
104591869,0.93370855,0.002151965,0.0043823905,0.35800087,-0.003822996,0.00066484115,0.0043885685,-0.0028899016,0.0010924123,-0.069837674,-1.2836554e-05,-3.8940602e-06,5.1288553e-06,-6.1959468e-06,9.664348e-06,0.0007853984,0.20522559,9.9048005e-09,0.3203534,0.0,0.0,0.0,0.0,0.0,5.2623274e-11,8.2900115e-06,0.0020951615,5.344266e-06,7.844093e-05,7.845167e-05,3.3083892e-05,0.005093826,0.0050937817,0.0114774695,0.00728283,0.00728278,0.060476698,9.943445e-12,9.9437385e-12,1.847324e-11,1.8687049e-06,1.868074e-06,5.000005e-08,0.0,0.0,0.0,0.0,0.0,0.0,0.0,0.0,531,0.120688066,0.2459201,0.050835162,0.0,5.7422567e-05,0.013024261,0.0,0.0,0.0,0.015948,424,0,0,165,24,0,0,0
104791869,0.9338207,0.0021518078,0.0043874476,0.35770822,-0.004010505,0.000100124314,0.0023400402,-0.0028409136,0.0009149506,-0.07474224,-1.28314e-05,-3.890225e-06,5.2311416e-06,-6.324948e-06,9.580207e-06,0.0007872879,0.20522559,9.9048005e-09,0.3203534,0.0,0.0,0.0,0.0,0.0,5.331679e-11,8.509996e-06,0.0014040073,5.339632e-06,7.842109e-05,7.843187e-05,3.3086126e-05,0.005011801,0.0050117723,0.011384971,0.007099299,0.0070992643,0.05968064,9.933198e-12,9.933483e-12,1.8472737e-11,1.868664e-06,1.868033e-06,5e-08,0.0,0.0,0.0,0.0,0.0,0.0,0.0,0.0,531,0.119157724,0.24429621,0.069499806,0.0,5.7635738e-05,0.020035077,0.0,0.0,0.0,0.015948,424,0,0,165,24,0,0,0
104991893,0.93387085,0.0021786564,0.0043741334,0.35757715,-0.0038085077,-0.0005421668,-0.0015265485,-0.0029725095,0.0006871582,-0.087567165,-1.2827107e-05,-3.8870626e-06,5.2698097e-06,-6.451957e-06,9.505463e-06,0.0007919996,0.20522559,9.9048005e-09,0.3203534,0.0,0.0,0.0,0.0,0.0,5.875076e-11,8.6068385e-06,0.0009687693,5.335794e-06,7.843569e-05,7.8446465e-05,3.3087745e-05,0.005108079,0.0051080617,0.011503888,0.0073262546,0.007326232,0.060684666,9.944473e-12,9.944752e-12,1.8471842e-11,1.8686317e-06,1.8680007e-06,5.0000047e-08,0.0,0.0,0.0,0.0,0.0,0.0,0.0,0.0,531,0.12104746,0.24634258,0.050372403,0.0,5.9075093e-05,0.018747551,0.0,0.0,0.0,0.015948,424,0,0,165,24,0,0,0
105191077,0.93386763,0.0021664833,0.0043538446,0.3575861,-0.0034676788,-0.0011302043,-0.0028034698,-0.0029242614,0.00031904498,-0.09235554,-1.282238e-05,-3.883504e-06,5.2562423e-06,-6.5524805e-06,9.434811e-06,0.0007936206,0.20522559,9.9048005e-09,0.3203534,0.0,0.0,0.0,0.0,0.0,5.6575952e-11,8.689127e-06,0.00085140136,5.332809e-06,7.843208e-05,7.844295e-05,3.308863e-05,0.0050973995,0.0050973883,0.011504078,0.00731989,0.007319878,0.060726475,9.942239e-12,9.942507e-12,1.8471091e-11,1.8685952e-06,1.8679642e-06,5e-08,0.0,0.0,0.0,0.0,0.0,0.0,0.0,0.0,531,0.12099491,0.24642742,0.06844349,0.0,5.9366164e-05,0.015286185,0.0,0.0,0.0,0.015948,424,0,0,165,24,0,0,0
105391089,0.9339189,0.0021418715,0.0043445127,0.35745218,-0.0028036223,-0.0015599852,-0.002448062,-0.0028511097,-7.83532e-06,-0.09205778,-1.2819025e-05,-3.8796766e-06,5.294701e-06,-6.624462e-06,9.374886e-06,0.000793258,0.20522559,9.9048005e-09,0.3203534,0.0,0.0,0.0,0.0,0.0,5.3970807e-11,8.53477e-06,0.00060655735,5.3288236e-06,7.8443474e-05,7.845438e-05,3.3089917e-05,0.005164025,0.0051640114,0.011601723,0.007499487,0.007499485,0.061603718,9.94831e-12,9.948568e-12,1.8468786e-11,1.8685629e-06,1.8679319e-06,5.0000036e-08,0.0,0.0,0.0,0.0,0.0,0.0,0.0,0.0,531,0.12247029,0.24820097,0.03211893,0.0,5.7436806e-05,0.011260911,0.0,0.0,0.0,0.015948,424,0,0,165,24,0,0,0
105599068,0.93392164,0.0021133283,0.0043547475,0.3574453,-0.0023234496,-0.0020288741,0.0037669323,-0.0026452558,-0.00029522317,-0.07248575,-1.281536e-05,-3.8752805e-06,5.2800865e-06,-6.642833e-06,9.32886e-06,0.000785851,0.20522559,9.9048005e-09,0.3203534,0.0,0.0,0.0,0.0,0.0,5.4050337e-11,8.472683e-06,0.0004379653,5.3194262e-06,7.8429446e-05,7.844032e-05,3.3053602e-05,0.005073977,0.0050739585,0.011511781,0.007313253,0.007313253,0.060936023,9.9362575e-12,9.936505e-12,1.8459246e-11,1.8685231e-06,1.8678921e-06,5e-08,0.0,0.0,0.0,0.0,0.0,0.0,0.0,0.0,531,0.12094009,0.24685223,0.0181525,0.0,5.3705488e-05,0.026064882,0.0,0.0,0.0,0.015948,424,0,0,165,24,0,0,0
105799069,0.93401366,0.002134306,0.004344819,0.35720465,-0.0020563088,-0.0028857037,0.0029149915,-0.0023645894,-0.00067474437,-0.073092215,-1.2813253e-05,-3.8704657e-06,5.357219e-06,-6.7145975e-06,9.255224e-06,0.00078613864,0.20522559,9.9048005e-09,0.3203534,0.0,0.0,0.0,0.0,0.0,5.3943208e-11,8.377857e-06,0.00035710158,5.314923e-06,7.843149e-05,7.844241e-05,3.3056807e-05,0.0050619966,0.00506197,0.011500133,0.007288721,0.007288722,0.06090142,9.93443e-12,9.934665e-12,1.8458611e-11,1.8684887e-06,1.8678577e-06,5e-08,0.0,0.0,0.0,0.0,0.0,0.0,0.0,0.0,531,0.12073708,0.24678212,0.020330502,0.0,4.7998492e-05,0.0053573046,0.0,0.0,0.0,0.015948,424,0,0,165,24,0,0,0
106006269,0.9340062,0.0021247708,0.0043485877,0.35722414,-0.0009458061,-0.0040520616,0.005949195,-0.0021134028,-0.0011639257,-0.06678282,-1.2811482e-05,-3.8663675e-06,5.321368e-06,-6.7433375e-06,9.19335e-06,0.00078415324,0.20522559,9.9048005e-09,0.3203534,0.0,0.0,0.0,0.0,0.0,5.859329e-11,8.539226e-06,0.0004303428,5.305215e-06,7.8442754e-05,7.845374e-05,3.302183e-05,0.005093149,0.0050931093,0.011532546,0.007354507,0.007354507,0.061223343,9.938203e-12,9.938428e-12,1.844937e-11,1.8684555e-06,1.8678244e-06,5.0000047e-08,0.0,0.0,0.0,0.0,0.0,0.0,0.0,0.0,531,0.12128072,0.24743351,0.016207155,0.0,4.2562035e-05,0.016978351,0.0,0.0,0.0,0.015948,424,0,0,165,24,0,0,0
106208711,0.93405116,0.0021140764,0.0043588015,0.35710642,-4.430364e-05,-0.004284771,0.010579832,-0.0016714201,-0.0015918147,-0.055844173,-1.2811365e-05,-3.861166e-06,5.3643307e-06,-6.7555948e-06,9.116661e-06,0.00078067573,0.20522559,9.9048005e-09,0.3203534,0.0,0.0,0.0,0.0,0.0,5.5371797e-11,8.215566e-06,0.0007091475,5.302139e-06,7.843427e-05,7.8445264e-05,3.30235e-05,0.0050027324,0.0050026984,0.0114189405,0.007135904,0.0071358983,0.06027098,9.92657e-12,9.926782e-12,1.8447915e-11,1.8684196e-06,1.8677885e-06,5e-08,0.0,0.0,0.0,0.0,0.0,0.0,0.0,0.0,531,0.11946465,0.24550149,0.08040221,0.0,3.3912882e-05,0.009160997,0.0,0.0,0.0,0.015948,424,0,0,165,24,0,0,0
106406269,0.93413806,0.0021670507,0.0043563913,0.35687882,2.9446195e-05,-0.003957655,0.008302114,-0.0012918487,-0.0019524276,-0.061464775,-1.28123675e-05,-3.8562325e-06,5.4310653e-06,-6.7960345e-06,9.029256e-06,0.0007833728,0.20522559,9.9048005e-09,0.3203534,0.0,0.0,0.0,0.0,0.0,5.976669e-11,8.618182e-06,0.0008322627,5.2977375e-06,7.844763e-05,7.845857e-05,3.3029042e-05,0.0050281747,0.00502815,0.011428069,0.007168653,0.0071686455,0.060382057,9.937499e-12,9.9377e-12,1.8456278e-11,1.8683887e-06,1.8677574e-06,5.0000004e-08,0.0,0.0,0.0,0.0,0.0,0.0,0.0,0.0,531,0.11973846,0.24572761,0.09335964,0.0,3.8971542e-05,0.029356476,0.0,0.0,0.0,0.015948,424,0,0,165,24,0,0,0
107624669,0.93452436,0.0021561722,0.0043008905,0.35586664,0.0020239295,-0.0017760894,-0.0039054458,0.0003552871,-0.0021410184,-0.09725414,-1.2830223e-05,-3.8312996e-06,5.7293314e-06,-6.762263e-06,8.619563e-06,0.0007967803,0.20522559,9.9048005e-09,0.3203534,0.0,0.0,0.0,0.0,0.0,5.315083e-11,8.168351e-06,0.001592064,5.2791534e-06,7.848546e-05,7.8496574e-05,3.30865e-05,0.0050436324,0.0050436547,0.011403377,0.007165067,0.0071650688,0.060250446,9.946951e-12,9.947088e-12,1.8473315e-11,1.8682354e-06,1.8676037e-06,5.0000036e-08,0.0,0.0,0.0,0.0,0.0,0.0,0.0,0.0,531,0.119708546,0.24545966,0.041470375,0.0,4.3162545e-05,0.04279638,0.0,0.0,0.0,0.015948,424,0,0,165,24,0,0,0
107824669,0.93458307,0.0021593184,0.0043084244,0.35571253,0.0019068975,-0.0012020093,-0.0050562946,0.00061387685,-0.0019209972,-0.10001547,-1.2834062e-05,-3.829004e-06,5.784745e-06,-6.723266e-06,8.593386e-06,0.0007974377,0.20522559,9.9048005e-09,0.3203534,0.0,0.0,0.0,0.0,0.0,5.4163517e-11,8.536393e-06,0.0010730892,5.2757864e-06,7.848781e-05,7.8498946e-05,3.308898e-05,0.0050583105,0.0050583356,0.011413671,0.0071925414,0.0071925484,0.06031917,9.948153e-12,9.948276e-12,1.8472683e-11,1.8682168e-06,1.8675852e-06,5.0000036e-08,0.0,0.0,0.0,0.0,0.0,0.0,0.0,0.0,531,0.11993786,0.24559961,0.0067793326,0.0,3.8785958e-05,0.008973729,0.0,0.0,0.0,0.015948,424,0,0,165,24,0,0,0
108032691,0.9346929,0.0021759088,0.0042840145,0.3554238,0.0023808314,-0.0007523537,-0.005144712,0.0008450724,-0.0015875767,-0.10110512,-1.2838549e-05,-3.8268763e-06,5.900852e-06,-6.682607e-06,8.576485e-06,0.00079714373,0.20522559,9.9048005e-09,0.3203534,0.0,0.0,0.0,0.0,0.0,5.337075e-11,8.604582e-06,0.00071658305,5.2662963e-06,7.8480014e-05,7.849116e-05,3.30538e-05,0.0050201872,0.005020211,0.01136054,0.00709811,0.0070981225,0.059837986,9.942853e-12,9.942959e-12,1.8463306e-11,1.8681974e-06,1.8675657e-06,5e-08,0.0,0.0,0.0,0.0,0.0,0.0,0.0,0.0,531,0.11914794,0.24461804,0.009668553,0.0,3.2211352e-05,0.016432244,0.0,0.0,0.0,0.015948,424,0,0,165,24,0,0,0
108231869,0.934737,0.0021725493,0.004301254,0.35530746,0.0026988091,0.0006764453,-0.0062320447,0.0011320031,-0.00120685,-0.10492887,-1.2841926e-05,-3.8263097e-06,5.9239487e-06,-6.6469925e-06,8.574973e-06,0.0007980996,0.20522559,9.9048005e-09,0.3203534,0.0,0.0,0.0,0.0,0.0,5.5291584e-11,8.584071e-06,0.0016270768,5.262127e-06,7.848294e-05,7.849405e-05,3.3057364e-05,0.0050436906,0.005043706,0.011380344,0.007143198,0.0071432153,0.05996323,9.9452295e-12,9.94532e-12,1.8462759e-11,1.8681812e-06,1.8675493e-06,5e-08,0.0,0.0,0.0,0.0,0.0,0.0,0.0,0.0,531,0.11952579,0.24487391,0.045877833,0.0,2.4586028e-05,0.016999457,0.0,0.0,0.0,0.015948,488,0,0,165,24,0,0,0
108439887,0.9347294,0.0021625157,0.004320705,0.35532776,0.001992055,0.0009810906,-0.0044650617,0.0012968894,-0.000759332,-0.10047656,-1.2844998e-05,-3.8272965e-06,5.875991e-06,-6.5925433e-06,8.579742e-06,0.00079595123,0.20522559,9.9048005e-09,0.3203534,0.0,0.0,0.0,0.0,0.0,1.11512556e-10,1.0703225e-05,0.0011254871,5.260195e-06,7.8474586e-05,7.848564e-05,3.3078784e-05,0.005006445,0.0050064577,0.011333509,0.007054081,0.007054102,0.059501603,9.939912e-12,9.939987e-12,1.8465831e-11,1.8681641e-06,1.8675321e-06,5e-08,0.0,0.0,0.0,0.0,0.0,0.0,0.0,0.0,531,0.11877787,0.2439295,0.057005998,0.0,2.6287518e-05,0.074670285,0.0,0.0,0.0,0.015948,488,0,0,165,24,0,0,0
108639877,0.93468827,0.0021606497,0.0043541896,0.35543528,0.0012293427,0.0018594473,-0.0067696585,0.0013340411,-0.00037481778,-0.1069083,-1.2847143e-05,-3.8283374e-06,5.8713085e-06,-6.5744243e-06,8.598551e-06,0.00079802325,0.20522559,9.9048005e-09,0.3203534,0.0,0.0,0.0,0.0,0.0,6.3434813e-10,3.0155297e-05,0.0010485753,5.2606415e-06,7.849122e-05,7.8502395e-05,3.3077984e-05,0.005106791,0.005106806,0.011454848,0.007290084,0.007290109,0.060511842,9.951243e-12,9.951308e-12,1.846533e-11,1.8681504e-06,1.8675184e-06,5.000004e-08,0.0,0.0,0.0,0.0,0.0,0.0,0.0,0.0,531,0.12074847,0.24599154,0.02945621,0.0,2.6866974e-05,0.012274622,0.0,0.0,0.0,0.015948,488,0,0,165,24,0,0,0
108839912,0.9347115,0.002142924,0.004377848,0.35537404,0.00026531122,0.0012079711,-0.010004298,0.0013287383,-4.960101e-05,-0.11834649,-1.2847961e-05,-3.829396e-06,5.829942e-06,-6.5736863e-06,8.624001e-06,0.00080176245,0.20522559,9.9048005e-09,0.3203534,0.0,0.0,0.0,0.0,0.0,2.2542137e-09,5.6687797e-05,0.0012740786,5.254397e-06,7.855636e-05,7.856757e-05,3.3083925e-05,0.0054833535,0.0054833866,0.011565707,0.008199461,0.0081994925,0.061479215,9.99541e-12,9.995463e-12,1.8464846e-11,1.8681421e-06,1.8675102e-06,5.0000075e-08,0.0,0.0,0.0,0.0,0.0,0.0,0.0,0.0,659,0.1280584,0.24795002,0.0073393756,0.0,1.3244239e-06,0.026409993,0.0,0.0,0.0,0.015948,488,0,0,165,24,0,0,0
109047075,0.93475187,0.0020896862,0.004307839,0.3552691,0.00053018605,0.00022280547,-0.013824996,0.0014473494,0.00020090773,-0.13307548,-1.2847708e-05,-3.8294797e-06,5.8031565e-06,-6.6541584e-06,8.704117e-06,0.00080639066,0.20522559,9.9048005e-09,0.3203534,0.0,0.0,0.0,0.0,0.0,3.184732e-08,0.00021586582,0.0036629597,5.2418713e-06,7.871367e-05,7.8724894e-05,3.3051696e-05,0.006437243,0.0064373184,0.011590308,0.0107450485,0.010745101,0.06173964,1.0100053e-11,1.0100099e-11,1.8454158e-11,1.8681419e-06,1.8675099e-06,5e-08,0.0,0.0,0.0,0.0,0.0,0.0,0.0,0.0,659,0.1465952,0.24847463,0.010620282,0.0,1.4429037e-06,0.03068128,0.0,0.0,0.0,0.015948,40,0,0,165,24,0,0,0
109247068,0.9347418,0.0015683569,0.00412029,0.3553004,0.0023586624,-0.0013335428,-0.01798561,0.001493009,0.00019309645,-0.1521782,-1.2847517e-05,-3.8293783e-06,5.7969132e-06,-6.6608873e-06,8.702232e-06,0.00081226876,0.20522559,9.9048005e-09,0.3203534,0.0,0.0,0.0,0.0,0.0,1.00395845e-07,0.0004377897,0.0060372567,5.2402634e-06,7.8868856e-05,7.888043e-05,3.30531e-05,0.0074541504,0.007454276,0.011569271,0.013863688,0.013863768,0.061644804,1.0204247e-11,1.02042905e-11,1.8456136e-11,1.8681408e-06,1.8675089e-06,5e-08,0.0,0.0,0.0,0.0,0.0,0.0,0.0,0.0,659,0.16651563,0.24828371,0.005913814,0.0,1.4946694e-06,0.00052994915,0.0,0.0,0.0,0.015948,40,0,0,165,24,0,0,0
109447073,0.934801,-0.0014001677,0.0030657244,0.35515618,-0.005627818,-0.022096751,-0.039394747,0.0021273792,-0.0019770875,-0.17360598,-1.28479705e-05,-3.8286803e-06,5.8825985e-06,-6.9713988e-06,9.100283e-06,0.0008180012,0.20522559,9.9048005e-09,0.3203534,0.0,0.0,0.0,0.0,0.0,1.9144349e-07,0.00071087404,0.008566084,5.239901e-06,7.902547e-05,7.9039586e-05,3.3053257e-05,0.008576799,0.008576948,0.011551324,0.01774497,0.017745093,0.06156185,1.0305659e-11,1.03057025e-11,1.8455753e-11,1.8681397e-06,1.8675071e-06,5.0000036e-08,0.0,0.0,0.0,0.0,0.0,0.0,0.0,0.0,659,0.18838806,0.2481166,0.03173465,0.0,2.1575238e-06,0.0431279,0.0,0.0,0.0,0.015948,40,0,0,165,24,0,0,0
109654307,0.93469185,-0.0013719808,0.0041045425,0.35543275,-0.011746161,-0.020031083,-0.042050168,0.0004806781,-0.0032190322,-0.21351832,-1.2847463e-05,-3.8286325e-06,5.846548e-06,-6.9637335e-06,8.956755e-06,0.0008297359,0.20522559,9.9048005e-09,0.3203534,0.0,0.0,0.0,0.0,0.0,5.9329335e-07,0.0013503651,0.016926808,5.2377127e-06,7.919325e-05,7.920645e-05,3.3012486e-05,0.009839609,0.009839921,0.011466415,0.0227164,0.022716597,0.060892116,1.0410518e-11,1.0410561e-11,1.8446715e-11,1.8681397e-06,1.867505e-06,5e-08,0.0,0.0,0.0,0.0,0.0,0.0,0.0,0.0,659,0.21315017,0.24676327,0.00071686634,0.0,3.2194375e-06,0.006053663,0.0,0.0,0.0,0.015948,40,0,0,165,24,0,0,0
109854269,0.93441916,-0.0019087533,0.0036696196,0.3561513,-0.009337334,-0.010133,-0.029711658,-0.00016967536,-0.00401203,-0.22594774,-1.2846428e-05,-3.829676e-06,5.6932663e-06,-7.019146e-06,8.287991e-06,0.00083172746,0.20522559,9.9048005e-09,0.3203534,0.0,0.0,0.0,0.0,0.0,8.4004864e-07,0.0017510415,0.021216856,5.246903e-06,7.935621e-05,7.9370286e-05,3.300475e-05,0.011152075,0.011152591,0.011458183,0.028506903,0.028507218,0.060824994,1.0509457e-11,1.05095e-11,1.8445214e-11,1.8681397e-06,1.8675032e-06,5e-08,0.0,0.0,0.0,0.0,0.0,0.0,0.0,0.0,659,0.2387763,0.24662724,0.029175764,0.0,4.0125824e-06,0.003719524,0.0,0.0,0.0,0.015948,40,0,0,165,24,0,0,0
110054270,0.93446,-0.0010060047,0.0033358727,0.35605124,-0.005734047,-0.0056594023,-0.034375336,-0.00018459492,-0.003967954,-0.23593792,-1.2846489e-05,-3.8295498e-06,5.7010257e-06,-7.0375436e-06,8.30649e-06,0.00083312654,0.20522559,9.9048005e-09,0.3203534,0.0,0.0,0.0,0.0,0.0,8.386285e-07,0.0019198623,0.022403382,5.2340015e-06,7.9523365e-05,7.953739e-05,3.29565e-05,0.012589758,0.012590459,0.011455877,0.03546964,0.035470143,0.06080965,1.0610431e-11,1.06104734e-11,1.8433841e-11,1.8681397e-06,1.8675012e-06,5.0000036e-08,0.0,0.0,0.0,0.0,0.0,0.0,0.0,0.0,659,0.26634523,0.24659613,0.0456674,0.0,3.9304578e-06,0.0038202,0.0,0.0,0.0,0.015948,40,0,0,165,24,0,0,0
110262269,0.93411136,-0.0028488324,0.00261117,0.35696098,0.0059680976,-0.009213012,-0.081237115,-0.00058470364,-0.0043306877,-0.29130888,-1.2846567e-05,-3.828683e-06,5.7634193e-06,-7.092258e-06,8.256208e-06,0.0008493471,0.20522559,9.9048005e-09,0.3203534,0.0,0.0,0.0,0.0,0.0,1.176003e-06,0.0022797093,0.025657756,5.264499e-06,7.969635e-05,7.971232e-05,3.2949996e-05,0.014220883,0.014221803,0.011389457,0.044080228,0.04408101,0.060236804,1.0712773e-11,1.0712815e-11,1.843807e-11,1.8681397e-06,1.8674991e-06,5e-08,0.0,0.0,0.0,0.0,0.0,0.0,0.0,0.0,659,0.29691958,0.24543187,0.092128016,0.0,4.3316795e-06,0.010305125,0.0,0.0,0.0,0.015948,40,0,0,165,24,0,0,0
110461498,0.93333715,-0.0029087672,-0.0008240446,0.3589886,0.017627236,-0.00086534634,-0.044700023,0.00064369425,-0.004673408,-0.3254265,-1.2845433e-05,-3.829672e-06,5.598741e-06,-7.37507e-06,7.6058586e-06,0.00085695507,0.20522559,9.9048005e-09,0.3203534,0.0,0.0,0.0,0.0,0.0,1.0231056e-06,0.0022327125,0.025802134,5.301541e-06,7.986296e-05,7.988164e-05,3.2854918e-05,0.01585116,0.015852371,0.011396284,0.05384769,0.053848837,0.060268972,1.081027e-11,1.0810311e-11,1.84256e-11,1.8681391e-06,1.8674968e-06,5e-08,0.0,0.0,0.0,0.0,0.0,0.0,0.0,0.0,659,0.3281715,0.24549739,0.023317246,0.0,4.6746372e-06,0.0027644276,0.0,0.0,0.0,0.015948,40,0,0,165,24,0,0,0
110669475,0.9322474,-0.0037551583,0.002985875,0.36178976,0.027822673,-0.004878428,-0.078819,0.0042505143,-0.005835495,-0.35129553,-1.2845054e-05,-3.8299627e-06,5.540291e-06,-7.4520585e-06,7.1743116e-06,0.0008619515,0.20522559,9.9048005e-09,0.3203534,0.0,0.0,0.0,0.0,0.0,9.705817e-07,0.002165062,0.025835045,5.376214e-06,8.004317e-05,8.005986e-05,3.2801272e-05,0.01773701,0.017738583,0.0115411505,0.06575156,0.06575324,0.061507616,1.0911961e-11,1.0912002e-11,1.843085e-11,1.8681388e-06,1.8674937e-06,5.0000036e-08,0.0,0.0,0.0,0.0,0.0,0.0,0.0,0.0,659,0.3626359,0.2480073,0.012526131,0.0,5.60716e-06,0.00029148944,0.0,0.0,0.0,0.015948,40,0,0,165,24,0,0,0
110869476,0.9316554,-0.0040130275,0.001954003,0.3633158,0.039740525,-0.019143261,-0.007470617,0.009204105,-0.009645486,-0.38529158,-1.2845127e-05,-3.8298417e-06,5.5340115e-06,-7.5305593e-06,6.7625333e-06,0.0008709838,0.20522559,9.9048005e-09,0.3203534,0.0,0.0,0.0,0.0,0.0,1.0155833e-06,0.002117026,0.024820326,5.4167986e-06,8.021181e-05,8.022983e-05,3.2763735e-05,0.0195484,0.019550368,0.011528523,0.07888069,0.078883,0.061410718,1.1004794e-11,1.1004835e-11,1.8429753e-11,1.8681372e-06,1.8674887e-06,5.0000036e-08,0.0,0.0,0.0,0.0,0.0,0.0,0.0,0.0,659,0.39719477,0.24781185,0.052167494,0.0,9.483057e-06,0.01576929,0.0,0.0,0.0,0.015948,40,0,0,165,24,0,0,0
111069490,0.93126726,-0.0035535549,0.0029869701,0.36430725,0.0045580086,-0.0076018325,-0.056563288,0.0116273975,-0.010917031,-0.40455315,-1.2845345e-05,-3.830063e-06,5.502035e-06,-7.5654248e-06,6.4877195e-06,0.0008729165,0.20522559,9.9048005e-09,0.3203534,0.0,0.0,0.0,0.0,0.0,1.1880243e-06,0.0022671735,0.026769057,5.440586e-06,8.0382335e-05,8.039955e-05,3.2742428e-05,0.021588609,0.021590788,0.0115109375,0.093952455,0.093955666,0.061291475,1.1096854e-11,1.1096892e-11,1.8430134e-11,1.8681369e-06,1.8674817e-06,5e-08,0.0,0.0,0.0,0.0,0.0,0.0,0.0,0.0,659,0.4334837,0.24757116,0.008268831,0.0,1.1630912e-05,0.017458262,0.0,0.0,0.0,0.015948,40,0,0,165,24,0,0,0
111277496,0.93122333,-0.0039912597,0.0035715548,0.36440971,-0.0016686069,0.014368797,-0.215169,0.012357269,-0.010112735,-0.40284994,-1.2845655e-05,-3.8308526e-06,5.423185e-06,-7.6020615e-06,7.4643035e-06,0.00086111267,0.20522559,9.9048005e-09,0.3203534,0.0,0.0,0.0,0.0,0.0,1.3623273e-06,0.0024913296,0.029533051,5.43186e-06,8.055888e-05,8.057635e-05,3.2711567e-05,0.023974236,0.02397692,0.011543113,0.111848205,0.11185257,0.061554175,1.1190531e-11,1.1190565e-11,1.8421785e-11,1.8681363e-06,1.8674706e-06,5.0000022e-08,0.0,0.0,0.0,0.0,0.0,0.0,0.0,0.0,659,0.47297016,0.24810115,0.10692278,0.0,1.23405225e-05,0.029739317,0.0,0.0,0.0,0.015948,40,0,0,165,24,0,0,0
111476669,0.9324909,-0.0067866896,0.0021286323,0.36112365,0.01107147,-0.0105015,-0.30657235,0.014102047,-0.010377553,-0.4719181,-1.28457705e-05,-3.831419e-06,5.335711e-06,-7.7267705e-06,6.4799124e-06,0.00087088806,0.20522559,9.9048005e-09,0.3203534,0.0,0.0,0.0,0.0,0.0,1.3389397e-06,0.0024594257,0.03029012,5.337827e-06,8.071931e-05,8.0740865e-05,3.2813274e-05,0.02626316,0.0262664,0.011428285,0.13108099,0.1310867,0.060576428,1.1278828e-11,1.12788555e-11,1.8425558e-11,1.8681362e-06,1.8674527e-06,5e-08,0.0,0.0,0.0,0.0,0.0,0.0,0.0,0.0,659,0.51202315,0.24612279,0.12282226,0.0,1.4123925e-05,0.10515564,0.0,0.0,0.0,0.015948,40,0,0,165,24,0,0,0
111676669,0.9331002,-0.0057111317,-0.0009283887,0.35956994,0.030235527,-0.008987652,-0.22960334,0.01827959,-0.012399029,-0.5564113,-1.2846484e-05,-3.8314743e-06,5.344862e-06,-7.80605e-06,5.540936e-06,0.00087812345,0.20522559,9.9048005e-09,0.3203534,0.0,0.0,0.0,0.0,0.0,1.1487723e-06,0.00230452,0.028488815,5.3023614e-06,8.0879414e-05,8.0902806e-05,3.291639e-05,0.028429471,0.028433386,0.0114301555,0.1526173,0.15262467,0.060538612,1.1360576e-11,1.13605965e-11,1.843718e-11,1.8681358e-06,1.8674306e-06,5.0000036e-08,0.0,0.0,0.0,0.0,0.0,0.0,0.0,0.0,659,0.5524871,0.24604596,0.03969558,0.0,1.8096398e-05,0.025745114,0.0,0.0,0.0,0.015948,40,0,0,165,24,0,0,0
111884669,0.93316114,-0.0055012037,0.00035725647,0.35941604,0.028605528,-0.018304903,-0.042451162,0.024052607,-0.015481721,-0.5931269,-1.28474885e-05,-3.8318076e-06,5.3341487e-06,-7.860136e-06,4.960875e-06,0.0008819983,0.20522559,9.9048005e-09,0.3203534,0.0,0.0,0.0,0.0,0.0,1.0294173e-06,0.0021976435,0.026500454,5.2894575e-06,8.1045415e-05,8.106897e-05,3.2887176e-05,0.030639807,0.030644318,0.011468446,0.17752083,0.17753029,0.060843844,1.1443976e-11,1.1443993e-11,1.8428689e-11,1.8681358e-06,1.8674004e-06,5e-08,0.0,0.0,0.0,0.0,0.0,0.0,0.0,0.0,659,0.5958617,0.24666545,0.026593048,0.0,2.4074781e-05,0.0053439047,0.0,0.0,0.0,0.015948,40,0,0,165,24,0,0,0
112083116,0.93408114,-0.0040424415,-7.815635e-05,0.35703787,0.04119111,-0.026573,0.024335433,0.029964201,-0.020789303,-0.58084637,-1.2849167e-05,-3.8321664e-06,5.344839e-06,-7.7863715e-06,5.877871e-06,0.0008770675,0.20522559,9.9048005e-09,0.3203534,0.0,0.0,0.0,0.0,0.0,1.0882112e-06,0.0022354624,0.027167387,5.222334e-06,8.11978e-05,8.122186e-05,3.2956083e-05,0.03295736,0.03296254,0.011467287,0.20363891,0.20365073,0.0608216,1.15190826e-11,1.1519096e-11,1.8428887e-11,1.8681358e-06,1.8673613e-06,5.0000036e-08,0.0,0.0,0.0,0.0,0.0,0.0,0.0,0.0,659,0.6381925,0.24662036,0.053298786,0.0,2.97015e-05,0.05653231,0.0,0.0,0.0,0.015948,40,0,0,165,24,0,0,0
112291884,0.9347642,-0.0010029136,-0.0005973054,0.3552669,0.05798262,-0.018878074,0.026900982,0.03786178,-0.025374068,-0.5548045,-1.2851301e-05,-3.832805e-06,5.3282165e-06,-7.656326e-06,7.612175e-06,0.00086838915,0.20522559,9.9048005e-09,0.3203534,0.0,0.0,0.0,0.0,0.0,1.2931392e-06,0.0024339103,0.031248707,5.1726306e-06,8.135259e-05,8.1376806e-05,3.3028286e-05,0.035507478,0.03551349,0.011501942,0.23321603,0.23323072,0.06108725,1.1593974e-11,1.1593987e-11,1.8433602e-11,1.8681358e-06,1.86731e-06,5e-08,0.0,0.0,0.0,0.0,0.0,0.0,0.0,0.0,659,0.6829691,0.24715835,0.058993865,0.0,3.7905353e-05,0.0033088676,0.0,0.0,0.0,0.015948,40,0,0,165,24,0,0,0
