timestamp,roll_body,pitch_body,yaw_body,yaw_sp_move_rate,q_d[0],q_d[1],q_d[2],q_d[3],thrust_body[0],thrust_body[1],thrust_body[2],q_d_valid,roll_reset_integral,pitch_reset_integral,yaw_reset_integral,fw_control_yaw,apply_flaps
94617927,0.0,0.0,0.7538468,0.0,0.9298014,0.0,0.0,0.3680616,0.0,0.0,-0.0,1,0,0,0,0,0
94637926,0.0,0.0,0.75377727,0.0,0.9298142,0.0,0.0,0.36802927,0.0,0.0,-0.0,1,0,0,0,0,0
94738045,0.0,0.0,0.7534261,0.0,0.92987883,0.0,0.0,0.36786598,0.0,0.0,-0.0,1,0,0,0,0,0
94838194,0.0,0.0,0.7531804,0.0,0.929924,0.0,0.0,0.36775178,0.0,0.0,-0.0,1,0,0,0,0,0
94938574,0.0,0.0,0.7528798,0.0,0.92997926,0.0,0.0,0.367612,0.0,0.0,-0.0,1,0,0,0,0,0
95038640,0.0,0.0,0.7525918,0.0,0.9300322,0.0,0.0,0.36747807,0.0,0.0,-0.0,1,0,0,0,0,0
95138654,0.0,0.0,0.75236994,0.0,0.9300729,0.0,0.0,0.36737493,0.0,0.0,-0.0,1,0,0,0,0,0
95238610,0.0,0.0,0.7521062,0.0,0.93012136,0.0,0.0,0.36725226,0.0,0.0,-0.0,1,0,0,0,0,0
95339234,0.0,0.0,0.7518305,0.0,0.930172,0.0,0.0,0.36712402,0.0,0.0,-0.0,1,0,0,0,0,0
95438748,0.0,0.0,0.7515893,0.0,0.93021625,0.0,0.0,0.36701187,0.0,0.0,-0.0,1,0,0,0,0,0
95538961,0.0,0.0,0.7513907,0.0,0.93025273,0.0,0.0,0.3669195,0.0,0.0,-0.0,1,0,0,0,0,0
95639015,0.0,0.0,0.7511514,0.0,0.9302966,0.0,0.0,0.36680815,0.0,0.0,-0.0,1,0,0,0,0,0
95739187,0.0,0.0,0.750864,0.0,0.9303493,0.0,0.0,0.3666745,0.0,0.0,-0.0,1,0,0,0,0,0
95839430,0.0,0.0,0.75056624,0.0,0.9304039,0.0,0.0,0.36653596,0.0,0.0,-0.0,1,0,0,0,0,0
95939373,0.0,0.0,0.75029504,0.0,0.9304536,0.0,0.0,0.3664098,0.0,0.0,-0.0,1,0,0,0,0,0
96059474,0.0,0.0,0.75003386,0.0,0.93050146,0.0,0.0,0.36628827,0.0,0.0,-0.0,1,0,0,0,0,0
96159535,0.0,0.0,0.7497825,0.0,0.9305475,0.0,0.0,0.36617136,0.0,0.0,-0.0,1,0,0,0,0,0
96259586,0.0,0.0,0.7494709,0.0,0.9306045,0.0,0.0,0.36602634,0.0,0.0,-0.0,1,0,0,0,0,0
96359711,0.0,0.0,0.7491584,0.0,0.9306617,0.0,0.0,0.36588097,0.0,0.0,-0.0,1,0,0,0,0,0
96459923,0.0,0.0,0.7488651,0.0,0.9307153,0.0,0.0,0.3657445,0.0,0.0,-0.0,1,0,0,0,0,0
96559925,0.0,0.0,0.7485492,0.0,0.9307731,0.0,0.0,0.3655975,0.0,0.0,-0.0,1,0,0,0,0,0
96660377,0.0,0.0,0.74832785,0.0,0.93081355,0.0,0.0,0.36549443,0.0,0.0,-0.0,1,0,0,0,0,0
96760367,0.0,0.0,0.7480639,0.0,0.9308618,0.0,0.0,0.36537158,0.0,0.0,-0.0,1,0,0,0,0,0
96860355,0.0,0.0,0.7477892,0.0,0.93091196,0.0,0.0,0.3652437,0.0,0.0,-0.0,1,0,0,0,0,0
96960359,0.0,0.0,0.7475298,0.0,0.9309593,0.0,0.0,0.36512297,0.0,0.0,-0.0,1,0,0,0,0,0
97060417,0.0,0.0,0.74726003,0.0,0.9310085,0.0,0.0,0.36499745,0.0,0.0,-0.0,1,0,0,0,0,0
97160546,0.0,0.0,0.7470148,0.0,0.9310533,0.0,0.0,0.36488324,0.0,0.0,-0.0,1,0,0,0,0,0
97260782,0.0,0.0,0.7467688,0.0,0.93109816,0.0,0.0,0.3647687,0.0,0.0,-0.0,1,0,0,0,0,0
97380836,0.0,0.0,0.7464867,0.0,0.9311496,0.0,0.0,0.3646374,0.0,0.0,-0.0,1,0,0,0,0,0
97480983,0.0,0.0,0.7462655,0.0,0.9311899,0.0,0.0,0.3645344,0.0,0.0,-0.0,1,0,0,0,0,0
97580930,0.0,0.0,0.7460691,0.0,0.9312257,0.0,0.0,0.36444294,0.0,0.0,-0.0,1,0,0,0,0,0
97681039,0.0,0.0,0.74580765,0.0,0.93127334,0.0,0.0,0.3643212,0.0,0.0,-0.0,1,0,0,0,0,0
97781088,0.0,0.0,0.74553865,0.0,0.93132234,0.0,0.0,0.36419597,0.0,0.0,-0.0,1,0,0,0,0,0
97881192,0.0,0.0,0.74537396,0.0,0.9313523,0.0,0.0,0.3641193,0.0,0.0,-0.0,1,0,0,0,0,0
97981412,0.0,0.0,0.74518013,0.0,0.9313876,0.0,0.0,0.364029,0.0,0.0,-0.0,1,0,0,0,0,0
98081520,0.0,0.0,0.74496317,0.0,0.9314271,0.0,0.0,0.36392796,0.0,0.0,-0.0,1,0,0,0,0,0
98181611,0.0,0.0,0.7447298,0.0,0.93146956,0.0,0.0,0.3638193,0.0,0.0,-0.0,1,0,0,0,0,0
98281889,0.0,0.0,0.7445133,0.0,0.93150896,0.0,0.0,0.36371845,0.0,0.0,-0.0,1,0,0,0,0,0
98381752,0.0,0.0,0.7443461,0.0,0.93153936,0.0,0.0,0.36364055,0.0,0.0,-0.0,1,0,0,0,0,0
98501807,0.0,0.0,0.7442183,0.0,0.93156254,0.0,0.0,0.36358106,0.0,0.0,-0.0,1,0,0,0,0,0
98601926,0.0,0.0,0.7441344,0.0,0.9315778,0.0,0.0,0.363542,0.0,0.0,-0.0,1,0,0,0,0,0
98701999,0.0,0.0,0.74398845,0.0,0.9316043,0.0,0.0,0.363474,0.0,0.0,-0.0,1,0,0,0,0,0
98802178,0.0,0.0,0.7438093,0.0,0.9316369,0.0,0.0,0.36339054,0.0,0.0,-0.0,1,0,0,0,0,0
98902539,0.0,0.0,0.7436915,0.0,0.9316583,0.0,0.0,0.36333564,0.0,0.0,-0.0,1,0,0,0,0,0
99002404,0.0,0.0,0.7435566,0.0,0.9316828,0.0,0.0,0.36327282,0.0,0.0,-0.0,1,0,0,0,0,0
99102697,0.0,0.0,0.7433889,0.0,0.9317133,0.0,0.0,0.36319467,0.0,0.0,-0.0,1,0,0,0,0,0
99202553,0.0,0.0,0.7431988,0.0,0.9317478,0.0,0.0,0.36310616,0.0,0.0,-0.0,1,0,0,0,0,0
99303357,0.0,0.0,0.74292284,0.0,0.93179786,0.0,0.0,0.3629776,0.0,0.0,-0.0,1,0,0,0,0,0
99402689,0.0,0.0,0.74263406,0.0,0.9318503,0.0,0.0,0.362843,0.0,0.0,-0.0,1,0,0,0,0,0
99503109,0.0,0.0,0.74239403,0.0,0.9318938,0.0,0.0,0.3627312,0.0,0.0,-0.0,1,0,0,0,0,0
99623528,0.0,0.0,0.7421868,0.0,0.93193144,0.0,0.0,0.36263463,0.0,0.0,-0.0,1,0,0,0,0,0
99723268,0.0,0.0,0.7418873,0.0,0.9319857,0.0,0.0,0.36249506,0.0,0.0,-0.0,1,0,0,0,0,0
99823920,0.0,0.0,0.7416595,0.0,0.932027,0.0,0.0,0.36238897,0.0,0.0,-0.0,1,0,0,0,0,0
99923335,0.0,0.0,0.7414114,0.0,0.9320719,0.0,0.0,0.3622733,0.0,0.0,-0.0,1,0,0,0,0,0
100023363,0.0,0.0,0.74124575,0.0,0.9321019,0.0,0.0,0.36219606,0.0,0.0,-0.0,1,0,0,0,0,0
100123468,0.0,0.0,0.7410457,0.0,0.93213814,0.0,0.0,0.36210287,0.0,0.0,-0.0,1,0,0,0,0,0
100223509,0.0,0.0,0.7408979,0.0,0.9321649,0.0,0.0,0.36203396,0.0,0.0,-0.0,1,0,0,0,0,0
100323613,0.0,0.0,0.7407358,0.0,0.93219423,0.0,0.0,0.3619584,0.0,0.0,-0.0,1,0,0,0,0,0
100423875,0.0,0.0,0.7405479,0.0,0.93222827,0.0,0.0,0.36187083,0.0,0.0,-0.0,1,0,0,0,0,0
100523952,0.0,0.0,0.7403042,0.0,0.9322723,0.0,0.0,0.36175722,0.0,0.0,-0.0,1,0,0,0,0,0
100624245,0.0,0.0,0.7400198,0.0,0.9323238,0.0,0.0,0.36162463,0.0,0.0,-0.0,1,0,0,0,0,0
100724331,0.0,0.0,0.73973596,0.0,0.9323751,0.0,0.0,0.36149237,0.0,0.0,-0.0,1,0,0,0,0,0
100824327,0.0,0.0,0.73945445,0.0,0.9324259,0.0,0.0,0.36136115,0.0,0.0,-0.0,1,0,0,0,0,0
100924361,0.0,0.0,0.7392084,0.0,0.9324704,0.0,0.0,0.3612464,0.0,0.0,-0.0,1,0,0,0,0,0
101044394,0.0,0.0,0.7389977,0.0,0.93250847,0.0,0.0,0.36114815,0.0,0.0,-0.0,1,0,0,0,0,0
101144439,0.0,0.0,0.73890823,0.0,0.9325246,0.0,0.0,0.36110646,0.0,0.0,-0.0,1,0,0,0,0,0
101244864,0.0,0.0,0.7388906,0.0,0.9325278,0.0,0.0,0.3610982,0.0,0.0,-0.0,1,0,0,0,0,0
101344790,0.0,0.0,0.7389029,0.0,0.9325256,0.0,0.0,0.361104,0.0,0.0,-0.0,1,0,0,0,0,0
101444899,0.0,0.0,0.7389346,0.0,0.93251985,0.0,0.0,0.36111873,0.0,0.0,-0.0,1,0,0,0,0,0
101545063,0.0,0.0,0.7389109,0.0,0.93252414,0.0,0.0,0.36110765,0.0,0.0,-0.0,1,0,0,0,0,0
101644996,0.0,0.0,0.73870635,0.0,0.9325611,0.0,0.0,0.36101228,0.0,0.0,-0.0,1,0,0,0,0,0
101745095,0.0,0.0,0.73851764,0.0,0.93259513,0.0,0.0,0.36092433,0.0,0.0,-0.0,1,0,0,0,0,0
101845137,0.0,0.0,0.73828083,0.0,0.9326378,0.0,0.0,0.36081392,0.0,0.0,-0.0,1,0,0,0,0,0
101945356,0.0,0.0,0.7380132,0.0,0.9326861,0.0,0.0,0.36068907,0.0,0.0,-0.0,1,0,0,0,0,0
102045535,0.0,0.0,0.7377327,0.0,0.9327367,0.0,0.0,0.36055824,0.0,0.0,-0.0,1,0,0,0,0,0
102145594,0.0,0.0,0.7374454,0.0,0.9327885,0.0,0.0,0.36042428,0.0,0.0,-0.0,1,0,0,0,0,0
102245664,0.0,0.0,0.73707587,0.0,0.93285507,0.0,0.0,0.3602519,0.0,0.0,-0.0,1,0,0,0,0,0
102365699,0.0,0.0,0.7365874,0.0,0.932943,0.0,0.0,0.3600241,0.0,0.0,-0.0,1,0,0,0,0,0
102465806,0.0,0.0,0.7362224,0.0,0.9330087,0.0,0.0,0.35985383,0.0,0.0,-0.0,1,0,0,0,0,0
102565861,0.0,0.0,0.7359473,0.0,0.9330582,0.0,0.0,0.3597255,0.0,0.0,-0.0,1,0,0,0,0,0
102665950,0.0,0.0,0.7357216,0.0,0.9330988,0.0,0.0,0.35962012,0.0,0.0,-0.0,1,0,0,0,0,0
102766169,0.0,0.0,0.7354624,0.0,0.9331454,0.0,0.0,0.35949925,0.0,0.0,-0.0,1,0,0,0,0,0
102866701,0.0,0.0,0.73519945,0.0,0.9331927,0.0,0.0,0.35937655,0.0,0.0,-0.0,1,0,0,0,0,0
102966418,0.0,0.0,0.7349485,0.0,0.93323773,0.0,0.0,0.35925946,0.0,0.0,-0.0,1,0,0,0,0,0
103067280,0.0,0.0,0.73477054,0.0,0.9332697,0.0,0.0,0.35917643,0.0,0.0,-0.0,1,0,0,0,0,0
103166513,0.0,0.0,0.73459935,0.0,0.93330044,0.0,0.0,0.35909656,0.0,0.0,-0.0,1,0,0,0,0,0
103266677,0.0,0.0,0.73443127,0.0,0.9333306,0.0,0.0,0.35901812,0.0,0.0,-0.0,1,0,0,0,0,0
103366695,0.0,0.0,0.73431015,0.0,0.93335235,0.0,0.0,0.35896155,0.0,0.0,-0.0,1,0,0,0,0,0
103466764,0.0,0.0,0.73412377,0.0,0.9333858,0.0,0.0,0.3588746,0.0,0.0,-0.0,1,0,0,0,0,0
103566934,0.0,0.0,0.73394424,0.0,0.933418,0.0,0.0,0.35879079,0.0,0.0,-0.0,1,0,0,0,0,0
103687176,0.0,0.0,0.73368293,0.0,0.9334649,0.0,0.0,0.35866886,0.0,0.0,-0.0,1,0,0,0,0,0
103787207,0.0,0.0,0.7334064,0.0,0.9335145,0.0,0.0,0.3585398,0.0,0.0,-0.0,1,0,0,0,0,0
103887304,0.0,0.0,0.73317313,0.0,0.93355626,0.0,0.0,0.3584309,0.0,0.0,-0.0,1,0,0,0,0,0
103987334,0.0,0.0,0.73300505,0.0,0.9335864,0.0,0.0,0.35835245,0.0,0.0,-0.0,1,0,0,0,0,0
104087398,0.0,0.0,0.7328529,0.0,0.93361366,0.0,0.0,0.3582814,0.0,0.0,-0.0,1,0,0,0,0,0
104187496,0.0,0.0,0.7326873,0.0,0.9336433,0.0,0.0,0.35820413,0.0,0.0,-0.0,1,0,0,0,0,0
104287606,0.0,0.0,0.73255855,0.0,0.93366635,0.0,0.0,0.35814402,0.0,0.0,-0.0,1,0,0,0,0,0
104387734,0.0,0.0,0.7323992,0.0,0.9336949,0.0,0.0,0.35806963,0.0,0.0,-0.0,1,0,0,0,0,0
104488162,0.0,0.0,0.7322375,0.0,0.93372387,0.0,0.0,0.35799414,0.0,0.0,-0.0,1,0,0,0,0,0
104588212,0.0,0.0,0.7321143,0.0,0.93374586,0.0,0.0,0.35793662,0.0,0.0,-0.0,1,0,0,0,0,0
104688215,0.0,0.0,0.73204756,0.0,0.93375784,0.0,0.0,0.35790545,0.0,0.0,-0.0,1,0,0,0,0,0
104788263,0.0,0.0,0.7318847,0.0,0.933787,0.0,0.0,0.35782942,0.0,0.0,-0.0,1,0,0,0,0,0
104888348,0.0,0.0,0.7317161,0.0,0.93381715,0.0,0.0,0.3577507,0.0,0.0,-0.0,1,0,0,0,0,0
104988352,0.0,0.0,0.7315752,0.0,0.9338423,0.0,0.0,0.35768494,0.0,0.0,-0.0,1,0,0,0,0,0
105108405,0.0,0.0,0.7313973,0.0,0.9338742,0.0,0.0,0.35760182,0.0,0.0,-0.0,1,0,0,0,0,0
105208883,0.0,0.0,0.7312229,0.0,0.9339053,0.0,0.0,0.35752043,0.0,0.0,-0.0,1,0,0,0,0,0
105308755,0.0,0.0,0.73118025,0.0,0.933913,0.0,0.0,0.3575005,0.0,0.0,-0.0,1,0,0,0,0,0
105408832,0.0,0.0,0.73108417,0.0,0.93393016,0.0,0.0,0.3574556,0.0,0.0,-0.0,1,0,0,0,0,0
105508913,0.0,0.0,0.73096097,0.0,0.93395215,0.0,0.0,0.3573981,0.0,0.0,-0.0,1,0,0,0,0,0
105608970,0.0,0.0,0.7308588,0.0,0.9339704,0.0,0.0,0.3573504,0.0,0.0,-0.0,1,0,0,0,0,0
105709001,0.0,0.0,0.7307593,0.0,0.93398815,0.0,0.0,0.35730395,0.0,0.0,-0.0,1,0,0,0,0,0
105809096,0.0,0.0,0.7306665,0.0,0.9340047,0.0,0.0,0.3572606,0.0,0.0,-0.0,1,0,0,0,0,0
105909265,0.0,0.0,0.7305565,0.0,0.9340244,0.0,0.0,0.35720918,0.0,0.0,-0.0,1,0,0,0,0,0
106009415,0.0,0.0,0.7305263,0.0,0.93402976,0.0,0.0,0.35719514,0.0,0.0,-0.0,1,0,0,0,0,0
106109568,0.0,0.0,0.73045236,0.0,0.934043,0.0,0.0,0.35716057,0.0,0.0,-0.0,1,0,0,0,0,0
106210541,0.0,0.0,0.73033506,0.0,0.934064,0.0,0.0,0.35710576,0.0,0.0,-0.0,1,0,0,0,0,0
106309694,0.0,0.0,0.7301807,0.0,0.9340915,0.0,0.0,0.3570337,0.0,0.0,-0.0,1,0,0,0,0,0
106409724,0.0,0.0,0.73002744,0.0,0.93411887,0.0,0.0,0.3569621,0.0,0.0,-0.0,1,0,0,0,0,0
107631121,0.0,0.0,0.72794,0.0,0.9344909,0.0,0.0,0.35598695,0.0,0.0,-0.0,1,0,0,0,0,0
107731206,0.0,0.0,0.72774965,0.0,0.93452483,0.0,0.0,0.355898,0.0,0.0,-0.0,1,0,0,0,0,0
107851274,0.0,0.0,0.72748315,0.0,0.9345722,0.0,0.0,0.3557735,0.0,0.0,-0.0,1,0,0,0,0,0
107951325,0.0,0.0,0.72725445,0.0,0.93461293,0.0,0.0,0.3556666,0.0,0.0,-0.0,1,0,0,0,0,0
108051375,0.0,0.0,0.7269642,0.0,0.9346645,0.0,0.0,0.35553098,0.0,0.0,-0.0,1,0,0,0,0,0
108151440,0.0,0.0,0.72673625,0.0,0.934705,0.0,0.0,0.35542446,0.0,0.0,-0.0,1,0,0,0,0,0
108251557,0.0,0.0,0.7265469,0.0,0.9347387,0.0,0.0,0.35533592,0.0,0.0,-0.0,1,0,0,0,0,0
108351647,0.0,-0.0,0.72650915,-0.0,0.9347454,0.0,-0.0,0.35531828,0.0,0.0,-0.12,1,0,0,0,0,0
108452139,0.0,-0.0,0.72650915,0.0,0.9347454,0.0,-0.0,0.35531828,0.0,0.0,-0.12,1,0,0,0,0,0
108552212,0.0,-0.0,0.72650915,0.0,0.9347454,0.0,-0.0,0.35531828,0.0,0.0,-0.12,1,0,0,0,0,0
108652367,0.0,-0.0,0.72650915,0.0,0.9347454,0.0,-0.0,0.35531828,0.0,0.0,-0.1421721,1,0,0,0,0,0
108752346,0.0,-0.0,0.72650915,-0.0,0.9347454,0.0,-0.0,0.35531825,0.0,0.0,-0.17654699,1,0,0,0,0,0
108852351,0.0,-0.0,0.72650915,-0.0,0.9347454,0.0,-0.0,0.35531825,0.0,0.0,-0.20998889,1,0,0,0,0,0
108952341,0.0,-0.0,0.72650915,-0.0,0.9347454,0.0,-0.0,0.35531825,0.0,0.0,-0.24387467,1,0,0,0,0,0
109052424,0.0,-0.0,0.72650915,0.0,0.9347454,0.0,-0.0,0.35531828,0.0,0.0,-0.27836406,1,0,0,0,0,0
109153217,0.0,-0.0,0.72650915,0.0,0.9347454,0.0,-0.0,0.35531828,0.0,0.0,-0.3116945,1,0,0,0,0,0
109272783,0.0,-0.0,0.72650915,0.0,0.9347454,0.0,-0.0,0.35531828,0.0,0.0,-0.3499245,1,0,0,0,0,0
109372882,0.0,-0.0,0.72650915,0.0,0.9347454,0.0,-0.0,0.35531825,0.0,0.0,-0.38693407,1,0,0,0,0,0
109472946,0.0,-0.0,0.72650915,0.0,0.9347454,0.0,-0.0,0.35531828,0.0,0.0,-0.41986746,1,0,0,0,0,0
109573003,0.0,-0.0,0.72650915,0.0,0.9347454,0.0,-0.0,0.35531828,0.0,0.0,-0.4296304,1,0,0,0,0,0
109673067,0.0,-0.0,0.72650915,0.0,0.9347454,0.0,-0.0,0.35531828,0.0,0.0,-0.3753716,1,0,0,0,0,0
109773099,0.0,-0.0,0.72650915,0.0,0.9347454,0.0,-0.0,0.35531828,0.0,0.0,-0.38158274,1,0,0,0,0,0
109873158,0.0,-0.0,0.72650915,0.0,0.9347454,0.0,-0.0,0.35531828,0.0,0.0,-0.42999494,1,0,0,0,0,0
109973369,0.0,-0.0,0.72650915,0.0,0.9347454,0.0,-0.0,0.35531828,0.0,0.0,-0.46988893,1,0,0,0,0,0
110073491,0.0,-0.0,0.72650915,0.0,0.9347454,0.0,-0.0,0.35531828,0.0,0.0,-0.4633663,1,0,0,0,0,0
110173580,0.0,-0.0,0.72650915,0.0,0.9347454,0.0,-0.0,0.35531828,0.0,0.0,-0.46062744,1,0,0,0,0,0
110273731,0.0,-0.0,0.72650915,0.0,0.9347454,0.0,-0.0,0.35531825,0.0,0.0,-0.45946303,1,0,0,0,0,0
110373787,0.0,-0.0,0.72650915,0.0,0.9347454,0.0,-0.0,0.35531828,0.0,0.0,-0.45791465,1,0,0,0,0,0
110473918,0.0,-0.0,0.72650915,0.0,0.9347454,0.0,-0.0,0.35531828,0.0,0.0,-0.44366434,1,0,0,0,0,0
110573981,0.0,-0.0,0.72650915,0.0,0.9347454,0.0,-0.0,0.35531825,0.0,0.0,-0.4459195,1,0,0,0,0,0
110694020,0.0,-0.0,0.72650915,0.0,0.9347454,0.0,-0.0,0.35531828,0.0,0.0,-0.4495021,1,0,0,0,0,0
110794418,0.0,-0.0,0.72650915,0.0,0.9347454,0.0,-0.0,0.35531825,0.0,0.0,-0.4269308,1,0,0,0,0,0
110895211,0.0,-0.0,0.72650915,0.0,0.9347454,0.0,-0.0,0.35531828,0.0,0.0,-0.48756817,1,0,0,0,0,0
110994461,0.0,-0.0,0.72650915,0.0,0.9347454,0.0,-0.0,0.35531825,0.0,0.0,-0.4768346,1,0,0,0,0,0
111094764,0.0,-0.0,0.72650915,0.0,0.9347454,0.0,-0.0,0.35531828,0.0,0.0,-0.47641423,1,0,0,0,0,0
111194574,0.0,-0.0,0.72650915,0.0,0.9347454,0.0,-0.0,0.35531828,0.0,0.0,-0.4936862,1,0,0,0,0,0
111294643,0.0,-0.0,0.72650915,0.0,0.9347454,0.0,-0.0,0.35531828,0.0,0.0,-0.47461915,1,0,0,0,0,0
111394687,0.0,-0.0,0.72650915,0.0,0.9347454,0.0,-0.0,0.35531828,0.0,0.0,-0.43849975,1,0,0,0,0,0
111494816,0.0,-0.0,0.72650915,0.0,0.9347454,0.0,-0.0,0.35531828,0.0,0.0,-0.4471644,1,0,0,0,0,0
111594961,0.0,-0.0,0.72650915,0.0,0.9347454,0.0,-0.0,0.35531828,0.0,0.0,-0.44315553,1,0,0,0,0,0
111695151,0.0,-0.0,0.72650915,0.0,0.9347454,0.0,-0.0,0.35531828,0.0,0.0,-0.46046448,1,0,0,0,0,0
111795267,0.0,-0.0,0.72650915,0.0,0.9347454,0.0,-0.0,0.35531825,0.0,0.0,-0.46547917,1,0,0,0,0,0
111915336,0.0,-0.0,0.72650915,0.0,0.9347454,0.0,-0.0,0.35531828,0.0,0.0,-0.46711415,1,0,0,0,0,0
112015333,0.0,-0.0,0.72650915,0.0,0.9347454,0.0,-0.0,0.35531825,0.0,0.0,-0.46708828,1,0,0,0,0,0
112115450,0.0,-0.0,0.72650915,0.0,0.9347454,0.0,-0.0,0.35531828,0.0,0.0,-0.51754916,1,0,0,0,0,0
112215508,0.0,-0.0,0.72650915,0.0,0.9347454,0.0,-0.0,0.35531828,0.0,0.0,-0.52807444,1,0,0,0,0,0
112315598,0.0,-0.0,0.72650915,0.0,0.9347454,0.0,-0.0,0.35531828,0.0,0.0,-0.48733667,1,0,0,0,0,0
112415751,0.0,-0.0,0.72650915,0.0,0.9347454,0.0,-0.0,0.35531828,0.0,0.0,-0.46772352,1,0,0,0,0,0
112516150,0.0,-0.0,0.72650915,0.0,0.9347454,0.0,-0.0,0.35531828,0.0,0.0,-0.4918511,1,0,0,0,0,0
112616237,0.0,-0.0,0.72650915,0.0,0.9347454,0.0,-0.0,0.35531828,0.0,0.0,-0.4902155,1,0,0,0,0,0
112716317,0.0,-0.0,0.72650915,0.0,0.9347454,0.0,-0.0,0.35531828,0.0,0.0,-0.48254606,1,0,0,0,0,0
112816179,0.0,-0.0,0.72650915,0.0,0.9347454,0.0,-0.0,0.35531828,0.0,0.0,-0.49854162,1,0,0,0,0,0
112916771,0.0,-0.0,0.72650915,0.0,0.9347454,0.0,-0.0,0.35531828,0.0,0.0,-0.52773255,1,0,0,0,0,0
113036909,0.0,-0.0,0.72650915,0.0,0.9347454,0.0,-0.0,0.35531828,0.0,0.0,-0.5009793,1,0,0,0,0,0
113136434,0.0,-0.0,0.72650915,0.0,0.9347454,0.0,-0.0,0.35531828,0.0,0.0,-0.49381053,1,0,0,0,0,0
113236805,0.0,-0.0,0.72650915,0.0,0.9347454,0.0,-0.0,0.35531828,0.0,0.0,-0.48208308,1,0,0,0,0,0
113336773,0.0,-0.0,0.72650915,0.0,0.9347454,0.0,-0.0,0.35531828,0.0,0.0,-0.4765014,1,0,0,0,0,0
113436817,0.0,-0.0,0.72650915,0.0,0.9347454,0.0,-0.0,0.35531828,0.0,0.0,-0.4818661,1,0,0,0,0,0
113536882,0.0,-0.0,0.72650915,0.0,0.9347454,0.0,-0.0,0.35531825,0.0,0.0,-0.47809127,1,0,0,0,0,0
113636963,0.0,-0.0,0.72650915,0.0,0.9347454,0.0,-0.0,0.35531828,0.0,0.0,-0.4778833,1,0,0,0,0,0
113737028,0.0,-0.0,0.72650915,0.0,0.9347454,0.0,-0.0,0.35531828,0.0,0.0,-0.48280385,1,0,0,0,0,0
113837125,0.0,-0.0,0.72650915,0.0,0.9347454,0.0,-0.0,0.35531828,0.0,0.0,-0.5124164,1,0,0,0,0,0
113937265,0.0,-0.0,0.72650915,0.0,0.9347454,0.0,-0.0,0.35531828,0.0,0.0,-0.5377527,1,0,0,0,0,0
114037416,0.0,-0.0,0.72650915,0.0,0.9347454,0.0,-0.0,0.35531828,0.0,0.0,-0.5444481,1,0,0,0,0,0
114137567,0.0,-0.0,0.72650915,0.0,0.9347454,0.0,-0.0,0.35531828,0.0,0.0,-0.49424937,1,0,0,0,0,0
114237842,0.0,-0.0,0.72650915,0.0,0.9347454,0.0,-0.0,0.35531825,0.0,0.0,-0.4961556,1,0,0,0,0,0
114357962,0.0,-0.0,0.72650915,0.0,0.9347454,0.0,-0.0,0.35531828,0.0,0.0,-0.4280458,1,0,0,0,0,0
114457946,0.0,-0.0,0.72650915,0.0,0.9347454,0.0,-0.0,0.35531825,0.0,0.0,-0.3878409,1,0,0,0,0,0
114557991,0.0,-0.0,0.72650915,0.0,0.9347454,0.0,-0.0,0.35531828,0.0,0.0,-0.4572028,1,0,0,0,0,0
114657989,0.0,-0.0,0.72650915,0.0,0.9347454,0.0,-0.0,0.35531828,0.0,0.0,-0.51048917,1,0,0,0,0,0
114758628,0.0,-0.0,0.72650915,0.0,0.9347454,0.0,-0.0,0.35531828,0.0,0.0,-0.52492636,1,0,0,0,0,0
114858348,0.0,-0.0,0.72650915,0.0,0.9347454,0.0,-0.0,0.35531828,0.0,0.0,-0.5102321,1,0,0,0,0,0
114958696,0.0,-0.0,0.72650915,0.0,0.9347454,0.0,-0.0,0.35531825,0.0,0.0,-0.4941039,1,0,0,0,0,0
115058479,0.0,-0.0,0.72650915,0.0,0.9347454,0.0,-0.0,0.35531828,0.0,0.0,-0.49524254,1,0,0,0,0,0
115178711,0.0,-0.0,0.72650915,0.0,0.9347454,0.0,-0.0,0.35531828,0.0,0.0,-0.508161,1,0,0,0,0,0
115278575,0.0,-0.0,0.72650915,0.0,0.9347454,0.0,-0.0,0.35531828,0.0,0.0,-0.5031981,1,0,0,0,0,0
115378696,0.0,-0.0,0.72650915,0.0,0.9347454,0.0,-0.0,0.35531828,0.0,0.0,-0.49768147,1,0,0,0,0,0
115478793,0.0,-0.0,0.72650915,0.0,0.9347454,0.0,-0.0,0.35531828,0.0,0.0,-0.4921305,1,0,0,0,0,0
115578941,0.0,-0.0,0.72650915,0.0,0.9347454,0.0,-0.0,0.35531828,0.0,0.0,-0.5044794,1,0,0,0,0,0
115679264,0.0,-0.0,0.72650915,0.0,0.9347454,0.0,-0.0,0.35531828,0.0,0.0,-0.5077363,1,0,0,0,0,0
115779262,0.0,-0.0,0.72650915,0.0,0.9347454,0.0,-0.0,0.35531828,0.0,0.0,-0.5101486,1,0,0,0,0,0
115879625,0.0,-0.0,0.72650915,0.0,0.9347454,0.0,-0.0,0.35531828,0.0,0.0,-0.51485735,1,0,0,0,0,0
115979452,0.0,-0.0,0.72650915,0.0,0.9347454,0.0,-0.0,0.35531828,0.0,0.0,-0.50277317,1,0,0,0,0,0
116079487,0.0,-0.0,0.72650915,0.0,0.9347454,0.0,-0.0,0.35531825,0.0,0.0,-0.4917821,1,0,0,0,0,0
116179499,0.0,-0.0,0.72650915,0.0,0.9347454,0.0,-0.0,0.35531825,0.0,0.0,-0.49082357,1,0,0,0,0,0
116279612,0.0,-0.0,0.72650915,0.0,0.9347454,0.0,-0.0,0.35531828,0.0,0.0,-0.493107,1,0,0,0,0,0
116379736,0.0,-0.0,0.72650915,0.0,0.9347454,0.0,-0.0,0.35531828,0.0,0.0,-0.49484697,1,0,0,0,0,0
116499915,0.0,-0.0,0.72650915,0.0,0.9347454,0.0,-0.0,0.35531828,0.0,0.0,-0.50218344,1,0,0,0,0,0
116600309,0.0,-0.0,0.72650915,0.0,0.9347454,0.0,-0.0,0.35531828,0.0,0.0,-0.50647706,1,0,0,0,0,0
116700143,0.0,-0.0,0.72650915,0.0,0.9347454,0.0,-0.0,0.35531828,0.0,0.0,-0.5061592,1,0,0,0,0,0
116800372,0.0,-0.0,0.72650915,0.0,0.9347454,0.0,-0.0,0.35531828,0.0,0.0,-0.5069716,1,0,0,0,0,0
116900236,0.0,-0.0,0.72650915,0.0,0.9347454,0.0,-0.0,0.35531828,0.0,0.0,-0.5000475,1,0,0,0,0,0
117000557,0.0,-0.0,0.72650915,0.0,0.9347454,0.0,-0.0,0.35531828,0.0,0.0,-0.49567363,1,0,0,0,0,0
117100380,0.0,-0.0,0.72650915,0.0,0.9347454,0.0,-0.0,0.35531828,0.0,0.0,-0.5016698,1,0,0,0,0,0
117201201,0.0,-0.0,0.72650915,0.0,0.9347454,0.0,-0.0,0.35531828,0.0,0.0,-0.5030898,1,0,0,0,0,0
117300982,0.0,-0.0,0.72650915,0.0,0.9347454,0.0,-0.0,0.35531828,0.0,0.0,-0.5027451,1,0,0,0,0,0
117400821,0.0,-0.0,0.72650915,0.0,0.9347454,0.0,-0.0,0.35531828,0.0,0.0,-0.49717334,1,0,0,0,0,0
117500908,0.0,-0.0,0.72650915,0.0,0.9347454,0.0,-0.0,0.35531828,0.0,0.0,-0.49995634,1,0,0,0,0,0
117600971,0.0,-0.0,0.72650915,0.0,0.9347454,0.0,-0.0,0.35531828,0.0,0.0,-0.5146429,1,0,0,0,0,0
117700999,0.0,-0.0,0.72650915,0.0,0.9347454,0.0,-0.0,0.35531828,0.0,0.0,-0.51833004,1,0,0,0,0,0
117821143,0.0,-0.0,0.72650915,0.0,0.9347454,0.0,-0.0,0.35531828,0.0,0.0,-0.5112521,1,0,0,0,0,0
117921211,0.0,-0.0,0.72650915,0.0,0.9347454,0.0,-0.0,0.35531828,0.0,0.0,-0.49401715,1,0,0,0,0,0
118021374,0.0,-0.0,0.72650915,0.0,0.9347454,0.0,-0.0,0.35531828,0.0,0.0,-0.48700806,1,0,0,0,0,0
118121768,0.0,-0.0,0.72650915,0.0,0.9347454,0.0,-0.0,0.35531828,0.0,0.0,-0.50231683,1,0,0,0,0,0
118221815,0.0,-0.0,0.72650915,0.0,0.9347454,0.0,-0.0,0.35531828,0.0,0.0,-0.51350665,1,0,0,0,0,0
118321921,0.0,-0.0,0.72650915,0.0,0.9347454,0.0,-0.0,0.35531828,0.0,0.0,-0.51024884,1,0,0,0,0,0
118421946,0.0,-0.0,0.72650915,0.0,0.9347454,0.0,-0.0,0.35531828,0.0,0.0,-0.5065972,1,0,0,0,0,0
118521907,0.0,-0.0,0.72650915,0.0,0.9347454,0.0,-0.0,0.35531825,0.0,0.0,-0.49591887,1,0,0,0,0,0
118621963,0.0,-0.0,0.72650915,0.0,0.9347454,0.0,-0.0,0.35531825,0.0,0.0,-0.49116153,1,0,0,0,0,0
118722050,0.0,-0.0,0.72650915,0.0,0.9347454,0.0,-0.0,0.35531828,0.0,0.0,-0.5036901,1,0,0,0,0,0
118842208,0.0,-0.0,0.72650915,0.0,0.9347454,0.0,-0.0,0.35531828,0.0,0.0,-0.5172642,1,0,0,0,0,0
118942421,0.0,-0.0,0.72650915,0.0,0.9347454,0.0,-0.0,0.35531828,0.0,0.0,-0.5024836,1,0,0,0,0,0
119042684,0.0,-0.0,0.72650915,0.0,0.9347454,0.0,-0.0,0.35531828,0.0,0.0,-0.4931272,1,0,0,0,0,0
119142534,0.0,-0.0,0.72650915,0.0,0.9347454,0.0,-0.0,0.35531828,0.0,0.0,-0.49916598,1,0,0,0,0,0
119242585,0.0,-0.0,0.72650915,0.0,0.9347454,0.0,-0.0,0.35531825,0.0,0.0,-0.49825272,1,0,0,0,0,0
119342656,0.0,-0.0,0.72650915,0.0,0.9347454,0.0,-0.0,0.35531825,0.0,0.0,-0.49517298,1,0,0,0,0,0
119442746,0.0,-0.0,0.72650915,0.0,0.9347454,0.0,-0.0,0.35531828,0.0,0.0,-0.4965735,1,0,0,0,0,0
119542967,0.0,-0.0,0.72650915,0.0,0.9347454,0.0,-0.0,0.35531828,0.0,0.0,-0.50310445,1,0,0,0,0,0
119643113,0.0,-0.0,0.72650915,0.0,0.9347454,0.0,-0.0,0.35531828,0.0,0.0,-0.50342834,1,0,0,0,0,0
119743166,0.0,-0.0,0.72650915,0.0,0.9347454,0.0,-0.0,0.35531828,0.0,0.0,-0.50716984,1,0,0,0,0,0
119843244,0.0,-0.0,0.72650915,0.0,0.9347454,0.0,-0.0,0.35531828,0.0,0.0,-0.50666136,1,0,0,0,0,0
119943331,0.0,-0.0,0.72650915,0.0,0.9347454,0.0,-0.0,0.35531828,0.0,0.0,-0.50563836,1,0,0,0,0,0
120043353,0.0,-0.0,0.72650915,0.0,0.9347454,0.0,-0.0,0.35531828,0.0,0.0,-0.5011517,1,0,0,0,0,0
120143413,0.0,-0.0,0.72650915,0.0,0.9347454,0.0,-0.0,0.35531828,0.0,0.0,-0.50524575,1,0,0,0,0,0
120243561,0.0,-0.0,0.72650915,0.0,0.9347454,0.0,-0.0,0.35531828,0.0,0.0,-0.50041044,1,0,0,0,0,0
120363645,0.0,-0.0,0.72650915,0.0,0.9347454,0.0,-0.0,0.35531828,0.0,0.0,-0.50433224,1,0,0,0,0,0
120464858,0.0,-0.0,0.72650915,0.0,0.9347454,0.0,-0.0,0.35531828,0.0,0.0,-0.5052192,1,0,0,0,0,0
120564046,0.0,-0.0,0.72650915,0.0,0.9347454,0.0,-0.0,0.35531828,0.0,0.0,-0.5038981,1,0,0,0,0,0
120664748,0.0,-0.0,0.72650915,0.0,0.9347454,0.0,-0.0,0.35531828,0.0,0.0,-0.5005438,1,0,0,0,0,0
120764169,0.0,-0.0,0.72650915,0.0,0.9347454,0.0,-0.0,0.35531828,0.0,0.0,-0.5002007,1,0,0,0,0,0
120864953,0.0,-0.0,0.72650915,0.0,0.9347454,0.0,-0.0,0.35531828,0.0,0.0,-0.49412104,1,0,0,0,0,0
120964241,0.0,-0.0,0.72650915,0.0,0.9347454,0.0,-0.0,0.35531828,0.0,0.0,-0.49374446,1,0,0,0,0,0
121064405,0.0,-0.0,0.72650915,0.0,0.9347454,0.0,-0.0,0.35531828,0.0,0.0,-0.50236,1,0,0,0,0,0
121164528,0.0,-0.0,0.72650915,0.0,0.9347454,0.0,-0.0,0.35531828,0.0,0.0,-0.5078103,1,0,0,0,0,0
121264610,0.0,-0.0,0.72650915,0.0,0.9347454,0.0,-0.0,0.35531828,0.0,0.0,-0.5015007,1,0,0,0,0,0
121364807,0.0,-0.0,0.72650915,0.0,0.9347454,0.0,-0.0,0.35531828,0.0,0.0,-0.5023469,1,0,0,0,0,0
121464871,0.0,-0.0,0.72650915,0.0,0.9347454,0.0,-0.0,0.35531828,0.0,0.0,-0.49435005,1,0,0,0,0,0
121564929,0.0,-0.0,0.72650915,0.0,0.9347454,0.0,-0.0,0.35531828,0.0,0.0,-0.49542215,1,0,0,0,0,0
121665016,0.0,-0.0,0.72650915,0.0,0.9347454,0.0,-0.0,0.35531828,0.0,0.0,-0.50065476,1,0,0,0,0,0
121785058,0.0,-0.0,0.72650915,0.0,0.9347454,0.0,-0.0,0.35531828,0.0,0.0,-0.50151575,1,0,0,0,0,0
121885166,0.0,-0.0,0.72650915,0.0,0.9347454,0.0,-0.0,0.35531828,0.0,0.0,-0.51267105,1,0,0,0,0,0
121985386,0.0,-0.0,0.72650915,0.0,0.9347454,0.0,-0.0,0.35531828,0.0,0.0,-0.5060293,1,0,0,0,0,0
122085704,0.0,-0.0,0.72650915,0.0,0.9347454,0.0,-0.0,0.35531825,0.0,0.0,-0.4989441,1,0,0,0,0,0
122185846,0.0,-0.0,0.72650915,0.0,0.9347454,0.0,-0.0,0.35531828,0.0,0.0,-0.49070346,1,0,0,0,0,0
122285974,0.0,-0.0,0.72650915,0.0,0.9347454,0.0,-0.0,0.35531828,0.0,0.0,-0.49086654,1,0,0,0,0,0
122385936,0.0,-0.0,0.72650915,0.0,0.9347454,0.0,-0.0,0.35531828,0.0,0.0,-0.49282715,1,0,0,0,0,0
122485897,0.0,-0.0,0.72650915,0.0,0.9347454,0.0,-0.0,0.35531828,0.0,0.0,-0.49514183,1,0,0,0,0,0
122585949,0.0,-0.0,0.72650915,0.0,0.9347454,0.0,-0.0,0.35531828,0.0,0.0,-0.49742794,1,0,0,0,0,0
122685969,0.0,-0.0,0.72650915,0.0,0.9347454,0.0,-0.0,0.35531828,0.0,0.0,-0.5042756,1,0,0,0,0,0
122786112,0.0,-0.0,0.72650915,0.0,0.9347454,0.0,-0.0,0.35531828,0.0,0.0,-0.50626725,1,0,0,0,0,0
122886316,0.0,-0.0,0.72650915,0.0,0.9347454,0.0,-0.0,0.35531828,0.0,0.0,-0.50252795,1,0,0,0,0,0
122986432,0.0,-0.0,0.72650915,0.0,0.9347454,0.0,-0.0,0.35531828,0.0,0.0,-0.5037665,1,0,0,0,0,0
123086524,0.0,-0.0,0.72650915,0.0,0.9347454,0.0,-0.0,0.35531828,0.0,0.0,-0.5042637,1,0,0,0,0,0
123206661,0.0,-0.0,0.72650915,0.0,0.9347454,0.0,-0.0,0.35531828,0.0,0.0,-0.50112885,1,0,0,0,0,0
123306617,0.0,-0.0,0.72650915,0.0,0.9347454,0.0,-0.0,0.35531828,0.0,0.0,-0.50005233,1,0,0,0,0,0
123406678,3.629915e-10,-0.008193048,0.72650915,0.0,0.9347375,0.0014555661,-0.0038291963,0.35531533,0.0,0.0,-0.5010908,1,0,0,0,0,0
123506836,-1.7641215e-09,-0.032643918,0.72650915,0.0,0.93462086,0.005799232,-0.015256198,0.35527095,0.0,0.0,-0.4938453,1,0,0,0,0,0
123606935,1.5340429e-09,-0.07104914,0.72650915,0.0,0.93415564,0.012619875,-0.03319944,0.35509416,0.0,0.0,-0.49929512,1,0,0,0,0,0
123707140,2.084845e-09,-0.0878482,0.72650915,0.0,0.9338438,0.015602019,-0.041044645,0.35497558,0.0,0.0,-0.50516564,1,0,0,0,0,0
123807225,-3.1080687e-09,-0.09617919,0.72650915,0.0,0.93366474,0.017080525,-0.044934195,0.3549075,0.0,0.0,-0.5077305,1,0,0,0,0,0
123907295,1.3857822e-09,-0.09304163,0.72650915,0.0,0.93373406,0.016523734,-0.04346943,0.3549339,0.0,0.0,-0.5092486,1,0,0,0,0,0
124007487,1.6732647e-09,-0.07789499,0.72650915,0.0,0.9340365,0.013835261,-0.036396787,0.35504884,0.0,0.0,-0.4999011,1,0,0,0,0,0
124107440,1.371762e-09,-0.04755888,0.72650915,0.0,0.93448114,0.008448474,-0.022225628,0.35521787,0.0,0.0,-0.49108842,1,0,0,0,0,0
124227544,8.998865e-12,0.00036050717,0.72650915,0.0,0.9347454,-6.404739e-05,0.0001684912,0.35531828,0.0,0.0,-0.50405854,1,0,0,0,0,0
124327598,-2.684165e-13,8.017643e-06,0.72650915,0.0,0.9347454,-1.424408e-06,3.7472275e-06,0.35531828,0.0,0.0,-0.5078609,1,0,0,0,0,0
124428049,3.2562665e-16,-6.8584765e-09,0.72650915,0.0,0.9347454,1.2184712e-09,-3.2054643e-09,0.35531828,0.0,0.0,-0.50810254,1,0,0,0,0,0
124528291,-2.1054195e-17,-2.991981e-09,0.72650915,0.0,0.9347454,5.315528e-10,-1.3983703e-09,0.35531828,0.0,0.0,-0.5077348,1,0,0,0,0,0
124628020,7.661467e-19,-1.4661115e-10,0.72650915,0.0,0.9347454,2.6046814e-11,-6.852205e-11,0.35531828,0.0,0.0,-0.5127756,1,0,0,0,0,0
124728277,1.8181384e-10,0.008412913,0.72650915,0.0,0.9347371,-0.0014946264,0.003931954,0.35531518,0.0,0.0,-0.4993671,1,0,0,0,0,0
124828127,-4.6716436e-11,0.046367984,0.72650915,0.0,0.93449414,-0.008236959,0.021669187,0.35522282,0.0,0.0,-0.50298285,1,0,0,0,0,0
124928200,-4.053717e-10,0.078456655,0.72650915,0.0,0.93402624,-0.013934967,0.03665909,0.355045,0.0,0.0,-0.5032054,1,0,0,0,0,0
125028332,3.466872e-09,0.09931118,0.72650915,0.0,0.93359315,-0.017636288,0.046396263,0.35488033,0.0,0.0,-0.50829154,1,0,0,0,0,0
125148424,3.6549779e-09,0.108024575,0.72650915,0.0,0.9333822,-0.019182224,0.050463192,0.35480013,0.0,0.0,-0.51706165,1,0,0,0,0,0
125248765,-3.118582e-09,0.10449188,0.72650915,0.0,0.9334699,-0.018555494,0.04881443,0.35483348,0.0,0.0,-0.512141,1,0,0,0,0,0
125348807,-2.625611e-09,0.1018222,0.72650915,0.0,0.93353426,-0.01808183,0.047568355,0.35485795,0.0,0.0,-0.5032221,1,0,0,0,0,0
125448874,-5.4316036e-09,0.100690134,0.72650915,0.0,0.933561,-0.017880969,0.047039937,0.35486808,0.0,0.0,-0.50027144,1,0,0,0,0,0
125549016,3.579093e-09,0.09869435,0.72650915,0.0,0.93360746,-0.017526835,0.04610832,0.3548858,0.0,0.0,-0.50453365,1,0,0,0,0,0
125648996,9.1102603e-10,0.09798586,0.72650915,0.0,0.93362373,-0.017401123,0.0457776,0.354892,0.0,0.0,-0.5062129,1,0,0,0,0,0
125749030,-2.0475999e-09,0.095987685,0.72650915,0.0,0.93366903,-0.017046545,0.0448448,0.35490915,0.0,0.0,-0.5037494,1,0,0,0,0,0
125849130,2.6369518e-09,0.0929268,0.72650915,0.0,0.93373656,-0.016503356,0.043415826,0.35493487,0.0,0.0,-0.5021936,1,0,0,0,0,0
125949391,1.302652e-09,0.08860705,0.72650915,0.0,0.9338282,-0.015736705,0.04139897,0.35496968,0.0,0.0,-0.49581304,1,0,0,0,0,0
126049747,1.1381165e-08,0.103169896,0.72650915,0.0,0.93350196,-0.018320944,0.048197415,0.35484567,0.0,0.0,-0.492395,1,0,0,0,0,0
126149976,4.363853e-09,0.11283861,0.72650915,0.0,0.93325806,-0.020036174,0.052709706,0.354753,0.0,0.0,-0.49867898,1,0,0,0,0,0
126249711,1.0446971e-09,0.09777036,0.72650915,0.0,0.9336287,-0.017362881,0.045677,0.35489383,0.0,0.0,-0.50079936,1,0,0,0,0,0
126350508,-2.1992554e-09,0.09403972,0.72650915,0.0,0.93371224,-0.016700862,0.043935403,0.3549256,0.0,0.0,-0.5129063,1,0,0,0,0,0
126449771,6.2741354e-09,0.11939406,0.72650915,0.0,0.9330803,-0.021198845,0.055768378,0.35468537,0.0,0.0,-0.51396257,1,0,0,0,0,0
126569864,2.8184366e-09,0.14421411,0.72650915,0.0,0.93231636,-0.025598757,0.06734334,0.35439494,0.0,0.0,-0.5064241,1,0,0,0,0,0
126670845,-7.4073476e-09,0.14009155,0.72650915,0.0,0.93245316,-0.024868205,0.06542144,0.35444698,0.0,0.0,-0.49470937,1,0,0,0,0,0
126770040,3.4413674e-09,0.1289544,0.72650915,0.0,0.93280303,-0.022894058,0.060228013,0.35458004,0.0,0.0,-0.500043,1,0,0,0,0,0
126870303,-1.8102462e-09,0.10663551,0.72650915,0.0,0.9334171,-0.0189358,0.049814913,0.35481337,0.0,0.0,-0.49996093,1,0,0,0,0,0
126970369,1.5325202e-09,0.048290517,0.72650915,0.0,0.93447286,-0.008578418,0.022567475,0.3552147,0.0,0.0,-0.49489364,1,0,0,0,0,0
127070514,-9.2901753e-10,0.026983546,0.72650915,0.0,0.9346603,-0.0047937282,0.01261099,0.35528594,0.0,0.0,-0.4956963,1,0,0,0,0,0
127170527,-9.324626e-11,0.0018522947,0.72650915,0.0,0.93474495,-0.0003290771,0.00086571183,0.35531816,0.0,0.0,-0.5026189,1,0,0,0,0,0
127270595,9.999618e-13,2.7711005e-05,0.72650915,0.0,0.9347454,-4.923113e-06,1.2951366e-05,0.35531828,0.0,0.0,-0.50035965,1,0,0,0,0,0
127370637,-1.9007873e-14,-7.320807e-07,0.72650915,0.0,0.9347454,1.3006083e-07,-3.4215452e-07,0.35531828,0.0,0.0,-0.51023114,1,0,0,0,0,0
127470764,-4.8438574e-16,-1.936172e-08,0.72650915,0.0,0.9347454,3.439786e-09,-9.049138e-09,0.35531828,0.0,0.0,-0.51117563,1,0,0,0,0,0
127570931,2.230545e-18,-1.4526216e-10,0.72650915,0.0,0.9347454,2.5807152e-11,-6.789156e-11,0.35531828,0.0,0.0,-0.5100569,1,0,0,0,0,0
127671109,3.9937314e-20,5.16458e-12,0.72650915,0.0,0.9347454,-9.175349e-13,2.4137838e-12,0.35531828,0.0,0.0,-0.50663316,1,0,0,0,0,0
127771374,3.3255246e-23,4.3662394e-13,0.72650915,0.0,0.9347454,-7.7570234e-14,2.040661e-13,0.35531828,0.0,0.0,-0.4954423,1,0,0,0,0,0
127871578,1.9737276e-22,3.6890678e-15,0.72650915,0.0,0.9347454,-6.5539656e-16,1.7241696e-15,0.35531828,0.0,0.0,-0.48807043,1,0,0,0,0,0
127971551,-0.03602603,2.1838216e-09,0.72650915,0.0,0.93459374,-0.016836671,-0.006400006,0.35526067,0.0,0.0,-0.49417374,1,0,0,0,0,0
128091509,-0.10531719,-1.7915002e-09,0.72650915,0.0,0.9334497,-0.049199633,-0.018701917,0.35482576,0.0,0.0,-0.5082767,1,0,0,0,0,0
128191514,-0.108855926,-9.617954e-09,0.72650915,0.0,0.9333612,-0.05085117,-0.019329708,0.35479215,0.0,0.0,-0.50289947,1,0,0,0,0,0
128291729,-0.108860835,-2.2017983e-09,0.72650915,0.0,0.93336105,-0.050853457,-0.019330574,0.35479206,0.0,0.0,-0.4995438,1,0,0,0,0,0
128391748,-0.10694992,3.3356993e-09,0.72650915,0.0,0.9334092,-0.049961645,-0.018991577,0.35481036,0.0,0.0,-0.4924416,1,0,0,0,0,0
128491932,-0.101616055,-8.249694e-09,0.72650915,0.0,0.93353915,-0.047472138,-0.01804526,0.35485974,0.0,0.0,-0.4957839,1,0,0,0,0,0
128592217,-0.10655333,3.6468346e-09,0.72650915,0.0,0.93341905,-0.049776565,-0.01892122,0.35481414,0.0,0.0,-0.5011418,1,0,0,0,0,0
128692093,-0.1360588,6.6186194e-09,0.72650915,0.0,0.9325832,-0.06354114,-0.02415345,0.35449642,0.0,0.0,-0.49778566,1,0,0,0,0,0
128792139,-0.1231512,-3.5988599e-09,0.72650915,0.0,0.93297386,-0.05752114,-0.021865113,0.35464492,0.0,0.0,-0.4996069,1,0,0,0,0,0
128892203,-0.123952426,1.5715652e-09,0.72650915,0.0,0.93295074,-0.057894897,-0.022007186,0.35463613,0.0,0.0,-0.50392336,1,0,0,0,0,0
128992256,-0.11612243,-3.5013794e-09,0.72650915,0.0,0.93317026,-0.05424196,-0.020618621,0.35471955,0.0,0.0,-0.50939023,1,0,0,0,0,0
129092362,-0.08939248,-2.5020352e-09,0.72650915,0.0,0.93381184,-0.041765697,-0.015876107,0.35496342,0.0,0.0,-0.50976443,1,0,0,0,0,0
129192582,0.00017244928,6.2052143e-12,0.72650915,0.0,0.9347454,8.059808e-05,3.0637195e-05,0.35531828,0.0,0.0,-0.5122422,1,0,0,0,0,0
129292678,-0.0001225723,2.7124657e-12,0.72650915,0.0,0.9347454,-5.7286943e-05,-2.177609e-05,0.35531828,0.0,0.0,-0.5087934,1,0,0,0,0,0
129392793,0.060256604,-2.9057725e-09,0.72650915,0.0,0.93432117,0.028158031,0.010703517,0.35515705,0.0,0.0,-0.508338,1,0,0,0,0,0
129512894,0.10766753,1.4273438e-09,0.72650915,0.0,0.9333913,0.050296556,0.01911888,0.3548035,0.0,0.0,-0.5024055,1,0,0,0,0,0
129612935,0.12743051,3.6720926e-09,0.72650915,0.0,0.93284863,0.05951725,0.02262388,0.35459733,0.0,0.0,-0.49818188,1,0,0,0,0,0
129712996,0.138467,-4.266851e-09,0.72650915,0.0,0.932506,0.064664006,0.02458028,0.35446706,0.0,0.0,-0.49660996,1,0,0,0,0,0
129813132,0.12197935,-2.5915565e-09,0.72650915,0.0,0.9330074,0.05697448,0.021657316,0.35465765,0.0,0.0,-0.49828455,1,0,0,0,0,0
129913201,0.11981111,2.1971212e-10,0.72650915,0.0,0.93306863,0.05596295,0.021272812,0.35468093,0.0,0.0,-0.50322133,1,0,0,0,0,0
130014692,0.11920968,7.593706e-10,0.72650915,0.0,0.9330854,0.055682365,0.021166153,0.3546873,0.0,0.0,-0.5005809,1,0,0,0,0,0
130113573,0.09540376,-0.02099984,0.72650915,0.0,0.9334527,0.04829625,0.007138584,0.35536256,0.0,0.0,-0.50504535,1,0,0,0,0,0
130213971,0.09263293,-0.026995437,0.72650915,0.0,0.9334358,0.04806537,0.0038466863,0.35548908,0.0,0.0,-0.504895,1,0,0,0,0,0
130313732,0.1034611,-0.03915072,0.72650915,0.0,0.93295646,0.0552698,9.6763244e-05,0.3557211,0.0,0.0,-0.49917474,1,0,0,0,0,0
130414672,0.11894274,-0.06742733,0.72650915,0.0,0.9318508,0.0674819,-0.010345209,0.3563613,0.0,0.0,-0.49591768,1,0,0,0,0,0
130513775,0.11762617,-0.09575252,0.72650915,0.0,0.93106043,0.07185602,-0.02379628,0.356927,0.0,0.0,-0.49390668,1,0,0,0,0,0
130614703,0.110467486,-0.098810434,0.72650915,0.0,0.93121237,0.06906094,-0.026500467,0.35689202,0.0,0.0,-0.4938381,1,0,0,0,0,0
130714035,0.08627154,-0.09633188,0.72650915,0.0,0.93205506,0.057353426,-0.029659213,0.35651684,0.0,0.0,-0.49535555,1,0,0,0,0,0
130814150,0.046197917,-0.08391324,0.72650915,0.0,0.9333294,0.03647033,-0.030997258,0.35581648,0.0,0.0,-0.50185347,1,0,0,0,0,0
130934399,0.030084984,-0.076169245,0.72650915,0.0,0.9337584,0.027577534,-0.030245995,0.35555583,0.0,0.0,-0.5107571,1,0,0,0,0,0
131034429,0.030116422,-0.07731161,0.72650915,0.0,0.9337345,0.027794685,-0.030773982,0.35555658,0.0,0.0,-0.5089368,1,0,0,0,0,0
131134515,0.022818731,-0.07675055,0.72650915,0.0,0.9338409,0.024287969,-0.031809084,0.35544276,0.0,0.0,-0.49262387,1,0,0,0,0,0
131234529,-7.7423916e-05,-0.076852456,0.72650915,0.0,0.9340559,0.013614021,-0.035923637,0.35505465,0.0,0.0,-0.48790845,1,0,0,0,0,0
131334590,-1.7577506e-05,-0.068195544,0.72650915,0.0,0.93420213,0.012105006,-0.03186968,0.3551115,0.0,0.0,-0.4946639,1,0,0,0,0,0
131434699,-1.9615993e-07,-0.015659872,0.72650915,0.0,0.93471676,0.0027819988,-0.007318956,0.3553074,0.0,0.0,-0.50401694,1,0,0,0,0,0
131534795,1.0414529e-08,0.0007279648,0.72650915,0.0,0.9347453,-0.00012932473,0.00034023274,0.3553183,0.0,0.0,-0.50622755,1,0,0,0,0,0
131634968,2.0405111e-10,1.0152953e-05,0.72650915,0.0,0.9347454,-1.8036695e-06,4.745249e-06,0.35531828,0.0,0.0,-0.50315213,1,0,0,0,0,0
131735364,-1.6471488e-12,-3.258342e-07,0.72650915,0.0,0.9347454,5.7886655e-08,-1.5228629e-07,0.35531828,0.0,0.0,-0.49406737,1,0,0,0,0,0
131835522,-9.4931136e-14,-7.827497e-09,0.72650915,0.0,0.9347454,1.3905821e-09,-3.6583752e-09,0.35531828,0.0,0.0,-0.4852566,1,0,0,0,0,0
131935522,-2.9762307e-15,-2.382582e-11,0.72650915,0.0,0.9347454,4.2314837e-12,-1.1136067e-11,0.35531828,0.0,0.0,-0.48342672,1,0,0,0,0,0
132035509,-3.6104837e-18,2.5323528e-12,0.72650915,0.0,0.9347454,-4.4989728e-13,1.1835518e-12,0.35531825,0.0,0.0,-0.4939471,1,0,0,0,0,0
132135525,7.5657615e-19,7.860646e-14,0.72650915,0.0,0.9347454,-1.39648035e-14,3.6738648e-14,0.35531828,0.0,0.0,-0.5050202,1,0,0,0,0,0
132235575,4.3163292e-20,1.1036157e-15,0.72650915,0.0,0.9347454,-1.9604726e-16,5.158075e-16,0.35531828,0.0,0.0,-0.5142803,1,0,0,0,0,0
132335611,-1.1234425e-09,0.015606964,0.72650915,0.0,0.9347169,-0.0027726924,0.007294195,0.3553075,0.0,0.0,-0.5212945,1,0,0,0,0,0
132455982,-0.0878787,0.066890225,0.72650915,0.0,0.93279904,-0.05290591,0.015627963,0.3561498,0.0,0.0,-0.52236736,1,0,0,0,0,0
132555968,-0.07356364,0.018502716,0.72650915,0.0,0.9339523,-0.03765732,-0.0044240565,0.3553808,0.0,0.0,-0.50666404,1,0,0,0,0,0
132656021,-0.03540283,0.00023875416,0.72650915,0.0,0.9345982,-0.01658786,-0.006177739,0.35526457,0.0,0.0,-0.49400836,1,0,0,0,0,0
132756096,-0.00021807202,-9.281677e-06,0.72650915,0.0,0.9347454,-0.00010027193,-4.308049e-05,0.35531828,0.0,0.0,-0.4954406,1,0,0,0,0,0
132856181,-6.162282e-06,-2.0469298e-07,0.72650915,0.0,0.9347454,-2.8437166e-06,-1.1904536e-06,0.35531828,0.0,0.0,-0.5055351,1,0,0,0,0,0
132956229,-6.367469e-08,2.6601119e-10,0.72650915,0.0,0.9347454,-2.9807072e-08,-1.1188066e-08,0.35531828,0.0,0.0,-0.5079424,1,0,0,0,0,0
133056345,1.4216281e-09,7.754386e-11,0.72650915,0.0,0.9347454,6.5065375e-10,2.8880714e-10,0.35531828,0.0,0.0,-0.50593734,1,0,0,0,0,0
133156535,1.47865e-10,3.6966363e-12,0.72650915,0.0,0.9347454,6.845132e-11,2.7997276e-11,0.35531828,0.0,0.0,-0.50001085,1,0,0,0,0,0
133256596,1.3679275e-12,1.8981393e-14,0.72650915,0.0,0.9347454,6.359597e-13,2.5189621e-13,0.35531828,0.0,0.0,-0.48810226,1,0,0,0,0,0
133356779,-1.0206758e-13,-3.3380948e-15,0.72650915,0.0,0.9347454,-4.7110556e-14,-1.9693374e-14,0.35531828,0.0,0.0,-0.48813212,1,0,0,0,0,0
133476826,-1.7953344e-15,-4.9385055e-17,0.72650915,0.0,0.9347454,-8.303164e-16,-3.4203876e-16,0.35531825,0.0,0.0,-0.49429858,1,0,0,0,0,0
133576907,-2.1480734e-17,-4.3815504e-19,0.72650915,0.0,0.9347454,-9.961667e-18,-4.0210304e-18,0.35531828,0.0,0.0,-0.50586605,1,0,0,0,0,0
133677003,9.87505e-19,3.505658e-20,0.72650915,0.0,0.9347454,4.553047e-19,1.9182378e-19,0.35531828,0.0,0.0,-0.5367541,1,0,0,0,0,0
133777163,2.0357257e-20,6.051556e-22,0.72650915,0.0,0.9347454,9.406915e-21,3.899486e-21,0.35531828,0.0,0.0,-0.5688847,1,0,0,0,0,0
133877196,-1.0171984e-22,-9.6849345e-24,0.72650915,0.0,0.9347454,-4.5820452e-23,-2.2597934e-23,0.35531828,0.0,0.0,-0.5332282,1,0,0,0,0,0
133977240,-8.670388e-24,-3.4256832e-25,0.72650915,0.0,0.9347454,-3.9914425e-24,-1.7004808e-24,0.35531828,0.0,0.0,-0.53789204,1,0,0,0,0,0
134078443,-3.292354e-25,-6.3881367e-27,0.72650915,0.0,0.9347454,-1.5274072e-25,-6.1477323e-26,0.35531828,0.0,0.0,-0.513334,1,0,0,0,0,0
134177594,-1.0514606e-27,4.2757556e-29,0.72650915,0.0,0.9347454,-4.9902024e-28,-1.6681788e-28,0.35531828,0.0,0.0,-0.4172286,1,0,0,0,0,0
134278463,3.303308e-28,9.67341e-30,0.72650915,0.0,0.9347454,1.5266902e-28,6.320738e-29,0.35531828,0.0,0.0,-0.34254473,1,0,0,0,0,0
134377761,4.5874568e-30,1.0769376e-31,0.72650915,0.0,0.9347454,2.1249191e-30,8.653368e-31,0.35531828,0.0,0.0,-0.42400074,1,0,0,0,0,0
134478454,-1.4887186e-31,-5.7365777e-33,0.72650915,0.0,0.9347454,-6.855948e-32,-2.9129567e-32,0.35531828,0.0,0.0,-0.5023605,1,0,0,0,0,0
134577849,-3.55773e-33,-1.1206667e-34,0.72650915,0.0,0.9347454,-1.642876e-33,-6.8444017e-34,0.35531828,0.0,0.0,-0.5296424,1,0,0,0,0,0
134677933,-5.793842e-35,-1.5235512e-36,0.76306343,0.0,0.9280954,-2.6602548e-35,-1.1493468e-35,0.37234247,0.0,0.0,-0.50954294,1,0,0,0,0,0
134798141,-6.172606e-37,-1.0901797e-38,0.76306343,0.0,0.9280954,-2.8440875e-37,-1.1997512e-37,0.37234247,0.0,0.0,-0.48877382,1,0,0,0,0,0
134898356,3.5793933e-38,1.216676e-39,0.76306343,0.0,0.9280954,1.6383581e-38,7.228395e-39,0.37234244,0.0,0.0,-0.48709634,1,0,0,0,0,0
134998388,6.79432e-40,1.9442e-41,0.76306343,0.0,0.9280954,3.1167e-40,1.35513e-40,0.37234247,0.0,0.0,-0.4934048,1,0,0,0,0,0
135098454,8.944e-42,2e-43,0.76306343,0.0,0.9280954,4.114e-42,1.759e-42,0.37234247,0.0,0.0,-0.5027886,1,0,0,0,0,0
135198537,-3.31e-43,-1.4e-44,0.76306343,0.0,0.9280954,-1.51e-43,-6.7e-44,0.37234247,0.0,0.0,-0.5054715,1,0,0,0,0,0
135298577,-8e-45,-0.0,0.76306343,0.0,0.9280954,-4e-45,-1e-45,0.37234244,0.0,0.0,-0.49238107,1,0,0,0,0,0
135398662,0.0,-0.0,0.76306343,0.0,0.9280954,0.0,-0.0,0.37234247,0.0,0.0,-0.51426363,1,0,0,0,0,0
135498795,0.0,-0.0,0.76306343,0.0,0.9280954,0.0,-0.0,0.37234247,0.0,0.0,-0.54667753,1,0,0,0,0,0
135598953,0.0,-0.0,0.76306343,0.0,0.9280954,0.0,-0.0,0.37234247,0.0,0.0,-0.51161605,1,0,0,0,0,0
135699422,0.0,-0.0,0.76306343,0.0,0.9280954,0.0,-0.0,0.37234247,0.0,0.0,-0.46524745,1,0,0,0,0,0
135799549,0.0,-0.0,0.76306343,0.0,0.9280954,0.0,-0.0,0.37234247,0.0,0.0,-0.4592776,1,0,0,0,0,0
135899498,0.0,-0.0,0.76306343,0.0,0.9280954,0.0,-0.0,0.37234244,0.0,0.0,-0.49566776,1,0,0,0,0,0
136019439,0.0,-0.0,0.76306343,0.0,0.9280954,0.0,-0.0,0.37234247,0.0,0.0,-0.5267535,1,0,0,0,0,0
136119593,0.0,-0.0,0.76306343,0.0,0.9280954,0.0,-0.0,0.37234244,0.0,0.0,-0.4992413,1,0,0,0,0,0
136219535,0.0,-0.0,0.76306343,0.0,0.9280954,0.0,-0.0,0.37234247,0.0,0.0,-0.49268585,1,0,0,0,0,0
136319976,0.0,-0.0,0.76306343,0.0,0.9280954,0.0,-0.0,0.37234247,0.0,0.0,-0.49458566,1,0,0,0,0,0
136419790,0.0,-0.0,0.76306343,0.0,0.9280954,0.0,-0.0,0.37234247,0.0,0.0,-0.51556516,1,0,0,0,0,0
136520182,0.0,-0.0,0.76306343,0.0,0.9280954,0.0,-0.0,0.37234247,0.0,0.0,-0.5081138,1,0,0,0,0,0
136620021,0.0,-0.0,0.76306343,0.0,0.9280954,0.0,-0.0,0.37234247,0.0,0.0,-0.5009371,1,0,0,0,0,0
136720220,0.0,-0.0,0.76306343,0.0,0.9280954,0.0,-0.0,0.37234244,0.0,0.0,-0.48818856,1,0,0,0,0,0
136820176,0.0,-0.0,0.76601744,-0.046972226,0.9275444,0.0,-0.0,0.3737129,0.0,0.0,-0.491504,1,0,0,0,0,0
136920194,0.0,-0.0,0.7593268,-0.33755845,0.92878944,0.0,-0.0,0.3706079,0.0,0.0,-0.49740735,1,0,0,0,0,0
137020315,0.0,-0.0,0.73568106,-0.5310956,0.93310606,0.0,-0.0,0.35960123,0.0,0.0,-0.50065786,1,0,0,0,0,0
137120376,0.0,-0.0,0.697099,-0.55294657,0.9398691,0.0,-0.0,0.3415349,0.0,0.0,-0.4947184,1,0,0,0,0,0
137240572,0.0,-0.0,0.6433334,-0.5909685,0.9487098,0.0,-0.0,0.3161482,0.0,0.0,-0.49409813,1,0,0,0,0,0
137340728,0.0,-0.0,0.59257144,-0.5898779,0.9564276,0.0,-0.0,0.29196978,0.0,0.0,-0.49494568,1,0,0,0,0,0
137440801,0.0,-0.0,0.5392179,-0.58183646,0.9638751,0.0,-0.0,0.26635453,0.0,0.0,-0.5026855,1,0,0,0,0,0
137541164,0.0,-0.0,0.48544937,-0.5866132,0.97068673,0.0,-0.0,0.24034832,0.0,0.0,-0.5106087,1,0,0,0,0,0
137641028,0.0,-0.0,0.42972466,-0.58210635,0.9770058,0.0,-0.0,0.21321292,0.0,0.0,-0.51794714,1,0,0,0,0,0
137741124,0.0,-0.0,0.37456506,-0.58182716,0.98251384,0.0,-0.0,0.18618965,0.0,0.0,-0.51383024,1,0,0,0,0,0
137841170,0.0,-0.0,0.3185532,-0.58662,0.9873423,0.0,-0.0,0.15860403,0.0,0.0,-0.50428337,1,0,0,0,0,0
137941241,0.0,-0.0,0.26188448,-0.59419334,0.9914393,0.0,-0.0,0.13056839,0.0,0.0,-0.49601543,1,0,0,0,0,0
138041593,0.0,-0.0,0.20154482,-0.6597959,0.99492675,0.0,-0.0,0.10060195,0.0,0.0,-0.50132596,1,0,0,0,0,0
138161532,0.0,-0.0,0.12743878,-0.7739399,0.9979706,0.0,-0.0,0.06367629,0.0,0.0,-0.5052098,1,0,0,0,0,0
138261651,0.0,-0.0,0.05541961,-0.8214769,0.99961615,0.0,-0.0,0.02770626,0.0,0.0,-0.49999002,1,0,0,0,0,0
138361731,0.0,-0.0,-0.019739686,-0.8738873,0.9999513,0.0,-0.0,-0.009869684,0.0,0.0,-0.49916735,1,0,0,0,0,0
138461747,0.0,-0.0,-0.100226164,-0.89908284,0.9987446,0.0,-0.0,-0.05009211,0.0,0.0,-0.5000387,1,0,0,0,0,0
138561821,0.0,-0.0,-0.1846438,-0.9578666,0.99574137,0.0,-0.0,-0.09219081,0.0,0.0,-0.505206,1,0,0,0,0,0
138661923,0.0,-0.0,-0.27265278,-0.967459,0.99072194,0.0,-0.0,-0.13590454,0.0,0.0,-0.5064056,1,0,0,0,0,0
138762417,0.0,-0.0,-0.36439568,-1.0138986,0.98344785,0.0,-0.0,-0.18119146,0.0,0.0,-0.50710773,1,0,0,0,0,0
138862195,0.0,-0.0,-0.46072394,-1.0481977,0.9735838,0.0,-0.0,-0.22832996,0.0,0.0,-0.509121,1,0,0,0,0,0
138962978,0.0,-0.0,-0.56022996,-1.0727773,0.9610237,0.0,-0.0,-0.27646616,0.0,0.0,-0.5118648,1,0,0,0,0,0
139062450,0.0,-0.0,-0.6620806,-1.1008561,0.94570476,0.0,-0.0,-0.32502702,0.0,0.0,-0.51035684,1,0,0,0,0,0
139162518,0.0,-0.0,-0.7675918,-1.0960083,0.92724997,0.0,-0.0,-0.37444288,0.0,0.0,-0.5047226,1,0,0,0,0,0
139262543,0.0,-0.0,-0.8738567,-1.0962142,0.90605575,0.0,-0.0,-0.4231584,0.0,0.0,-0.5014792,1,0,0,0,0,0
139382638,0.0,-0.0,-1.002477,-1.1029255,0.8769881,0.0,-0.0,-0.48051208,0.0,0.0,-0.50184995,1,0,0,0,0,0
139482778,0.0,-0.0,-1.1114783,-1.0958464,0.8495107,0.0,-0.0,-0.5275714,0.0,0.0,-0.5038831,1,0,0,0,0,0
139582959,0.0,-0.0,-1.2197874,-1.0962833,0.8197089,0.0,-0.0,-0.5727804,0.0,0.0,-0.50127625,1,0,0,0,0,0
139683350,0.0,-0.0,-1.3283281,-1.0962731,0.7874324,0.0,-0.0,-0.616401,0.0,0.0,-0.5009105,1,0,0,0,0,0
139785681,0.0,-0.0,-1.439805,-1.0962725,0.75187004,0.0,-0.0,-0.65931135,0.0,0.0,-0.5008236,1,0,0,0,0,0
139883336,0.0,-0.0,-1.5479523,-1.0861863,0.71513706,0.0,-0.0,-0.69898427,0.0,0.0,-0.49917686,1,0,0,0,0,0
139985806,0.0,0.0,-1.6565825,-1.0901228,0.6761357,0.0,0.0,-0.7367771,0.0,0.0,-0.4964252,1,0,0,0,0,0
140083422,0.0,0.0,-1.7651182,-1.0864531,0.63517666,0.0,0.0,-0.77236694,0.0,0.0,-0.49434286,1,0,0,0,0,0
140184957,0.0,0.0,-1.8730086,-1.0863779,0.5926074,0.0,0.0,-0.8054915,0.0,0.0,-0.49942276,1,0,0,0,0,0
140283590,0.0,0.0,-1.9808358,-1.0762918,0.54834044,0.0,0.0,-0.8362552,0.0,0.0,-0.5038841,1,0,0,0,0,0
140383742,0.0,0.0,-2.085381,-1.0764749,0.5038981,0.0,0.0,-0.8637633,0.0,0.0,-0.50101936,1,0,0,0,0,0
140504597,0.0,0.0,-2.2157137,-1.0764841,-0.4465801,-0.0,0.0,0.8947436,0.0,0.0,-0.5110751,1,0,0,0,0,0
140604038,0.0,0.0,-2.3228793,-1.0764841,-0.3980192,-0.0,0.0,0.91737705,0.0,0.0,-0.5086014,1,0,0,0,0,0
140704115,0.0,0.0,-2.4292636,-1.0971243,-0.34868205,-0.0,0.0,0.9372411,0.0,0.0,-0.5070751,1,0,0,0,0,0
140804135,0.0,0.0,-2.5376027,-1.1010965,-0.29742548,-0.0,0.0,0.95474505,0.0,0.0,-0.5099949,1,0,0,0,0,0
140904985,0.0,0.0,-2.6456006,-1.0911602,-0.2454618,-0.0,0.0,0.96940625,0.0,0.0,-0.51494455,1,0,0,0,0,0
141004268,0.0,0.0,-2.7542293,-1.0856174,-0.19247304,-0.0,0.0,0.98130226,0.0,0.0,-0.5076647,1,0,0,0,0,0
141104373,0.0,0.0,-2.8616307,-1.0719762,-0.13952431,-0.0,0.0,0.99021864,0.0,0.0,-0.5017855,1,0,0,0,0,0
141204594,0.0,0.0,-2.9684458,-1.0764287,-0.086465344,-0.0,0.0,0.99625486,0.0,0.0,-0.50218403,1,0,0,0,0,0
141304905,0.0,0.0,-3.0757816,-1.0744414,-0.032899596,-0.0,0.0,0.9994587,0.0,0.0,-0.50490415,1,0,0,0,0,0
141405111,-0.0,-0.0,3.1004002,-1.056078,0.020594765,0.0,-0.0,0.9997879,0.0,0.0,-0.515489,1,0,0,0,0,0
141505151,-0.0,-0.0,2.9958224,-1.0460597,0.0728206,0.0,-0.0,0.99734503,0.0,0.0,-0.5070931,1,0,0,0,0,0
141605100,-0.0,-0.0,2.8920245,-1.0468123,0.12446048,0.0,-0.0,0.9922246,0.0,0.0,-0.5047996,1,0,0,0,0,0
141705117,-0.0,-0.0,2.7883646,-1.0298289,0.17569727,0.0,-0.0,0.98444426,0.0,0.0,-0.5034995,1,0,0,0,0,0
141805159,-0.0,-0.0,2.685707,-1.0335394,0.225974,0.0,-0.0,0.9741333,0.0,0.0,-0.501111,1,0,0,0,0,0
141925596,-0.0,-0.0,2.5610485,-1.0120025,0.28621295,0.0,-0.0,0.95816606,0.0,0.0,-0.502348,1,0,0,0,0,0
142025367,-0.0,-0.0,2.4603631,-1.0040288,0.3340666,0.0,-0.0,0.94254947,0.0,0.0,-0.507848,1,0,0,0,0,0
142125576,-0.0,-0.0,2.3604777,-0.97987366,0.380704,0.0,-0.0,0.924697,0.0,0.0,-0.5061984,1,0,0,0,0,0
142225617,-0.0,-0.0,2.2621918,-1.0413765,0.4256684,0.0,-0.0,0.9048792,0.0,0.0,-0.49713644,1,0,0,0,0,0
142325716,-0.0,-0.0,2.1607096,-1.026571,0.47101545,0.0,-0.0,0.88212496,0.0,0.0,-0.49142995,1,0,0,0,0,0
142425806,-0.0,-0.0,2.0590234,-1.0305061,0.5152374,0.0,-0.0,0.8570475,0.0,0.0,-0.4950859,1,0,0,0,0,0
142525878,-0.0,-0.0,1.9572839,-1.0298222,0.5581499,0.0,-0.0,0.8297402,0.0,0.0,-0.50650126,1,0,0,0,0,0
142625895,-0.0,-0.0,1.8565975,-1.0240899,0.59919685,0.0,-0.0,0.8006017,0.0,0.0,-0.5141014,1,0,0,0,0,0
142726043,-0.0,-0.0,1.7567357,-1.0162877,0.63840824,0.0,-0.0,0.76969796,0.0,0.0,-0.52489746,1,0,0,0,0,0
142826152,-0.0,-0.0,1.6553303,-1.0265559,0.6765969,0.0,-0.0,0.73635364,0.0,0.0,-0.51349664,1,0,0,0,0,0
142946406,0.0,-0.0,1.5336701,-1.0293591,0.7201103,0.0,-0.0,0.69385964,0.0,0.0,-0.5039582,1,0,0,0,0,0
143046421,0.0,-0.0,1.4312162,-1.0486206,0.7546944,0.0,-0.0,0.6560765,0.0,0.0,-0.49882516,1,0,0,0,0,0
143146491,0.0,-0.0,1.3283268,-1.0075538,0.78743273,0.0,-0.0,0.6164006,0.0,0.0,-0.5084826,1,0,0,0,0,0
143246539,0.0,-0.0,1.2279186,-0.96618986,0.81737345,0.0,-0.0,0.5761082,0.0,0.0,-0.5106749,1,0,0,0,0,0
143346791,0.0,-0.0,1.1275779,-0.95509976,0.8452364,0.0,-0.0,0.53439265,0.0,0.0,-0.5118568,1,0,0,0,0,0
143446744,0.0,-0.0,1.0346073,-0.94328654,0.86915576,0.0,-0.0,0.49453843,0.0,0.0,-0.5047557,1,0,0,0,0,0
143546823,0.0,-0.0,0.9406522,-0.4594615,0.8914206,0.0,-0.0,0.45317698,0.0,0.0,-0.50078833,1,0,0,0,0,0
143646971,0.0,-0.0,0.9222475,-0.0,0.89555305,0.0,-0.0,0.44495475,0.0,0.0,-0.49034986,1,0,0,0,0,0
143747165,0.0,-0.0,0.9222475,0.0,0.89555305,0.0,-0.0,0.44495475,0.0,0.0,-0.47227296,1,0,0,0,0,0
143847504,0.0,-0.0,0.9222475,0.0,0.89555305,0.0,-0.0,0.44495475,0.0,0.0,-0.4825692,1,0,0,0,0,0
143947329,0.0,-0.0,0.9222475,-0.0,0.89555305,0.0,-0.0,0.44495475,0.0,0.0,-0.49319816,1,0,0,0,0,0
144047365,0.0,-0.0,0.9222475,-0.0,0.89555305,0.0,-0.0,0.44495475,0.0,0.0,-0.5107364,1,0,0,0,0,0
144147447,0.0,-0.0,0.9222475,-0.0,0.89555305,0.0,-0.0,0.44495475,0.0,0.0,-0.51060206,1,0,0,0,0,0
144247496,-0.14472856,-1.2714321e-09,0.9222475,0.0,0.8932093,-0.064749494,-0.03217073,0.4437903,0.0,0.0,-0.51915467,1,0,0,0,0,0
144347611,-0.19401279,-8.743668e-09,0.9222475,0.0,0.89134264,-0.086738184,-0.0430958,0.44286287,0.0,0.0,-0.52142763,1,0,0,0,0,0
144467910,-0.1214713,4.5614126e-09,0.9222475,0.0,0.89390177,-0.054358564,-0.027008004,0.44413435,0.0,0.0,-0.5006401,1,0,0,0,0,0
144567932,-0.11756158,1.0501879e-09,0.9222475,0.0,0.8940063,-0.052611012,-0.026139736,0.44418633,0.0,0.0,-0.50705075,1,0,0,0,0,0
144668040,0.0063176895,-7.592162e-12,0.9222475,-0.0,0.8955486,0.0028289084,0.0014055407,0.44495258,0.0,0.0,-0.5075091,1,0,0,0,0,0
144768175,1.0709217e-05,5.0601927e-13,0.9222475,-0.0,0.89555305,4.795336e-06,2.382559e-06,0.44495475,0.0,0.0,-0.5067961,1,0,0,0,0,0
144868180,-6.82807e-06,-2.329411e-13,0.9222475,-0.0,0.89555305,-3.0574492e-06,-1.5190914e-06,0.44495475,0.0,0.0,-0.5071076,1,0,0,0,0,0
144968221,-9.083045e-08,2.8361454e-15,0.9222475,0.0,0.89555305,-4.0671743e-08,-2.0207718e-08,0.44495475,0.0,0.0,-0.5025822,1,0,0,0,0,0
145068344,-0.013774686,-3.1687755e-10,0.9222475,0.0,0.89553183,-0.0061679315,-0.0030645316,0.44494417,0.0,0.0,-0.49704802,1,0,0,0,0,0
145168540,-0.15757217,-3.2139627e-10,0.9222475,0.0,0.89277506,-0.07048414,-0.035019986,0.44357455,0.0,0.0,-0.50111187,1,0,0,0,0,0
145268580,-0.07527293,-2.4349617e-10,0.9222475,-0.0,0.89491886,-0.033697493,-0.016742572,0.4446396,0.0,0.0,-0.49370897,1,0,0,0,0,0
145368965,0.0038935258,6.484792e-11,0.9222475,-0.0,0.8955513,0.0017434284,0.000866221,0.44495395,0.0,0.0,-0.49900156,1,0,0,0,0,0
145469133,5.424864e-05,-5.645718e-13,0.9222475,-0.0,0.89555305,2.4291268e-05,1.2069096e-05,0.44495475,0.0,0.0,-0.5171423,1,0,0,0,0,0
145569680,0.03285882,-1.0620286e-10,0.9222475,0.0,0.8954322,0.014712746,0.0073100156,0.44489476,0.0,0.0,-0.5360764,1,0,0,0,0,0
145669050,0.15749672,-3.88407e-09,0.9222475,0.0,0.8927777,0.070450455,0.03500325,0.44357586,0.0,0.0,-0.5247532,1,0,0,0,0,0
145769127,0.12871695,-1.6177197e-09,0.9222475,-0.0,0.89369905,0.057596643,0.028616842,0.44403356,0.0,0.0,-0.4876566,1,0,0,0,0,0
145889146,0.09893065,1.0911037e-09,0.9222475,0.0,0.89445764,0.044280756,0.022000857,0.4444105,0.0,0.0,-0.48990515,1,0,0,0,0,0
145989617,-0.00535807,-1.842486e-11,0.9222475,-0.0,0.89554983,-0.002399215,-0.0011920481,0.4449532,0.0,0.0,-0.5012447,1,0,0,0,0,0
146090495,1.1691501e-05,-3.68283e-13,0.9222475,-0.0,0.89555305,5.2351793e-06,2.6010944e-06,0.44495475,0.0,0.0,-0.5038733,1,0,0,0,0,0
146189616,1.8738351e-06,4.22704e-14,0.9222475,-0.0,0.89555305,8.390593e-07,4.1688594e-07,0.44495475,0.0,0.0,-0.49651578,1,0,0,0,0,0
146289752,-0.00978408,1.4678735e-10,0.9222475,0.0,0.8955423,-0.0043810634,-0.0021767276,0.44494945,0.0,0.0,-0.49816787,1,0,0,0,0,0
146389773,-0.011698385,-0.0074788337,0.9222475,0.0,0.89554125,-0.0035743567,-0.0059513734,0.44492447,0.0,0.0,-0.50393164,1,0,0,0,0,0
146489801,-0.00834455,-0.07327814,0.9222475,0.0,0.8950122,0.012564963,-0.034659825,0.44451547,0.0,0.0,-0.5101174,1,0,0,0,0,0
146589847,-0.0067439494,-0.09738464,0.9222475,0.0,0.89455956,0.018640999,-0.04508767,0.44427797,0.0,0.0,-0.5050133,1,0,0,0,0,0
146689961,-0.002376342,-0.113730215,0.9222475,0.0,0.89413494,0.0242264,-0.051426068,0.44417477,0.0,0.0,-0.5032943,1,0,0,0,0,0
146790108,-0.0012524689,-0.113907814,0.9222475,0.0,0.89411664,0.024768287,-0.051255856,0.44420132,0.0,0.0,-0.5020637,1,0,0,0,0,0
146890308,-1.2525411e-05,-0.11595555,0.9222475,0.0,0.89404845,0.025777435,-0.051895864,0.4442068,0.0,0.0,-0.50150144,1,0,0,0,0,0
146990605,8.074709e-07,-0.11402643,0.9222475,0.0,0.8940979,0.02535492,-0.05103052,0.44423187,0.0,0.0,-0.49684882,1,0,0,0,0,0
147110646,1.370851e-08,-0.12082996,0.9222475,0.0,0.89391917,0.026865592,-0.05407191,0.444143,0.0,0.0,-0.50432116,1,0,0,0,0,0
147210735,-9.639272e-09,-0.14161688,0.9222475,0.0,0.89330894,0.031480223,-0.06335973,0.4438398,0.0,0.0,-0.50670993,1,0,0,0,0,0
147310747,-6.7633366e-09,-0.14753401,0.9222475,0.0,0.89311755,0.032793216,-0.06600238,0.44374475,0.0,0.0,-0.51387924,1,0,0,0,0,0
147410735,4.823165e-10,-0.1502815,0.9222475,0.0,0.89302605,0.03340278,-0.06722922,0.44369924,0.0,0.0,-0.51803213,1,0,0,0,0,0
147510835,-8.668457e-09,-0.15687868,0.9222475,0.0,0.8927994,0.034866173,-0.070174575,0.44358668,0.0,0.0,-0.51042473,1,0,0,0,0,0
147611151,-5.441979e-09,-0.18321314,0.9222475,0.0,0.891798,0.040703796,-0.08192385,0.4430891,0.0,0.0,-0.5114132,1,0,0,0,0,0
147711567,-2.9197225e-10,-0.1909759,0.9222475,0.0,0.89147335,0.042423278,-0.08538463,0.44292778,0.0,0.0,-0.5045593,1,0,0,0,0,0
147811280,3.1160021e-09,-0.19135444,0.9222475,0.0,0.8914572,0.042507112,-0.08555335,0.44291973,0.0,0.0,-0.5044507,1,0,0,0,0,0
147911277,-2.069296e-09,-0.18281421,0.9222475,0.0,0.89181435,0.040615413,-0.08174597,0.44309726,0.0,0.0,-0.51400125,1,0,0,0,0,0
148011330,6.7147043e-09,-0.17937203,0.9222475,0.0,0.8919537,0.039852742,-0.08021095,0.4431665,0.0,0.0,-0.50817984,1,0,0,0,0,0
148111411,2.4201887e-09,-0.1728341,0.9222475,0.0,0.8922112,0.03840384,-0.07729476,0.44329432,0.0,0.0,-0.4982953,1,0,0,0,0,0
148211469,1.648269e-09,-0.13441326,0.9222475,0.0,0.8935313,0.029881403,-0.060141798,0.44395033,0.0,0.0,-0.50092316,1,0,0,0,0,0
148311572,1.1704877e-09,-0.034204308,0.9222475,0.0,0.8954221,0.007609315,-0.01531514,0.4448897,0.0,0.0,-0.4976594,1,0,0,0,0,0
148411780,2.4124456e-11,0.0022289336,0.9222475,0.0,0.8955525,-0.0004958872,0.000998064,0.4449545,0.0,0.0,-0.5010761,1,0,0,0,0,0
148531912,-1.7806896e-09,0.13313657,0.9222475,0.0,0.8935695,-0.029598003,0.059571408,0.4439693,0.0,0.0,-0.5057749,1,0,0,0,0,0
148631987,-4.534224e-09,0.22188728,0.9222475,0.0,0.89004725,-0.049263697,0.09915222,0.44221923,0.0,0.0,-0.5107367,1,0,0,0,0,0
148732106,1.5941009e-11,0.26658267,0.9222475,0.0,0.88760936,-0.059133146,0.1190163,0.44100803,0.0,0.0,-0.5059604,1,0,0,0,0,0
148832159,-4.204929e-09,0.29392293,0.9222475,0.0,0.8858995,-0.06515608,0.13113855,0.44015843,0.0,0.0,-0.507756,1,0,0,0,0,0
148932190,0.0013585117,0.26054382,0.9222475,0.0,0.8880037,-0.057198133,0.11663535,0.44110534,0.0,0.0,-0.50556475,1,0,0,0,0,0
149032318,0.025480324,0.2540103,0.9222475,0.0,0.8889859,-0.04503788,0.119048096,0.4398899,0.0,0.0,-0.51161796,1,0,0,0,0,0
149132386,0.034446947,0.25780186,0.9222475,0.0,0.88897663,-0.041892096,0.12270087,0.43921527,0.0,0.0,-0.5229568,1,0,0,0,0,0
149232866,0.06344263,0.27021396,0.9222475,0.0,0.8888462,-0.031759106,0.13455059,0.43685225,0.0,0.0,-0.5245019,1,0,0,0,0,0
149333047,0.101019874,0.28925672,0.9222475,0.0,0.8883106,-0.019304147,0.15113722,0.43323106,0.0,0.0,-0.50637263,1,0,0,0,0,0
149432844,0.0883344,0.2765901,0.9222475,0.0,0.888846,-0.022115579,0.1427942,0.43482587,0.0,0.0,-0.49904898,1,0,0,0,0,0
149533160,0.0709642,0.27016005,0.9222475,0.0,0.8889622,-0.028404139,0.1361687,0.43634558,0.0,0.0,-0.5035104,1,0,0,0,0,0
149632990,0.055404067,0.24604431,0.9222475,0.0,0.8899561,-0.029962376,0.12208444,0.43837854,0.0,0.0,-0.5147495,1,0,0,0,0,0
149733711,-0.0026852116,0.19101931,0.9222475,0.0,0.8914137,-0.043629743,0.08480923,0.44304115,0.0,0.0,-0.51140136,1,0,0,0,0,0
149853569,-8.11814e-06,0.1718747,0.9222475,0.0,0.89224803,-0.03819481,0.076864965,0.4433131,0.0,0.0,-0.5468044,1,0,0,0,0,0
149953338,5.463645e-07,0.1727954,0.9222475,0.0,0.8922127,-0.038395017,0.07727762,0.4432951,0.0,0.0,-0.56640065,1,0,0,0,0,0
150053507,4.188829e-08,0.1765101,0.9222475,0.0,0.8920676,-0.039218523,0.07893452,0.443223,0.0,0.0,-0.5241958,1,0,0,0,0,0
150153651,5.7904064e-09,0.17533663,0.9222475,0.0,0.89211375,-0.038958482,0.07841109,0.443246,0.0,0.0,-0.49168542,1,0,0,0,0,0
150253690,6.347145e-09,0.1758828,0.9222475,0.0,0.8920923,-0.039079525,0.078654714,0.44323534,0.0,0.0,-0.4899368,1,0,0,0,0,0
150353721,-2.2232038e-09,0.1707755,0.9222475,0.0,0.8922903,-0.03794754,0.07637638,0.4433337,0.0,0.0,-0.50500965,1,0,0,0,0,0
150453735,6.706981e-09,0.13944131,0.9222475,0.0,0.8933773,-0.030997407,0.062387973,0.4438738,0.0,0.0,-0.4872394,1,0,0,0,0,0
150553832,7.1523315e-11,-0.0033160925,0.9222475,0.0,0.89555186,0.0007377552,-0.0014848677,0.44495416,0.0,0.0,-0.4561827,1,0,0,0,0,0
150653899,-7.06435e-10,-0.010768516,0.9222475,0.0,0.89554006,0.0023957393,-0.0048218654,0.44494838,0.0,0.0,-0.4926224,1,0,0,0,0,0
150754011,1.3430855e-09,-0.030576859,0.9222475,0.0,0.8954484,0.006802395,-0.013691066,0.44490275,0.0,0.0,-0.5159181,1,0,0,0,0,0
150854212,-9.141668e-10,-0.023669638,0.9222475,0.0,0.89549035,0.005265835,-0.010598459,0.4449236,0.0,0.0,-0.5255765,1,0,0,0,0,0
150974571,3.9291796e-11,0.0011173121,0.9222475,0.0,0.89555293,-0.00024857666,0.0005003061,0.44495466,0.0,0.0,-0.51506335,1,0,0,0,0,0
151074671,-3.780741e-13,1.4549069e-05,0.9222475,0.0,0.89555305,-3.236839e-06,6.514731e-06,0.44495475,0.0,0.0,-0.5015704,1,0,0,0,0,0
151174720,-1.4362663e-15,-5.535485e-07,0.9222475,0.0,0.89555305,1.2315202e-07,-2.47866e-07,0.44495475,0.0,0.0,-0.49626088,1,0,0,0,0,0
151274705,2.7305762e-11,-0.0018496696,0.9222475,0.0,0.8955527,0.00041150954,-0.00082823844,0.44495457,0.0,0.0,-0.5084111,1,0,0,0,0,0
151374752,3.398671e-10,-0.048148323,0.9222475,0.0,0.89529353,0.010710878,-0.021557607,0.44482583,0.0,0.0,-0.5252683,1,0,0,0,0,0
151474698,-6.3030443e-09,-0.061579227,0.9222475,0.0,0.89512855,0.013697817,-0.027569376,0.44474393,0.0,0.0,-0.5233765,1,0,0,0,0,0
151575563,8.5970586e-10,-0.07767774,0.9222475,0.0,0.8948777,0.017277198,-0.03477353,0.44461924,0.0,0.0,-0.49230695,1,0,0,0,0,0
151674949,6.5617395e-10,-0.095284484,0.9222475,0.0,0.89453685,0.021190627,-0.042650018,0.44444993,0.0,0.0,-0.48575142,1,0,0,0,0,0
151775223,-6.9654944e-09,-0.09270295,0.9222475,0.0,0.8945912,0.020616919,-0.041495334,0.4444769,0.0,0.0,-0.51410186,1,0,0,0,0,0
151875243,3.2319543e-09,-0.089032315,0.9222475,0.0,0.89466584,0.019801134,-0.039853413,0.44451398,0.0,0.0,-0.5219789,1,0,0,0,0,0
151975364,-4.8705724e-09,-0.07259461,0.9222475,0.0,0.89496315,0.016147112,-0.032499027,0.44466168,0.0,0.0,-0.5184384,1,0,0,0,0,0
152075359,1.953129e-10,-0.04506767,0.9222475,0.0,0.89532566,0.010025689,-0.020178536,0.4448418,0.0,0.0,-0.51047736,1,0,0,0,0,0
152175429,7.798643e-11,0.0022226986,0.9222475,0.0,0.89555246,-0.0004945,0.000995272,0.4449545,0.0,0.0,-0.4998319,1,0,0,0,0,0
152275530,8.539922e-13,1.7045286e-05,0.9222475,0.0,0.89555305,-3.7921902e-06,7.632479e-06,0.44495475,0.0,0.0,-0.5000359,1,0,0,0,0,0
152395740,7.194876e-10,0.023751216,0.9222475,0.0,0.8954899,-0.0052839834,0.010634986,0.44492343,0.0,0.0,-0.5142321,1,0,0,0,0,0
152495797,7.8686285e-10,0.01944924,0.9222475,0.0,0.89551073,-0.004326947,0.008708775,0.4449338,0.0,0.0,-0.5272185,1,0,0,0,0,0
152595996,-2.978104e-11,-0.0005149763,0.9222475,0.0,0.895553,0.00011457056,-0.00023059429,0.44495484,0.0,0.0,-0.5373419,1,0,0,0,0,0
152696018,1.0936618e-14,3.1621435e-06,0.9222475,0.0,0.89555305,-7.035054e-07,1.4159335e-06,0.44495475,0.0,0.0,-0.5652952,1,0,0,0,0,0
