timestamp,x,y,z,yaw,yawspeed,vx,vy,vz,acc_x,acc_y,acc_z,jerk_x,jerk_y,jerk_z,thrust[0],thrust[1],thrust[2]
94617887,nan,nan,-0.03717028,0.7538468,0.0,nan,nan,-0.0,nan,nan,nan,nan,nan,nan,0.0,0.0,nan
94637889,nan,nan,-0.037217945,0.75377727,0.0,nan,nan,-0.0,nan,nan,nan,nan,nan,nan,0.0,0.0,nan
94838158,nan,nan,-0.037174385,0.7531804,0.0,nan,nan,-0.0,nan,nan,nan,nan,nan,nan,0.0,0.0,nan
95038603,nan,nan,-0.04385783,0.7525918,0.0,nan,nan,-0.0,nan,nan,nan,nan,nan,nan,0.0,0.0,nan
95238530,nan,nan,-0.051295415,0.7521062,0.0,nan,nan,-0.0,nan,nan,nan,nan,nan,nan,0.0,0.0,nan
95438708,nan,nan,-0.048588272,0.7515893,0.0,nan,nan,-0.0,nan,nan,nan,nan,nan,nan,0.0,0.0,nan
95638973,nan,nan,-0.0548634,0.7511514,0.0,nan,nan,-0.0,nan,nan,nan,nan,nan,nan,0.0,0.0,nan
95839391,nan,nan,-0.05834238,0.75056624,0.0,nan,nan,-0.0,nan,nan,nan,nan,nan,nan,0.0,0.0,nan
96039437,nan,nan,-0.046488218,0.7500664,0.0,nan,nan,-0.0,nan,nan,nan,nan,nan,nan,0.0,0.0,nan
96239538,nan,nan,-0.036561865,0.74953884,0.0,nan,nan,-0.0,nan,nan,nan,nan,nan,nan,0.0,0.0,nan
96439826,nan,nan,-0.034198027,0.7489374,0.0,nan,nan,-0.0,nan,nan,nan,nan,nan,nan,0.0,0.0,nan
96639992,nan,nan,-0.027981622,0.7483885,0.0,nan,nan,-0.0,nan,nan,nan,nan,nan,nan,0.0,0.0,nan
96860267,nan,nan,-0.03202602,0.7477892,0.0,nan,nan,-0.0,nan,nan,nan,nan,nan,nan,0.0,0.0,nan
97060380,nan,nan,-0.04456641,0.74726003,0.0,nan,nan,-0.0,nan,nan,nan,nan,nan,nan,0.0,0.0,nan
97260736,nan,nan,-0.051425487,0.7467688,0.0,nan,nan,-0.0,nan,nan,nan,nan,nan,nan,0.0,0.0,nan
97460875,nan,nan,-0.0468458,0.7463013,0.0,nan,nan,-0.0,nan,nan,nan,nan,nan,nan,0.0,0.0,nan
97660985,nan,nan,-0.037932795,0.7458612,0.0,nan,nan,-0.0,nan,nan,nan,nan,nan,nan,0.0,0.0,nan
97861120,nan,nan,-0.03054289,0.7454165,0.0,nan,nan,-0.0,nan,nan,nan,nan,nan,nan,0.0,0.0,nan
98061408,nan,nan,-0.033181194,0.74501026,0.0,nan,nan,-0.0,nan,nan,nan,nan,nan,nan,0.0,0.0,nan
98261649,nan,nan,-0.046017665,0.7445529,0.0,nan,nan,-0.0,nan,nan,nan,nan,nan,nan,0.0,0.0,nan
98461765,nan,nan,-0.051371843,0.7442387,0.0,nan,nan,-0.0,nan,nan,nan,nan,nan,nan,0.0,0.0,nan
98681959,nan,nan,-0.056013152,0.7440245,0.0,nan,nan,-0.0,nan,nan,nan,nan,nan,nan,0.0,0.0,nan
98882510,nan,nan,-0.061250843,0.7437222,0.0,nan,nan,-0.0,nan,nan,nan,nan,nan,nan,0.0,0.0,nan
99082467,nan,nan,-0.065764606,0.7434379,0.0,nan,nan,-0.0,nan,nan,nan,nan,nan,nan,0.0,0.0,nan
99282550,nan,nan,-0.06993981,0.7429844,0.0,nan,nan,-0.0,nan,nan,nan,nan,nan,nan,0.0,0.0,nan
99482809,nan,nan,-0.071789615,0.74243265,0.0,nan,nan,-0.0,nan,nan,nan,nan,nan,nan,0.0,0.0,nan
99683135,nan,nan,-0.0690829,0.74200904,0.0,nan,nan,-0.0,nan,nan,nan,nan,nan,nan,0.0,0.0,nan
99883291,nan,nan,-0.061886348,0.74148834,0.0,nan,nan,-0.0,nan,nan,nan,nan,nan,nan,0.0,0.0,nan
100083395,nan,nan,-0.054850794,0.74112475,0.0,nan,nan,-0.0,nan,nan,nan,nan,nan,nan,0.0,0.0,nan
100303557,nan,nan,-0.054645758,0.74077594,0.0,nan,nan,-0.0,nan,nan,nan,nan,nan,nan,0.0,0.0,nan
100503889,nan,nan,-0.06353714,0.74036163,0.0,nan,nan,-0.0,nan,nan,nan,nan,nan,nan,0.0,0.0,nan
100704224,nan,nan,-0.07331226,0.7397802,0.0,nan,nan,-0.0,nan,nan,nan,nan,nan,nan,0.0,0.0,nan
100904249,nan,nan,-0.079980046,0.7392537,0.0,nan,nan,-0.0,nan,nan,nan,nan,nan,nan,0.0,0.0,nan
101104402,nan,nan,-0.0877605,0.7389241,0.0,nan,nan,-0.0,nan,nan,nan,nan,nan,nan,0.0,0.0,nan
101304760,nan,nan,-0.08841722,0.73889357,0.0,nan,nan,-0.0,nan,nan,nan,nan,nan,nan,0.0,0.0,nan
101505045,nan,nan,-0.08503289,0.7389598,0.0,nan,nan,-0.0,nan,nan,nan,nan,nan,nan,0.0,0.0,nan
101704967,nan,nan,-0.090044476,0.7386064,0.0,nan,nan,-0.0,nan,nan,nan,nan,nan,nan,0.0,0.0,nan
101905161,nan,nan,-0.09477165,0.738134,0.0,nan,nan,-0.0,nan,nan,nan,nan,nan,nan,0.0,0.0,nan
102105474,nan,nan,nan,nan,0.2454723,nan,nan,0.17604606,nan,nan,nan,nan,nan,nan,0.0,0.0,nan
102305645,nan,nan,nan,nan,1.5617468,nan,nan,0.52220917,nan,nan,nan,nan,nan,nan,0.0,0.0,nan
102525777,nan,nan,nan,nan,1.8370996,nan,nan,0.5856271,nan,nan,nan,nan,nan,nan,0.0,0.0,nan
102725973,nan,nan,nan,nan,3.257143,nan,nan,0.9086473,nan,nan,nan,nan,nan,nan,0.0,0.0,nan
102926457,nan,nan,nan,nan,3.4904156,nan,nan,1.0,nan,nan,nan,nan,nan,nan,0.0,0.0,nan
103126470,nan,nan,nan,nan,3.490592,nan,nan,0.99999994,nan,nan,nan,nan,nan,nan,0.0,0.0,nan
103326574,nan,nan,nan,nan,3.4906583,nan,nan,1.0,nan,nan,nan,nan,nan,nan,0.0,0.0,nan
103526784,nan,nan,nan,nan,3.4906585,nan,nan,1.0,nan,nan,nan,nan,nan,nan,0.0,0.0,nan
103727004,nan,nan,nan,nan,3.4906585,nan,nan,1.0,nan,nan,nan,nan,nan,nan,0.0,0.0,nan
103927274,nan,nan,nan,nan,3.4837089,nan,nan,1.0,nan,nan,nan,nan,nan,nan,0.0,0.0,nan
104127390,nan,nan,nan,nan,3.4906585,nan,nan,1.0,nan,nan,nan,nan,nan,nan,0.0,0.0,nan
104347604,nan,nan,nan,nan,3.4903212,nan,nan,1.0,nan,nan,nan,nan,nan,nan,0.0,0.0,nan
104548183,nan,nan,nan,nan,3.4906583,nan,nan,1.0,nan,nan,nan,nan,nan,nan,0.0,0.0,nan
104748225,nan,nan,nan,nan,3.4906585,nan,nan,1.0,nan,nan,nan,nan,nan,nan,0.0,0.0,nan
104948261,nan,nan,nan,nan,3.4888685,nan,nan,1.0,nan,nan,nan,nan,nan,nan,0.0,0.0,nan
105148609,nan,nan,nan,nan,3.4903212,nan,nan,1.0,nan,nan,nan,nan,nan,nan,0.0,0.0,nan
105348757,nan,nan,nan,nan,3.4822516,nan,nan,1.0,nan,nan,nan,nan,nan,nan,0.0,0.0,nan
105548934,nan,nan,nan,nan,3.4906585,nan,nan,1.0,nan,nan,nan,nan,nan,nan,0.0,0.0,nan
105749010,nan,nan,nan,nan,3.4906585,nan,nan,1.0,nan,nan,nan,nan,nan,nan,0.0,0.0,nan
105949354,nan,nan,nan,nan,3.4906585,nan,nan,1.0,nan,nan,nan,nan,nan,nan,0.0,0.0,nan
106169558,nan,nan,nan,nan,3.4906585,nan,nan,1.0,nan,nan,nan,nan,nan,nan,0.0,0.0,nan
106369697,nan,nan,-0.056104865,0.73008513,0.0,nan,nan,-0.0,nan,nan,nan,nan,nan,nan,0.0,0.0,nan
106770028,nan,nan,-0.07007242,0.7292832,-0.0,nan,nan,-0.0,nan,nan,nan,nan,nan,nan,0.0,0.0,nan
107570877,nan,nan,-0.082031,0.7280667,0.0,nan,nan,0.0,nan,nan,nan,nan,nan,nan,0.0,0.0,nan
107791190,nan,nan,nan,0.72760695,-0.0,nan,nan,-0.43024272,nan,nan,nan,nan,nan,nan,0.0,0.0,nan
107991301,nan,nan,-0.0976453,0.72713935,-0.0,nan,nan,-0.0,nan,nan,nan,nan,nan,nan,0.0,0.0,nan
108191500,nan,nan,nan,0.7266994,0.0,nan,nan,-0.029624378,nan,nan,nan,nan,nan,nan,0.0,0.0,nan
108391639,nan,nan,-0.10780329,0.72650915,-0.0,nan,nan,0.0,nan,nan,nan,nan,nan,nan,0.0,0.0,nan
108592173,nan,nan,nan,0.72650915,0.0,nan,nan,0.22420232,nan,nan,nan,nan,nan,nan,0.0,0.0,nan
108792262,nan,nan,-0.11030348,0.72650915,0.0,nan,nan,-0.0,nan,nan,nan,nan,nan,nan,0.0,0.0,nan
108992269,nan,nan,-0.11030348,0.72650915,-0.0,nan,nan,-0.0,nan,nan,nan,nan,nan,nan,0.0,0.0,nan
109192871,nan,nan,-0.11030348,0.72650915,0.0,nan,nan,-0.0,nan,nan,nan,nan,nan,nan,0.0,0.0,nan
109412859,nan,nan,-0.11030348,0.72650915,0.0,nan,nan,-0.0,nan,nan,nan,nan,nan,nan,0.0,0.0,nan
109612969,nan,nan,nan,0.72650915,0.0,nan,nan,0.3223568,nan,nan,nan,nan,nan,nan,0.0,0.0,nan
109813070,nan,nan,nan,0.72650915,0.0,nan,nan,0.32866675,nan,nan,nan,nan,nan,nan,0.0,0.0,nan
110013360,nan,nan,-0.22899856,0.72650915,0.0,nan,nan,-0.0,nan,nan,nan,nan,nan,nan,0.0,0.0,nan
110213558,nan,nan,-0.22899856,0.72650915,0.0,nan,nan,-0.0,nan,nan,nan,nan,nan,nan,0.0,0.0,nan
110413845,nan,nan,-0.22899856,0.72650915,0.0,nan,nan,-0.0,nan,nan,nan,nan,nan,nan,0.0,0.0,nan
110613948,nan,nan,-0.22899856,0.72650915,0.0,nan,nan,0.0,nan,nan,nan,nan,nan,nan,0.0,0.0,nan
110815510,nan,nan,-0.22899856,0.72650915,0.0,nan,nan,0.0,nan,nan,nan,nan,nan,nan,0.0,0.0,nan
111034388,nan,nan,nan,0.72650915,0.0,nan,nan,-0.18699495,nan,nan,nan,nan,nan,nan,0.0,0.0,nan
111234669,nan,nan,nan,0.72650915,0.0,nan,nan,-0.32685485,nan,nan,nan,nan,nan,nan,0.0,0.0,nan
111434685,nan,nan,nan,0.72650915,0.0,nan,nan,-0.14426915,nan,nan,nan,nan,nan,nan,0.0,0.0,nan
111634966,nan,nan,-0.55862385,0.72650915,0.0,nan,nan,0.0,nan,nan,nan,nan,nan,nan,0.0,0.0,nan
111835238,nan,nan,-0.55862385,0.72650915,0.0,nan,nan,0.0,nan,nan,nan,nan,nan,nan,0.0,0.0,nan
112035303,nan,nan,-0.55862385,0.72650915,0.0,nan,nan,0.0,nan,nan,nan,nan,nan,nan,0.0,0.0,nan
112235473,nan,nan,nan,0.72650915,0.0,nan,nan,-0.3807919,nan,nan,nan,nan,nan,nan,0.0,0.0,nan
112435742,nan,nan,nan,0.72650915,0.0,nan,nan,-0.40791082,nan,nan,nan,nan,nan,nan,0.0,0.0,nan
112636280,nan,nan,nan,0.72650915,0.0,nan,nan,-0.43575817,nan,nan,nan,nan,nan,nan,0.0,0.0,nan
112856145,nan,nan,nan,0.72650915,0.0,nan,nan,-0.48012823,nan,nan,nan,nan,nan,nan,0.0,0.0,nan
113056351,nan,nan,nan,0.72650915,0.0,nan,nan,-0.5741061,nan,nan,nan,nan,nan,nan,0.0,0.0,nan
113256559,nan,nan,nan,0.72650915,0.0,nan,nan,-0.5747232,nan,nan,nan,nan,nan,nan,0.0,0.0,nan
113456811,nan,nan,nan,0.72650915,0.0,nan,nan,-0.4596318,nan,nan,nan,nan,nan,nan,0.0,0.0,nan
113656941,nan,nan,nan,0.72650915,0.0,nan,nan,-0.33844322,nan,nan,nan,nan,nan,nan,0.0,0.0,nan
113857105,nan,nan,nan,0.72650915,0.0,nan,nan,-0.3352476,nan,nan,nan,nan,nan,nan,0.0,0.0,nan
114057380,nan,nan,nan,0.72650915,0.0,nan,nan,-0.5153371,nan,nan,nan,nan,nan,nan,0.0,0.0,nan
114257672,nan,nan,nan,0.72650915,0.0,nan,nan,-0.59241545,nan,nan,nan,nan,nan,nan,0.0,0.0,nan
114457907,nan,nan,-1.1721432,0.72650915,0.0,nan,nan,-0.0,nan,nan,nan,nan,nan,nan,0.0,0.0,nan
114657949,nan,nan,-1.1721432,0.72650915,0.0,nan,nan,-0.0,nan,nan,nan,nan,nan,nan,0.0,0.0,nan
114878979,nan,nan,-1.1721432,0.72650915,0.0,nan,nan,-0.0,nan,nan,nan,nan,nan,nan,0.0,0.0,nan
115078452,nan,nan,-1.1721432,0.72650915,0.0,nan,nan,-0.0,nan,nan,nan,nan,nan,nan,0.0,0.0,nan
115278535,nan,nan,-1.1721432,0.72650915,0.0,nan,nan,-0.0,nan,nan,nan,nan,nan,nan,0.0,0.0,nan
115478745,nan,nan,-1.1721432,0.72650915,0.0,nan,nan,-0.0,nan,nan,nan,nan,nan,nan,0.0,0.0,nan
115679165,nan,nan,-1.1721432,0.72650915,0.0,nan,nan,-0.0,nan,nan,nan,nan,nan,nan,0.0,0.0,nan
115879585,nan,nan,-1.1721432,0.72650915,0.0,nan,nan,-0.0,nan,nan,nan,nan,nan,nan,0.0,0.0,nan
116079448,nan,nan,-1.1721432,0.72650915,0.0,nan,nan,-0.0,nan,nan,nan,nan,nan,nan,0.0,0.0,nan
116299573,nan,nan,-1.1721432,0.72650915,0.0,nan,nan,-0.0,nan,nan,nan,nan,nan,nan,0.0,0.0,nan
116499803,nan,nan,-1.1721432,0.72650915,0.0,nan,nan,-0.0,nan,nan,nan,nan,nan,nan,0.0,0.0,nan
116700103,nan,nan,-1.1721432,0.72650915,0.0,nan,nan,-0.0,nan,nan,nan,nan,nan,nan,0.0,0.0,nan
116900197,nan,nan,-1.1721432,0.72650915,0.0,nan,nan,-0.0,nan,nan,nan,nan,nan,nan,0.0,0.0,nan
117100341,nan,nan,-1.1721432,0.72650915,0.0,nan,nan,-0.0,nan,nan,nan,nan,nan,nan,0.0,0.0,nan
117300942,nan,nan,-1.1721432,0.72650915,0.0,nan,nan,-0.0,nan,nan,nan,nan,nan,nan,0.0,0.0,nan
117500869,nan,nan,-1.1721432,0.72650915,0.0,nan,nan,-0.0,nan,nan,nan,nan,nan,nan,0.0,0.0,nan
117700960,nan,nan,-1.1721432,0.72650915,0.0,nan,nan,-0.0,nan,nan,nan,nan,nan,nan,0.0,0.0,nan
117901157,nan,nan,-1.1721432,0.72650915,0.0,nan,nan,-0.0,nan,nan,nan,nan,nan,nan,0.0,0.0,nan
118101707,nan,nan,-1.1721432,0.72650915,0.0,nan,nan,-0.0,nan,nan,nan,nan,nan,nan,0.0,0.0,nan
118321881,nan,nan,-1.1721432,0.72650915,0.0,nan,nan,-0.0,nan,nan,nan,nan,nan,nan,0.0,0.0,nan
118521815,nan,nan,-1.1721432,0.72650915,0.0,nan,nan,-0.0,nan,nan,nan,nan,nan,nan,0.0,0.0,nan
118722011,nan,nan,-1.1721432,0.72650915,0.0,nan,nan,-0.0,nan,nan,nan,nan,nan,nan,0.0,0.0,nan
118922316,nan,nan,-1.1721432,0.72650915,0.0,nan,nan,-0.0,nan,nan,nan,nan,nan,nan,0.0,0.0,nan
119122495,nan,nan,-1.1721432,0.72650915,0.0,nan,nan,-0.0,nan,nan,nan,nan,nan,nan,0.0,0.0,nan
119322601,nan,nan,-1.1721432,0.72650915,0.0,nan,nan,-0.0,nan,nan,nan,nan,nan,nan,0.0,0.0,nan
119522788,nan,nan,-1.1721432,0.72650915,0.0,nan,nan,-0.0,nan,nan,nan,nan,nan,nan,0.0,0.0,nan
119743120,nan,nan,-1.1721432,0.72650915,0.0,nan,nan,-0.0,nan,nan,nan,nan,nan,nan,0.0,0.0,nan
119943292,nan,nan,-1.1721432,0.72650915,0.0,nan,nan,-0.0,nan,nan,nan,nan,nan,nan,0.0,0.0,nan
120143373,nan,nan,-1.1721432,0.72650915,0.0,nan,nan,-0.0,nan,nan,nan,nan,nan,nan,0.0,0.0,nan
120343571,nan,nan,-1.1721432,0.72650915,0.0,nan,nan,-0.0,nan,nan,nan,nan,nan,nan,0.0,0.0,nan
120544511,nan,nan,-1.1721432,0.72650915,0.0,nan,nan,-0.0,nan,nan,nan,nan,nan,nan,0.0,0.0,nan
120744266,nan,nan,-1.1721432,0.72650915,0.0,nan,nan,-0.0,nan,nan,nan,nan,nan,nan,0.0,0.0,nan
120944562,nan,nan,-1.1721432,0.72650915,0.0,nan,nan,-0.0,nan,nan,nan,nan,nan,nan,0.0,0.0,nan
121144412,nan,nan,-1.1721432,0.72650915,0.0,nan,nan,-0.0,nan,nan,nan,nan,nan,nan,0.0,0.0,nan
121344700,nan,nan,-1.1721432,0.72650915,0.0,nan,nan,-0.0,nan,nan,nan,nan,nan,nan,0.0,0.0,nan
121544876,nan,nan,-1.1721432,0.72650915,0.0,nan,nan,-0.0,nan,nan,nan,nan,nan,nan,0.0,0.0,nan
121744996,nan,nan,-1.1721432,0.72650915,0.0,nan,nan,-0.0,nan,nan,nan,nan,nan,nan,0.0,0.0,nan
121945187,nan,nan,-1.1721432,0.72650915,0.0,nan,nan,-0.0,nan,nan,nan,nan,nan,nan,0.0,0.0,nan
122165724,nan,nan,-1.1721432,0.72650915,0.0,nan,nan,-0.0,nan,nan,nan,nan,nan,nan,0.0,0.0,nan
122365848,nan,nan,-1.1721432,0.72650915,0.0,nan,nan,-0.0,nan,nan,nan,nan,nan,nan,0.0,0.0,nan
122565939,nan,nan,-1.1721432,0.72650915,0.0,nan,nan,-0.0,nan,nan,nan,nan,nan,nan,0.0,0.0,nan
122766161,nan,nan,-1.1721432,0.72650915,0.0,nan,nan,-0.0,nan,nan,nan,nan,nan,nan,0.0,0.0,nan
122966404,nan,nan,-1.1721432,0.72650915,0.0,nan,nan,-0.0,nan,nan,nan,nan,nan,nan,0.0,0.0,nan
123166534,nan,nan,-1.1721432,0.72650915,0.0,nan,nan,-0.0,nan,nan,nan,nan,nan,nan,0.0,0.0,nan
123366593,nan,nan,-1.1721432,0.72650915,0.0,nan,nan,-0.0,nan,nan,nan,nan,nan,nan,0.0011847484,0.0010528272,nan
123566819,nan,nan,-1.1721432,0.72650915,0.0,nan,nan,-0.0,nan,nan,nan,nan,nan,nan,0.061107714,0.0543034,nan
123767203,nan,nan,-1.1721432,0.72650915,0.0,nan,nan,-0.0,nan,nan,nan,nan,nan,nan,0.10159216,0.09027992,nan
123967292,nan,nan,-1.1721432,0.72650915,0.0,nan,nan,-0.0,nan,nan,nan,nan,nan,nan,0.09150858,0.081319146,nan
124187455,nan,nan,-1.1721432,0.72650915,0.0,nan,nan,-0.0,nan,nan,nan,nan,nan,nan,-0.0010463325,-0.00092982384,nan
124387667,nan,nan,-1.1721432,0.72650915,0.0,nan,nan,-0.0,nan,nan,nan,nan,nan,nan,6.863891e-07,6.0996e-07,nan
124588001,nan,nan,-1.1721432,0.72650915,0.0,nan,nan,-0.0,nan,nan,nan,nan,nan,nan,-1.0937111e-09,-9.719269e-10,nan
124788072,nan,nan,-1.1721432,0.72650915,0.0,nan,nan,-0.0,nan,nan,nan,nan,nan,nan,-0.031939257,-0.028382836,nan
124988256,nan,nan,-1.1721432,0.72650915,0.0,nan,nan,-0.0,nan,nan,nan,nan,nan,nan,-0.09495591,-0.084382616,nan
125188419,nan,nan,-1.1721432,0.72650915,0.0,nan,nan,-0.0,nan,nan,nan,nan,nan,nan,-0.11372025,-0.10105756,nan
125388799,nan,nan,-1.1721432,0.72650915,0.0,nan,nan,-0.0,nan,nan,nan,nan,nan,nan,-0.108229846,-0.0961785,nan
125588942,nan,nan,-1.1721432,0.72650915,0.0,nan,nan,-0.0,nan,nan,nan,nan,nan,nan,-0.10525455,-0.09353451,nan
125809035,nan,nan,-1.1721432,0.72650915,0.0,nan,nan,-0.0,nan,nan,nan,nan,nan,nan,-0.10276251,-0.091319956,nan
126009406,nan,nan,-1.1721432,0.72650915,0.0,nan,nan,-0.0,nan,nan,nan,nan,nan,nan,-0.103861496,-0.09229656,nan
126209798,nan,nan,-1.1721432,0.72650915,0.0,nan,nan,-0.0,nan,nan,nan,nan,nan,nan,-0.11554605,-0.10268005,nan
126409715,nan,nan,-1.1721432,0.72650915,0.0,nan,nan,-0.0,nan,nan,nan,nan,nan,nan,-0.10830204,-0.09624266,nan
126609844,nan,nan,-1.1721432,0.72650915,0.0,nan,nan,-0.0,nan,nan,nan,nan,nan,nan,-0.1550555,-0.13779013,nan
126810159,nan,nan,-1.1721432,0.72650915,0.0,nan,nan,-0.0,nan,nan,nan,nan,nan,nan,-0.12844504,-0.114142746,nan
127010387,nan,nan,-1.1721432,0.72650915,0.0,nan,nan,-0.0,nan,nan,nan,nan,nan,nan,-0.034790423,-0.030916527,nan
127210496,nan,nan,-1.1721432,0.72650915,0.0,nan,nan,-0.0,nan,nan,nan,nan,nan,nan,0.0002771856,0.0002463211,nan
127430679,nan,nan,-1.1721432,0.72650915,0.0,nan,nan,-0.0,nan,nan,nan,nan,nan,nan,-4.0616936e-08,-3.6094256e-08,nan
127630930,nan,nan,-1.1721432,0.72650915,0.0,nan,nan,-0.0,nan,nan,nan,nan,nan,nan,-3.2592592e-11,-2.8963422e-11,nan
127831159,nan,nan,-1.1721432,0.72650915,0.0,nan,nan,-0.0,nan,nan,nan,nan,nan,nan,4.563105e-14,4.0550052e-14,nan
128031453,nan,nan,-1.1721432,0.72650915,0.0,nan,nan,-0.0,nan,nan,nan,nan,nan,nan,0.06277605,-0.070642,nan
128231538,nan,nan,-1.1721432,0.72650915,0.0,nan,nan,-0.0,nan,nan,nan,nan,nan,nan,0.10366223,-0.1166513,nan
128431740,nan,nan,-1.1721432,0.72650915,0.0,nan,nan,-0.0,nan,nan,nan,nan,nan,nan,0.101526976,-0.11424849,nan
128632025,nan,nan,-1.1721432,0.72650915,0.0,nan,nan,-0.0,nan,nan,nan,nan,nan,nan,0.11825266,-0.13306993,nan
128832105,nan,nan,-1.1721432,0.72650915,0.0,nan,nan,-0.0,nan,nan,nan,nan,nan,nan,0.11585328,-0.13036992,nan
129052262,nan,nan,-1.1721432,0.72650915,0.0,nan,nan,-0.0,nan,nan,nan,nan,nan,nan,0.091194086,-0.10262088,nan
129252465,nan,nan,-1.1721432,0.72650915,0.0,nan,nan,-0.0,nan,nan,nan,nan,nan,nan,8.614242e-05,-9.693622e-05,nan
129452845,nan,nan,-1.1721432,0.72650915,0.0,nan,nan,-0.0,nan,nan,nan,nan,nan,nan,-0.06805447,0.07658181,nan
129652931,nan,nan,-1.1721432,0.72650915,0.0,nan,nan,-0.0,nan,nan,nan,nan,nan,nan,-0.13250767,0.14911112,nan
129853147,nan,nan,-1.1721432,0.72650915,0.0,nan,nan,-0.0,nan,nan,nan,nan,nan,nan,-0.11153899,0.12551503,nan
130053372,nan,nan,-1.1721432,0.72650915,0.0,nan,nan,-0.0,nan,nan,nan,nan,nan,nan,-0.104183145,0.1279572,nan
130254436,nan,nan,-1.1721432,0.72650915,0.0,nan,nan,-0.0,nan,nan,nan,nan,nan,nan,-0.058543433,0.1273463,nan
130453894,nan,nan,-1.1721432,0.72650915,0.0,nan,nan,-0.0,nan,nan,nan,nan,nan,nan,-0.023905955,0.20602316,nan
130654163,nan,nan,-1.1721432,0.72650915,0.0,nan,nan,-0.0,nan,nan,nan,nan,nan,nan,0.0068712104,0.20389299,nan
130874160,nan,nan,-1.1721432,0.72650915,0.0,nan,nan,-0.0,nan,nan,nan,nan,nan,nan,0.052504543,0.10791191,nan
131074391,nan,nan,-1.1721432,0.72650915,0.0,nan,nan,-0.0,nan,nan,nan,nan,nan,nan,0.055380974,0.104570314,nan
131274523,nan,nan,-1.1721432,0.72650915,0.0,nan,nan,-0.0,nan,nan,nan,nan,nan,nan,0.081733935,0.072787136,nan
131474693,nan,nan,-1.1721432,0.72650915,0.0,nan,nan,-0.0,nan,nan,nan,nan,nan,nan,0.002655561,0.0023598438,nan
131674988,nan,nan,-1.1721432,0.72650915,0.0,nan,nan,-0.0,nan,nan,nan,nan,nan,nan,-5.024726e-06,-4.4651433e-06,nan
131875445,nan,nan,-1.1721432,0.72650915,0.0,nan,nan,-0.0,nan,nan,nan,nan,nan,nan,-1.3558343e-09,-1.2048132e-09,nan
132075436,nan,nan,-1.1721432,0.72650915,0.0,nan,nan,-0.0,nan,nan,nan,nan,nan,nan,1.0705934e-12,9.513597e-13,nan
132295537,nan,nan,-1.1721432,0.72650915,0.0,nan,nan,-0.0,nan,nan,nan,nan,nan,nan,-0.0027715012,-0.0024628958,nan
132495832,nan,nan,-1.1721432,0.72650915,0.0,nan,nan,-0.0,nan,nan,nan,nan,nan,nan,0.015986703,-0.119515054,nan
132696316,nan,nan,-1.1721432,0.72650915,0.0,nan,nan,-0.0,nan,nan,nan,nan,nan,nan,0.009580935,-0.010782513,nan
132896166,nan,nan,-1.1721432,0.72650915,0.0,nan,nan,-0.0,nan,nan,nan,nan,nan,nan,-1.1473105e-06,1.2271593e-06,nan
133096355,nan,nan,-1.1721432,0.72650915,0.0,nan,nan,-0.0,nan,nan,nan,nan,nan,nan,7.805662e-10,-8.2215434e-10,nan
133296593,nan,nan,-1.1721432,0.72650915,0.0,nan,nan,-0.0,nan,nan,nan,nan,nan,nan,-1.2273254e-12,1.2999482e-12,nan
133496791,nan,nan,-1.1721432,0.72650915,0.0,nan,nan,0.0,nan,nan,nan,nan,nan,nan,4.978646e-16,-5.164301e-16,nan
133696957,nan,nan,nan,0.72650915,0.0,nan,nan,-0.3134355,nan,nan,nan,nan,nan,nan,8.508984e-20,-9.963022e-20,nan
133897148,nan,nan,nan,0.72650915,0.0,nan,nan,-0.7987016,nan,nan,nan,nan,nan,nan,-1.2622885e-22,1.3236505e-22,nan
134097511,nan,nan,nan,0.72650915,0.0,nan,nan,-0.9846037,nan,nan,nan,nan,nan,nan,2.1264416e-25,-2.2441663e-25,nan
134297681,nan,nan,nan,0.72650915,0.0,nan,nan,0.0,nan,nan,nan,nan,nan,nan,-6.491601e-29,6.6491534e-29,nan
134517751,nan,nan,-1.5903293,0.72650915,0.0,nan,nan,-0.0,nan,nan,nan,nan,nan,nan,-4.1183677e-32,4.3717446e-32,nan
134717995,nan,nan,nan,0.76306343,0.0,nan,nan,0.049070477,nan,nan,nan,nan,nan,nan,-4.1232312e-36,4.261272e-36,nan
134918347,nan,nan,nan,0.76306343,0.0,nan,nan,0.052043293,nan,nan,nan,nan,nan,nan,6.63626e-40,-9.62075e-40,nan
135118429,nan,nan,nan,0.76306343,0.0,nan,nan,0.097785026,nan,nan,nan,nan,nan,nan,-4.72e-42,4.613e-42,nan
135318539,nan,nan,nan,0.76306343,0.0,nan,nan,0.21959369,nan,nan,nan,nan,nan,nan,8e-45,-8e-45,nan
135518769,nan,nan,-1.5331095,0.76306343,0.0,nan,nan,-0.0,nan,nan,nan,nan,nan,nan,0.0,0.0,nan
135719388,nan,nan,nan,0.76306343,0.0,nan,nan,0.13975988,nan,nan,nan,nan,nan,nan,0.0,0.0,nan
135919485,nan,nan,nan,0.76306343,0.0,nan,nan,0.16192845,nan,nan,nan,nan,nan,nan,0.0,0.0,nan
136139484,nan,nan,nan,0.76306343,0.0,nan,nan,0.08238252,nan,nan,nan,nan,nan,nan,0.0,0.0,nan
136339589,nan,nan,nan,0.76306343,0.0,nan,nan,0.07777104,nan,nan,nan,nan,nan,nan,0.0,0.0,nan
136539896,nan,nan,-1.4918917,0.76306343,0.0,nan,nan,-0.0,nan,nan,nan,nan,nan,nan,0.0,0.0,nan
136740125,nan,nan,-1.4918917,0.76306343,0.0,nan,nan,-0.0,nan,nan,nan,nan,nan,nan,0.0,0.0,nan
136940160,nan,nan,-1.4918917,nan,-0.40568072,nan,nan,-0.0,nan,nan,nan,nan,nan,nan,0.0,0.0,nan
137140367,nan,nan,-1.4918917,nan,-0.5535679,nan,nan,-0.0,nan,nan,nan,nan,nan,nan,0.0,0.0,nan
137340689,nan,nan,-1.4918917,nan,-0.5898779,nan,nan,-0.0,nan,nan,nan,nan,nan,nan,0.0,0.0,nan
137541124,nan,nan,-1.4918917,nan,-0.5866132,nan,nan,-0.0,nan,nan,nan,nan,nan,nan,0.0,0.0,nan
137741078,nan,nan,-1.4918917,nan,-0.58182716,nan,nan,-0.0,nan,nan,nan,nan,nan,nan,0.0,0.0,nan
137961220,nan,nan,-1.4918917,nan,-0.60080326,nan,nan,-0.0,nan,nan,nan,nan,nan,nan,0.0,0.0,nan
138161419,nan,nan,-1.4918917,nan,-0.7739399,nan,nan,-0.0,nan,nan,nan,nan,nan,nan,0.0,0.0,nan
138361691,nan,nan,-1.4918917,nan,-0.8738873,nan,nan,-0.0,nan,nan,nan,nan,nan,nan,0.0,0.0,nan
138561781,nan,nan,-1.4918917,nan,-0.9578666,nan,nan,-0.0,nan,nan,nan,nan,nan,nan,0.0,0.0,nan
138762377,nan,nan,-1.4918917,nan,-1.0138986,nan,nan,-0.0,nan,nan,nan,nan,nan,nan,0.0,0.0,nan
138962934,nan,nan,-1.4918917,nan,-1.0727773,nan,nan,-0.0,nan,nan,nan,nan,nan,nan,0.0,0.0,nan
139162475,nan,nan,-1.4918917,nan,-1.0960083,nan,nan,-0.0,nan,nan,nan,nan,nan,nan,0.0,0.0,nan
139382597,nan,nan,-1.4918917,nan,-1.1029255,nan,nan,-0.0,nan,nan,nan,nan,nan,nan,0.0,0.0,nan
139582846,nan,nan,-1.4918917,nan,-1.0962833,nan,nan,-0.0,nan,nan,nan,nan,nan,nan,0.0,0.0,nan
139785640,nan,nan,-1.4918917,nan,-1.0962725,nan,nan,-0.0,nan,nan,nan,nan,nan,nan,0.0,0.0,nan
139985765,nan,nan,-1.4918917,nan,-1.0901228,nan,nan,-0.0,nan,nan,nan,nan,nan,nan,0.0,0.0,nan
140184916,nan,nan,-1.4918917,nan,-1.0863779,nan,nan,-0.0,nan,nan,nan,nan,nan,nan,0.0,0.0,nan
140383622,nan,nan,-1.4918917,nan,-1.0764749,nan,nan,-0.0,nan,nan,nan,nan,nan,nan,0.0,0.0,nan
140583996,nan,nan,-1.4918917,nan,-1.0764841,nan,nan,-0.0,nan,nan,nan,nan,nan,nan,0.0,0.0,nan
140804094,nan,nan,-1.4918917,nan,-1.1010965,nan,nan,-0.0,nan,nan,nan,nan,nan,nan,0.0,0.0,nan
141004226,nan,nan,-1.4918917,nan,-1.0856174,nan,nan,-0.0,nan,nan,nan,nan,nan,nan,0.0,0.0,nan
141204477,nan,nan,-1.4918917,nan,-1.0764287,nan,nan,-0.0,nan,nan,nan,nan,nan,nan,0.0,0.0,nan
141405063,nan,nan,-1.4918917,nan,-1.056078,nan,nan,-0.0,nan,nan,nan,nan,nan,nan,0.0,0.0,nan
141605003,nan,nan,-1.4918917,nan,-1.0468123,nan,nan,-0.0,nan,nan,nan,nan,nan,nan,0.0,0.0,nan
141805118,nan,nan,-1.4918917,nan,-1.0335394,nan,nan,-0.0,nan,nan,nan,nan,nan,nan,0.0,0.0,nan
142006943,nan,nan,-1.4918917,nan,-0.9983392,nan,nan,-0.0,nan,nan,nan,nan,nan,nan,0.0,0.0,nan
142225576,nan,nan,-1.4918917,nan,-1.0413765,nan,nan,-0.0,nan,nan,nan,nan,nan,nan,0.0,0.0,nan
142425766,nan,nan,-1.4918917,nan,-1.0305061,nan,nan,-0.0,nan,nan,nan,nan,nan,nan,0.0,0.0,nan
142625855,nan,nan,-1.4918917,nan,-1.0240899,nan,nan,-0.0,nan,nan,nan,nan,nan,nan,0.0,0.0,nan
142826036,nan,nan,-1.4918917,nan,-1.0265559,nan,nan,-0.0,nan,nan,nan,nan,nan,nan,0.0,0.0,nan
143026349,nan,nan,-1.4918917,nan,-1.0637591,nan,nan,-0.0,nan,nan,nan,nan,nan,nan,0.0,0.0,nan
143226466,nan,nan,-1.4918917,nan,-0.9731562,nan,nan,-0.0,nan,nan,nan,nan,nan,nan,0.0,0.0,nan
143426715,nan,nan,-1.4918917,nan,-0.9479984,nan,nan,-0.0,nan,nan,nan,nan,nan,nan,0.0,0.0,nan
143627012,nan,nan,-1.4918917,0.9222475,0.0,nan,nan,-0.0,nan,nan,nan,nan,nan,nan,0.0,0.0,nan
143827188,nan,nan,-1.4918917,0.9222475,0.0,nan,nan,-0.0,nan,nan,nan,nan,nan,nan,0.0,0.0,nan
144047325,nan,nan,-1.4918917,0.9222475,-0.0,nan,nan,-0.0,nan,nan,nan,nan,nan,nan,0.0,0.0,nan
144247455,nan,nan,-1.4918917,0.9222475,0.0,nan,nan,-0.0,nan,nan,nan,nan,nan,nan,0.16588677,-0.12572841,nan
144448441,nan,nan,-1.4918917,0.9222475,0.0,nan,nan,-0.0,nan,nan,nan,nan,nan,nan,0.18470712,-0.13999268,nan
144648013,nan,nan,-1.4918917,0.9222475,-0.0,nan,nan,-0.0,nan,nan,nan,nan,nan,nan,0.012932398,-0.009801686,nan
144848137,nan,nan,-1.4918917,0.9222475,-0.0,nan,nan,-0.0,nan,nan,nan,nan,nan,nan,7.771563e-06,-5.8902e-06,nan
145048272,nan,nan,-1.4918917,0.9222475,0.0,nan,nan,-0.0,nan,nan,nan,nan,nan,nan,-3.7373864e-09,2.8326288e-09,nan
145248516,nan,nan,-1.4918917,0.9222475,-0.0,nan,nan,-0.0,nan,nan,nan,nan,nan,nan,0.12618989,-0.09564147,nan
145449001,nan,nan,-1.4918917,0.9222475,0.0,nan,nan,-0.0,nan,nan,nan,nan,nan,nan,2.9942643e-05,-2.2694041e-05,nan
145648958,nan,nan,-1.4918917,0.9222475,0.0,nan,nan,-0.0,nan,nan,nan,nan,nan,nan,-0.18154135,0.1375933,nan
145849076,nan,nan,-1.4918917,0.9222475,-0.0,nan,nan,-0.0,nan,nan,nan,nan,nan,nan,-0.13400511,0.101564765,nan
146069500,nan,nan,-1.4918917,0.9222475,-0.0,nan,nan,-0.0,nan,nan,nan,nan,nan,nan,-0.00044004398,0.00033351686,nan
146269705,nan,nan,-1.4918917,0.9222475,0.0,nan,nan,-0.0,nan,nan,nan,nan,nan,nan,0.0071724714,-0.0054361387,nan
146469742,nan,nan,-1.4918917,0.9222475,0.0,nan,nan,-0.0,nan,nan,nan,nan,nan,nan,0.06630721,0.06576541,nan
146669912,nan,nan,-1.4918917,0.9222475,0.0,nan,nan,-0.0,nan,nan,nan,nan,nan,nan,0.0962755,0.12353697,nan
146870175,nan,nan,-1.4918917,0.9222475,0.0,nan,nan,-0.0,nan,nan,nan,nan,nan,nan,0.09991712,0.13189891,nan
147070571,nan,nan,-1.4918917,0.9222475,0.0,nan,nan,-0.0,nan,nan,nan,nan,nan,nan,0.10301071,0.13591293,nan
147270647,nan,nan,-1.4918917,0.9222475,0.0,nan,nan,-0.0,nan,nan,nan,nan,nan,nan,0.12731664,0.16798228,nan
147470739,nan,nan,-1.4918917,0.9222475,0.0,nan,nan,-0.0,nan,nan,nan,nan,nan,nan,0.13351841,0.17616493,nan
147691100,nan,nan,-1.4918917,0.9222475,0.0,nan,nan,-0.0,nan,nan,nan,nan,nan,nan,0.16711195,0.22048844,nan
147891205,nan,nan,-1.4918917,0.9222475,0.0,nan,nan,-0.0,nan,nan,nan,nan,nan,nan,0.16056044,0.21184435,nan
148091336,nan,nan,-1.4918917,0.9222475,0.0,nan,nan,-0.0,nan,nan,nan,nan,nan,nan,0.15203314,0.20059337,nan
148291496,nan,nan,-1.4918917,0.9222475,0.0,nan,nan,-0.0,nan,nan,nan,nan,nan,nan,0.047791593,0.06305649,nan
148491786,nan,nan,-1.4918917,0.9222475,0.0,nan,nan,-0.0,nan,nan,nan,nan,nan,nan,-0.05968749,-0.078752,nan
148692045,nan,nan,-1.4918917,0.9222475,0.0,nan,nan,-0.0,nan,nan,nan,nan,nan,nan,-0.21500397,-0.28367743,nan
148892130,nan,nan,-1.4918917,0.9222475,0.0,nan,nan,-0.0,nan,nan,nan,nan,nan,nan,-0.26192996,-0.33768567,nan
149112334,nan,nan,-1.4918917,0.9222475,0.0,nan,nan,-0.0,nan,nan,nan,nan,nan,nan,-0.26342887,-0.26917684,nan
149312798,nan,nan,-1.4918917,0.9222475,0.0,nan,nan,-0.0,nan,nan,nan,nan,nan,nan,-0.37094972,-0.23982416,nan
149512856,nan,nan,-1.4918917,0.9222475,0.0,nan,nan,-0.0,nan,nan,nan,nan,nan,nan,-0.32276937,-0.25511736,nan
149712962,nan,nan,-1.4918917,0.9222475,0.0,nan,nan,0.0,nan,nan,nan,nan,nan,nan,-0.1800256,-0.22777097,nan
149913122,nan,nan,nan,0.9222475,0.0,nan,nan,-0.2425898,nan,nan,nan,nan,nan,nan,-0.15031837,-0.19832523,nan
150113565,nan,nan,nan,0.9222475,0.0,nan,nan,-0.32474408,nan,nan,nan,nan,nan,nan,-0.15080707,-0.19897568,nan
150313674,nan,nan,nan,0.9222475,0.0,nan,nan,-0.33076888,nan,nan,nan,nan,nan,nan,-0.15366897,-0.20275168,nan
150513767,nan,nan,-1.7106866,0.9222475,0.0,nan,nan,0.0,nan,nan,nan,nan,nan,nan,-0.019217752,-0.02535601,nan
150713929,nan,nan,-1.7106866,0.9222475,0.0,nan,nan,-0.0,nan,nan,nan,nan,nan,nan,0.024475053,0.032292522,nan
150914202,nan,nan,-1.7106866,0.9222475,0.0,nan,nan,-0.0,nan,nan,nan,nan,nan,nan,0.0036637287,0.004833944,nan
151134638,nan,nan,-1.7106866,0.9222475,0.0,nan,nan,-0.0,nan,nan,nan,nan,nan,nan,1.4602909e-08,1.926716e-08,nan
151334607,nan,nan,-1.7106866,0.9222475,0.0,nan,nan,-0.0,nan,nan,nan,nan,nan,nan,0.023110647,0.030492315,nan
151534693,nan,nan,-1.7106866,0.9222475,0.0,nan,nan,-0.0,nan,nan,nan,nan,nan,nan,0.059700318,0.07876893,nan
151735191,nan,nan,nan,0.9222475,0.0,nan,nan,0.029360414,nan,nan,nan,nan,nan,nan,0.08077528,0.10657536,nan
151935233,nan,nan,nan,0.9222475,0.0,nan,nan,0.0028749555,nan,nan,nan,nan,nan,nan,0.07726523,0.10194418,nan
152135442,nan,nan,-1.6764672,0.9222475,0.0,nan,nan,-0.0,nan,nan,nan,nan,nan,nan,0.0009300101,0.0012270606,nan
152335584,nan,nan,-1.6764672,0.9222475,0.0,nan,nan,-0.0,nan,nan,nan,nan,nan,nan,-0.0048374045,-0.0063824984,nan
152535807,nan,nan,-1.6764672,0.9222475,0.0,nan,nan,0.0,nan,nan,nan,nan,nan,nan,-0.0052206917,-0.0068882094,nan
152756020,nan,nan,nan,0.9222475,0.0,nan,nan,-0.35930204,nan,nan,nan,nan,nan,nan,-1.9769486e-07,-2.608397e-07,nan
152956208,nan,nan,nan,0.9222475,0.0,nan,nan,-0.5176744,nan,nan,nan,nan,nan,nan,-0.0006398754,-0.00084425515,nan
153156369,nan,nan,nan,0.9222475,0.0,nan,nan,-0.16072202,nan,nan,nan,nan,nan,nan,-0.13641341,-0.17998461,nan
153357813,nan,nan,-1.7809262,0.9222475,0.0,nan,nan,-0.0,nan,nan,nan,nan,nan,nan,-0.2980402,-0.39323592,nan
153556998,nan,nan,-1.7809262,0.9222475,0.0,nan,nan,-0.0,nan,nan,nan,nan,nan,nan,-0.33408657,-0.27889287,nan
153756967,nan,nan,-1.7809262,0.9222475,0.0,nan,nan,-0.0,nan,nan,nan,nan,nan,nan,-0.40235996,-0.25610533,nan
153957171,nan,nan,-1.7809262,0.9222475,0.0,nan,nan,-0.0,nan,nan,nan,nan,nan,nan,-0.4050355,-0.2652543,nan
154157548,nan,nan,-1.7809262,0.9222475,0.0,nan,nan,0.0,nan,nan,nan,nan,nan,nan,-0.36614582,-0.28884912,nan
154377839,nan,nan,-1.7809262,0.9222475,0.0,nan,nan,0.0,nan,nan,nan,nan,nan,nan,-0.2683357,-0.30083895,nan
154577774,nan,nan,-1.7809262,0.9222475,0.0,nan,nan,0.0,nan,nan,nan,nan,nan,nan,-0.15971197,-0.21073775,nan
154778010,nan,nan,-1.7809262,0.9222475,0.0,nan,nan,-0.0,nan,nan,nan,nan,nan,nan,-0.11443359,-0.1509843,nan
154978562,nan,nan,-1.7809262,0.9222475,0.0,nan,nan,-0.0,nan,nan,nan,nan,nan,nan,-0.025367523,-0.037088986,nan
155179521,nan,nan,-1.7809262,nan,-0.004125241,nan,nan,0.0,nan,nan,nan,nan,nan,nan,0.121908404,-0.09103395,nan
155379536,nan,nan,-1.7809262,0.91925234,0.0,nan,nan,0.0,nan,nan,nan,nan,nan,nan,0.20183116,-0.15392497,nan
155578813,nan,nan,-1.7809262,0.91925234,0.0,nan,nan,-0.0,nan,nan,nan,nan,nan,nan,0.15690744,-0.119664446,nan
155779144,nan,nan,-1.7809262,0.91925234,-0.0,nan,nan,-0.0,nan,nan,nan,nan,nan,nan,0.1193147,-0.042523507,nan
155999345,nan,nan,-1.7809262,0.91925234,-0.0,nan,nan,-0.0,nan,nan,nan,nan,nan,nan,0.23560348,0.013799219,nan
156199494,nan,nan,-1.7809262,0.91925234,0.0,nan,nan,-0.0,nan,nan,nan,nan,nan,nan,0.26356947,-0.005568646,nan
156399591,nan,nan,-1.7809262,0.91925234,-0.0,nan,nan,-0.0,nan,nan,nan,nan,nan,nan,0.12532727,0.11964584,nan
157200413,nan,nan,-1.7809262,0.91925234,0.0,nan,nan,-0.0,nan,nan,nan,nan,nan,nan,0.21449122,0.27717072,nan
157400785,nan,nan,-1.7809262,0.91925234,0.0,nan,nan,-0.0,nan,nan,nan,nan,nan,nan,0.211819,0.27774286,nan
157620941,nan,nan,-1.7809262,0.91925234,0.0,nan,nan,-0.0,nan,nan,nan,nan,nan,nan,0.119545475,0.15675144,nan
157821044,nan,nan,-1.7809262,0.91925234,-0.0,nan,nan,-0.0,nan,nan,nan,nan,nan,nan,0.06886838,0.09030218,nan
158021240,nan,nan,-1.7809262,0.91925234,0.0,nan,nan,-0.0,nan,nan,nan,nan,nan,nan,0.05264439,0.069028825,nan
158221546,nan,nan,-1.7809262,0.91925234,0.0,nan,nan,-0.0,nan,nan,nan,nan,nan,nan,-3.8775916e-06,-5.0844083e-06,nan
158421659,nan,nan,-1.7809262,0.91925234,0.0,nan,nan,-0.0,nan,nan,nan,nan,nan,nan,1.4945337e-08,1.9596753e-08,nan
158621854,nan,nan,-1.7809262,0.91925234,0.0,nan,nan,-0.0,nan,nan,nan,nan,nan,nan,-1.1399269e-11,-1.4947045e-11,nan
158822838,nan,nan,-1.7809262,0.91925234,0.0,nan,nan,-0.0,nan,nan,nan,nan,nan,nan,3.620386e-15,4.7471534e-15,nan
159023278,nan,nan,-1.7809262,0.91925234,0.0,nan,nan,-0.0,nan,nan,nan,nan,nan,nan,0.07590982,0.09953512,nan
159223248,nan,nan,-1.7809262,0.91925234,0.0,nan,nan,-0.0,nan,nan,nan,nan,nan,nan,0.0840073,0.110152766,nan
159422616,nan,nan,-1.7809262,0.91925234,0.0,nan,nan,-0.0,nan,nan,nan,nan,nan,nan,0.11173195,0.1465061,nan
159622933,nan,nan,-1.7809262,0.91925234,0.0,nan,nan,-0.0,nan,nan,nan,nan,nan,nan,0.15094528,0.19792375,nan
159823207,nan,nan,-1.7809262,0.91925234,0.0,nan,nan,-0.0,nan,nan,nan,nan,nan,nan,0.2143904,0.29062518,nan
160043297,nan,nan,-1.7809262,0.91925234,0.0,nan,nan,-0.0,nan,nan,nan,nan,nan,nan,0.15489233,0.3323218,nan
160243449,nan,nan,-1.7809262,0.91925234,0.0,nan,nan,-0.0,nan,nan,nan,nan,nan,nan,0.12105098,0.22450756,nan
160443737,nan,nan,-1.7809262,0.91925234,0.0,nan,nan,-0.0,nan,nan,nan,nan,nan,nan,-0.0032914113,0.19282545,nan
160644217,nan,nan,-1.7809262,0.91925234,0.0,nan,nan,-0.0,nan,nan,nan,nan,nan,nan,0.039145462,0.045190234,nan
160844218,nan,nan,-1.7809262,0.91925234,0.0,nan,nan,-0.0,nan,nan,nan,nan,nan,nan,1.5150284e-05,2.3204682e-05,nan
161044341,nan,nan,-1.7809262,0.91925234,0.0,nan,nan,-0.0,nan,nan,nan,nan,nan,nan,-1.1920249e-09,-1.4007143e-09,nan
161244450,nan,nan,-1.7809262,0.91925234,0.0,nan,nan,-0.0,nan,nan,nan,nan,nan,nan,-5.37271e-12,-8.599884e-12,nan
161444866,nan,nan,-1.7809262,0.91925234,0.0,nan,nan,-0.0,nan,nan,nan,nan,nan,nan,0.0071115494,0.009324866,nan
161644938,nan,nan,-1.7809262,0.91925234,0.0,nan,nan,-0.0,nan,nan,nan,nan,nan,nan,0.0076681627,0.010054713,nan
161865056,nan,nan,-1.7809262,0.91925234,0.0,nan,nan,-0.0,nan,nan,nan,nan,nan,nan,9.4161915e-06,1.2346778e-05,nan
162065345,nan,nan,-1.7809262,0.91925234,0.0,nan,nan,-0.0,nan,nan,nan,nan,nan,nan,-0.022449974,0.01712134,nan
162265576,nan,nan,-1.7809262,0.91925234,0.0,nan,nan,-0.0,nan,nan,nan,nan,nan,nan,-0.03168227,0.04479182,nan
162465682,nan,nan,-1.7809262,0.91925234,0.0,nan,nan,-0.0,nan,nan,nan,nan,nan,nan,-0.0032472548,0.11049839,nan
162665924,nan,nan,-1.7809262,0.91925234,0.0,nan,nan,-0.0,nan,nan,nan,nan,nan,nan,0.023354417,0.058068186,nan
162866321,nan,nan,-1.7809262,0.91925234,0.0,nan,nan,-0.0,nan,nan,nan,nan,nan,nan,0.03677471,0.048220776,nan
163087424,nan,nan,-1.7809262,0.91925234,0.0,nan,nan,-0.0,nan,nan,nan,nan,nan,nan,0.035477325,0.046518873,nan
163286524,nan,nan,-1.7809262,0.91925234,0.0,nan,nan,-0.0,nan,nan,nan,nan,nan,nan,0.02411077,0.03161473,nan
163486712,nan,nan,-1.7809262,0.91925234,0.0,nan,nan,-0.0,nan,nan,nan,nan,nan,nan,-0.00013271015,-0.00017401333,nan
163686954,nan,nan,-1.7809262,0.91925234,0.0,nan,nan,-0.0,nan,nan,nan,nan,nan,nan,-9.8341545e-08,-1.2894823e-07,nan
163887382,nan,nan,-1.7809262,0.91925234,0.0,nan,nan,-0.0,nan,nan,nan,nan,nan,nan,1.4198163e-10,1.8617037e-10,nan
164087350,nan,nan,-1.7809262,0.91925234,0.0,nan,nan,-0.0,nan,nan,nan,nan,nan,nan,-8.226028e-14,-1.0786202e-13,nan
164287492,nan,nan,-1.7809262,0.91925234,0.0,nan,nan,-0.0,nan,nan,nan,nan,nan,nan,-0.08052227,0.1298748,nan
164487746,nan,nan,-1.7809262,0.91925234,0.0,nan,nan,-0.0,nan,nan,nan,nan,nan,nan,-0.19439425,0.19486797,nan
164708073,nan,nan,-1.7809262,0.91925234,0.0,nan,nan,-0.0,nan,nan,nan,nan,nan,nan,-0.22055024,0.16819103,nan
164908153,nan,nan,-1.7809262,0.91925234,0.0,nan,nan,-0.0,nan,nan,nan,nan,nan,nan,-0.20105143,0.15333058,nan
165108331,nan,nan,-1.7809262,0.91925234,0.0,nan,nan,-0.0,nan,nan,nan,nan,nan,nan,-0.18024503,0.13746272,nan
165308583,nan,nan,-1.7809262,0.91925234,0.0,nan,nan,-0.0,nan,nan,nan,nan,nan,nan,-0.13657378,0.10415711,nan
165508857,nan,nan,-1.7809262,0.91925234,0.0,nan,nan,-0.0,nan,nan,nan,nan,nan,nan,-0.13391148,0.102126725,nan
165708941,nan,nan,-1.7809262,0.91925234,0.0,nan,nan,-0.0,nan,nan,nan,nan,nan,nan,-0.15796593,0.1204717,nan
165909144,nan,nan,-1.7809262,0.91925234,0.0,nan,nan,-0.0,nan,nan,nan,nan,nan,nan,-0.17572322,0.13401419,nan
166109774,nan,nan,-1.7809262,0.91925234,0.0,nan,nan,-0.0,nan,nan,nan,nan,nan,nan,-0.14800715,0.112876706,nan
166329830,nan,nan,-1.7809262,0.91925234,0.0,nan,nan,-0.0,nan,nan,nan,nan,nan,nan,-0.0005316131,0.00040543135,nan
166529811,nan,nan,-1.7809262,0.91925234,0.0,nan,nan,-0.0,nan,nan,nan,nan,nan,nan,1.6306112e-07,-1.2435751e-07,nan
166729981,nan,nan,-1.7809262,0.91925234,0.0,nan,nan,-0.0,nan,nan,nan,nan,nan,nan,8.2742015e-11,-6.310266e-11,nan
167330564,nan,nan,-1.7809262,0.91925234,0.0,nan,nan,-0.0,nan,nan,nan,nan,nan,nan,-0.12680267,-0.14955755,nan
167931235,nan,nan,-1.7809262,0.91925234,0.0,nan,nan,0.0,nan,nan,nan,nan,nan,nan,-3.0576832e-06,-4.0093196e-06,nan
168131353,nan,nan,-1.7809262,0.91925234,0.0,nan,nan,-0.0,nan,nan,nan,nan,nan,nan,1.79842e-09,2.3581392e-09,nan
168351548,nan,nan,nan,0.91925234,0.0,nan,nan,-0.14049181,nan,nan,nan,nan,nan,nan,-2.749577e-13,-3.605329e-13,nan
168553101,nan,nan,nan,0.91925234,0.0,nan,nan,-0.2853045,nan,nan,nan,nan,nan,nan,9.709152e-16,1.2730921e-15,nan
168752701,nan,nan,nan,0.91925234,0.0,nan,nan,-0.12540944,nan,nan,nan,nan,nan,nan,-0.11681901,-0.15317641,nan
168952303,nan,nan,-1.973519,0.91925234,0.0,nan,nan,-0.0,nan,nan,nan,nan,nan,nan,-0.10773883,-0.14127022,nan
169152374,nan,nan,-1.973519,0.91925234,0.0,nan,nan,-0.0,nan,nan,nan,nan,nan,nan,-0.14645767,-0.19203946,nan
169352616,nan,nan,-1.973519,0.91925234,0.0,nan,nan,-0.0,nan,nan,nan,nan,nan,nan,-0.16165304,-0.21196407,nan
169552923,nan,nan,-1.973519,0.91925234,0.0,nan,nan,-0.0,nan,nan,nan,nan,nan,nan,-0.21626309,-0.28357032,nan
169753041,nan,nan,-1.973519,0.91925234,0.0,nan,nan,-0.0,nan,nan,nan,nan,nan,nan,-0.23741995,-0.31131178,nan
169953148,nan,nan,-1.973519,0.91925234,0.0,nan,nan,-0.0,nan,nan,nan,nan,nan,nan,-0.19756675,-0.25905514,nan
170153403,nan,nan,-1.973519,0.91925234,0.0,nan,nan,-0.0,nan,nan,nan,nan,nan,nan,-0.14462745,-0.18963963,nan
170373786,nan,nan,-1.973519,0.91925234,0.0,nan,nan,-0.0,nan,nan,nan,nan,nan,nan,-0.064010635,-0.3072849,nan
170573818,nan,nan,-1.973519,0.91925234,0.0,nan,nan,-0.0,nan,nan,nan,nan,nan,nan,-0.048200626,-0.20854841,nan
170773961,nan,nan,-1.973519,0.91925234,0.0,nan,nan,-0.0,nan,nan,nan,nan,nan,nan,-0.07109212,-0.24986508,nan
170974495,nan,nan,-1.973519,0.91925234,0.0,nan,nan,-0.0,nan,nan,nan,nan,nan,nan,-0.14505303,-0.28229886,nan
171174479,nan,nan,-1.973519,0.91925234,0.0,nan,nan,-0.0,nan,nan,nan,nan,nan,nan,-0.09343725,-0.26075932,nan
171374560,nan,nan,-1.973519,0.91925234,0.0,nan,nan,-0.0,nan,nan,nan,nan,nan,nan,-0.043431774,-0.26113787,nan
171574754,nan,nan,-1.973519,0.91925234,0.0,nan,nan,-0.0,nan,nan,nan,nan,nan,nan,0.048503093,-0.3507155,nan
171775076,nan,nan,-1.973519,0.91925234,0.0,nan,nan,-0.0,nan,nan,nan,nan,nan,nan,0.019861957,-0.32926401,nan
171975393,nan,nan,-1.973519,0.91925234,0.0,nan,nan,-0.0,nan,nan,nan,nan,nan,nan,-0.033379648,-0.19435306,nan
172195469,nan,nan,-1.973519,0.91925234,0.0,nan,nan,-0.0,nan,nan,nan,nan,nan,nan,-0.14984874,-0.2336341,nan
172395587,nan,nan,-1.973519,0.91925234,0.0,nan,nan,-0.0,nan,nan,nan,nan,nan,nan,-0.15177956,-0.19901322,nan
172596060,nan,nan,-1.973519,0.91925234,0.0,nan,nan,-0.0,nan,nan,nan,nan,nan,nan,-0.029836517,-0.039122485,nan
172796073,nan,nan,-1.973519,0.91925234,0.0,nan,nan,-0.0,nan,nan,nan,nan,nan,nan,-3.1222037e-06,-4.0939244e-06,nan
172996177,nan,nan,-1.973519,0.91925234,0.0,nan,nan,-0.0,nan,nan,nan,nan,nan,nan,5.2268776e-09,6.8536306e-09,nan
173196385,nan,nan,-1.973519,0.91925234,0.0,nan,nan,-0.0,nan,nan,nan,nan,nan,nan,-3.2391537e-12,-4.2472696e-12,nan
173396744,nan,nan,-1.973519,0.91925234,0.0,nan,nan,-0.0,nan,nan,nan,nan,nan,nan,6.138951e-16,8.0495595e-16,nan
173596862,nan,nan,-1.973519,0.91925234,0.0,nan,nan,-0.0,nan,nan,nan,nan,nan,nan,8.3541416e-19,1.0954191e-18,nan
173796985,nan,nan,-1.973519,0.91925234,0.0,nan,nan,-0.0,nan,nan,nan,nan,nan,nan,-0.05538155,-0.072617866,nan
174017209,nan,nan,-1.973519,0.91925234,0.0,nan,nan,-0.0,nan,nan,nan,nan,nan,nan,-0.14315163,-0.1877045,nan
174217867,nan,nan,-1.973519,0.91925234,0.0,nan,nan,-0.0,nan,nan,nan,nan,nan,nan,0.001761562,0.0023098104,nan
174418401,nan,nan,nan,0.91925234,0.0,nan,nan,0.017134374,nan,nan,nan,nan,nan,nan,-3.1675475e-07,-4.1533787e-07,nan
174618018,nan,nan,nan,0.91925234,0.0,nan,nan,0.22626086,nan,nan,nan,nan,nan,nan,-4.692493e-10,-6.1529304e-10,nan
174818138,nan,nan,nan,0.91925234,0.0,nan,nan,0.22362489,nan,nan,nan,nan,nan,nan,5.435201e-13,7.1267905e-13,nan
175018382,nan,nan,nan,0.91925234,0.0,nan,nan,0.22124718,nan,nan,nan,nan,nan,nan,-2.756254e-16,-3.6140786e-16,nan
175218473,nan,nan,nan,0.91925234,0.0,nan,nan,0.21656524,nan,nan,nan,nan,nan,nan,1.0436147e-20,1.3684173e-20,nan
175418609,nan,nan,nan,0.91925234,0.0,nan,nan,0.21970442,nan,nan,nan,nan,nan,nan,1.0756068e-22,1.4103662e-22,nan
175618805,nan,nan,nan,0.91925234,0.0,nan,nan,0.30384314,nan,nan,nan,nan,nan,nan,-9.8269636e-26,-1.2885395e-25,nan
175839441,nan,nan,nan,0.91925234,0.0,nan,nan,0.3024162,nan,nan,nan,nan,nan,nan,-1.2605445e-29,-1.6528618e-29,nan
176039509,nan,nan,nan,0.91925234,0.0,nan,nan,0.3150231,nan,nan,nan,nan,nan,nan,1.7747774e-32,2.3271387e-32,nan
176239528,nan,nan,nan,0.91925234,0.0,nan,nan,0.35866013,nan,nan,nan,nan,nan,nan,-1.0150215e-35,-1.330925e-35,nan
176439616,nan,nan,nan,0.91925234,0.0,nan,nan,0.37832847,nan,nan,nan,nan,nan,nan,1.344305e-39,1.76269e-39,nan
176640018,nan,nan,nan,0.91925234,0.0,nan,nan,0.41288415,nan,nan,nan,nan,nan,nan,-5.272e-42,-6.913e-42,nan
176840330,nan,nan,nan,0.91925234,0.0,nan,nan,0.42093426,nan,nan,nan,nan,nan,nan,-3e-45,-3e-45,nan
177040206,nan,nan,nan,0.91925234,0.0,nan,nan,0.37532493,nan,nan,nan,nan,nan,nan,0.0,0.0,nan
177240450,nan,nan,nan,0.91925234,0.0,nan,nan,0.37890047,nan,nan,nan,nan,nan,nan,0.0,0.0,nan
177440734,nan,nan,nan,0.91925234,0.0,nan,nan,0.38471046,nan,nan,nan,nan,nan,nan,0.0,0.0,nan
177660857,nan,nan,nan,0.91925234,0.0,nan,nan,0.3714223,nan,nan,nan,nan,nan,nan,0.0,0.0,nan
177861146,nan,nan,nan,0.91925234,0.0,nan,nan,0.12188484,nan,nan,nan,nan,nan,nan,0.0,0.0,nan
178061509,nan,nan,-1.1427794,0.91925234,0.0,nan,nan,-0.0,nan,nan,nan,nan,nan,nan,0.0,0.0,nan
178261636,nan,nan,-1.1427794,0.91925234,0.0,nan,nan,-0.0,nan,nan,nan,nan,nan,nan,-0.044328753,-0.058125127,nan
178461766,nan,nan,-1.1427794,0.91925234,0.0,nan,nan,-0.0,nan,nan,nan,nan,nan,nan,-0.08227029,-0.08870918,nan
178661840,nan,nan,-1.1427794,0.91925234,0.0,nan,nan,-0.0,nan,nan,nan,nan,nan,nan,-0.13774936,-0.019659514,nan
178862052,nan,nan,-1.1427794,0.91925234,0.0,nan,nan,-0.0,nan,nan,nan,nan,nan,nan,-0.1598602,-0.022623183,nan
179082389,nan,nan,-1.1427794,0.91925234,0.0,nan,nan,-0.0,nan,nan,nan,nan,nan,nan,-0.13612692,-0.061529376,nan
179282505,nan,nan,-1.1427794,0.91925234,0.0,nan,nan,-0.0,nan,nan,nan,nan,nan,nan,-0.124025546,-0.08609775,nan
179482669,nan,nan,-1.1427794,0.91925234,0.0,nan,nan,-0.0,nan,nan,nan,nan,nan,nan,-0.10431886,-0.11092926,nan
179683002,nan,nan,-1.1427794,0.91925234,0.0,nan,nan,-0.0,nan,nan,nan,nan,nan,nan,-0.098115236,-0.12516597,nan
179883474,nan,nan,-1.1427794,0.91925234,0.0,nan,nan,-0.0,nan,nan,nan,nan,nan,nan,-0.105450265,-0.1382695,nan
180083444,nan,nan,-1.1427794,0.91925234,0.0,nan,nan,-0.0,nan,nan,nan,nan,nan,nan,-0.10590316,-0.13886324,nan
180283544,nan,nan,-1.1427794,0.91925234,0.0,nan,nan,-0.0,nan,nan,nan,nan,nan,nan,-0.010204141,-0.1658305,nan
180483720,nan,nan,-1.1427794,0.91925234,0.0,nan,nan,-0.0,nan,nan,nan,nan,nan,nan,0.16119039,-0.117906965,nan
180704077,nan,nan,-1.1427794,0.91925234,0.0,nan,nan,-0.0,nan,nan,nan,nan,nan,nan,0.075484306,-0.027545836,nan
180904177,nan,nan,-1.1427794,0.91925234,0.0,nan,nan,-0.0,nan,nan,nan,nan,nan,nan,3.1135183e-05,9.5191645e-05,nan
181104318,nan,nan,-1.1427794,0.91925234,0.0,nan,nan,-0.0,nan,nan,nan,nan,nan,nan,0.032569833,0.042706467,nan
181304542,nan,nan,-1.1427794,0.91925234,0.0,nan,nan,-0.0,nan,nan,nan,nan,nan,nan,0.11452219,0.07248312,nan
181504999,nan,nan,-1.1427794,0.91925234,0.0,nan,nan,-0.0,nan,nan,nan,nan,nan,nan,0.12431194,0.0888342,nan
181705105,nan,nan,-1.1427794,0.91925234,0.0,nan,nan,-0.0,nan,nan,nan,nan,nan,nan,0.12856993,0.09926045,nan
181905141,nan,nan,-1.1427794,0.91925234,0.0,nan,nan,-0.0,nan,nan,nan,nan,nan,nan,0.12535661,0.1438514,nan
182105864,nan,nan,-1.1427794,0.91925234,0.0,nan,nan,-0.0,nan,nan,nan,nan,nan,nan,0.13121128,0.1641978,nan
182305680,nan,nan,-1.1427794,0.91925234,0.0,nan,nan,-0.0,nan,nan,nan,nan,nan,nan,0.15281025,0.20037156,nan
182525748,nan,nan,-1.1427794,0.91925234,0.0,nan,nan,-0.0,nan,nan,nan,nan,nan,nan,0.15180863,0.1990558,nan
182725930,nan,nan,-1.1427794,0.91925234,0.0,nan,nan,-0.0,nan,nan,nan,nan,nan,nan,0.14595075,0.19137478,nan
182926219,nan,nan,-1.1427794,0.91925234,0.0,nan,nan,-0.0,nan,nan,nan,nan,nan,nan,0.1677571,0.16397052,nan
183126366,nan,nan,-1.1427794,0.91925234,0.0,nan,nan,-0.0,nan,nan,nan,nan,nan,nan,0.18650079,0.14378206,nan
183326534,nan,nan,-1.1427794,0.91925234,0.0,nan,nan,-0.0,nan,nan,nan,nan,nan,nan,0.1911957,0.14777046,nan
183526701,nan,nan,-1.1427794,0.91925234,0.0,nan,nan,-0.0,nan,nan,nan,nan,nan,nan,0.18069342,0.2372695,nan
183727445,nan,nan,-1.1427794,0.91925234,0.0,nan,nan,-0.0,nan,nan,nan,nan,nan,nan,0.20638205,0.2706146,nan
183927422,nan,nan,-1.1427794,0.91925234,0.0,nan,nan,-0.0,nan,nan,nan,nan,nan,nan,0.20788631,0.27258644,nan
184147385,nan,nan,-1.1427794,0.91925234,0.0,nan,nan,-0.0,nan,nan,nan,nan,nan,nan,0.20859458,0.27351514,nan
184347517,nan,nan,-1.1427794,0.91925234,0.0,nan,nan,-0.0,nan,nan,nan,nan,nan,nan,0.20446266,0.26809725,nan
184547789,nan,nan,-1.1427794,0.91925234,0.0,nan,nan,-0.0,nan,nan,nan,nan,nan,nan,0.20490462,0.2686768,nan
184748125,nan,nan,-1.1427794,0.91925234,0.0,nan,nan,-0.0,nan,nan,nan,nan,nan,nan,0.20288701,0.26603124,nan
184948137,nan,nan,-1.1427794,0.91925234,0.0,nan,nan,-0.0,nan,nan,nan,nan,nan,nan,0.19517872,0.2559239,nan
185148328,nan,nan,-1.1427794,0.91925234,0.0,nan,nan,-0.0,nan,nan,nan,nan,nan,nan,0.06958472,0.09124147,nan
185348627,nan,nan,-1.1427794,0.91925234,0.0,nan,nan,-0.0,nan,nan,nan,nan,nan,nan,-4.732121e-05,-6.2048915e-05,nan
185569044,nan,nan,-1.1427794,0.91925234,0.0,nan,nan,-0.0,nan,nan,nan,nan,nan,nan,-0.011999524,-0.015734117,nan
185769025,nan,nan,-1.1427794,0.91925234,0.0,nan,nan,-0.0,nan,nan,nan,nan,nan,nan,-0.09733135,-0.12762363,nan
185969776,nan,nan,-1.1427794,0.91925234,0.0,nan,nan,-0.0,nan,nan,nan,nan,nan,nan,-0.16129765,-0.21149807,nan
186169876,nan,nan,-1.1427794,0.91925234,0.0,nan,nan,-0.0,nan,nan,nan,nan,nan,nan,-0.13345887,-0.17499506,nan
186369697,nan,nan,-1.1427794,0.91925234,0.0,nan,nan,-0.0,nan,nan,nan,nan,nan,nan,-0.035688926,-0.046796333,nan
186569760,nan,nan,-1.1427794,0.91925234,0.0,nan,nan,-0.0,nan,nan,nan,nan,nan,nan,5.949464e-06,7.801107e-06,nan
186769960,nan,nan,-1.1427794,0.91925234,0.0,nan,nan,-0.0,nan,nan,nan,nan,nan,nan,2.0474065e-09,2.6846176e-09,nan
186970184,nan,nan,-1.1427794,0.91925234,0.0,nan,nan,0.0,nan,nan,nan,nan,nan,nan,-4.304757e-12,-5.6445204e-12,nan
187170444,nan,nan,nan,0.91925234,0.0,nan,nan,-0.1453476,nan,nan,nan,nan,nan,nan,2.8894962e-15,3.78879e-15,nan
187390653,nan,nan,-1.1885414,0.91925234,0.0,nan,nan,-0.0,nan,nan,nan,nan,nan,nan,-0.0050554005,-0.0066287853,nan
187590793,nan,nan,-1.1885414,0.91925234,0.0,nan,nan,-0.0,nan,nan,nan,nan,nan,nan,-0.09156716,-0.120065466,nan
187791105,nan,nan,-1.1885414,0.91925234,0.0,nan,nan,-0.0,nan,nan,nan,nan,nan,nan,-0.106723055,-0.13993831,nan
187991286,nan,nan,-1.1885414,0.91925234,0.0,nan,nan,-0.0,nan,nan,nan,nan,nan,nan,-0.00024191946,-0.0003172117,nan
188191378,nan,nan,-1.1885414,0.91925234,0.0,nan,nan,-0.0,nan,nan,nan,nan,nan,nan,1.6055924e-07,2.1052985e-07,nan
188391599,nan,nan,-1.1885414,0.91925234,0.0,nan,nan,-0.0,nan,nan,nan,nan,nan,nan,-3.769651e-11,-4.942874e-11,nan
188591945,nan,nan,-1.1885414,0.91925234,0.0,nan,nan,-0.0,nan,nan,nan,nan,nan,nan,-0.11531068,0.087940946,nan
188792095,nan,nan,-1.1885414,0.91925234,0.0,nan,nan,-0.0,nan,nan,nan,nan,nan,nan,-0.21434474,0.16346864,nan
189012159,nan,nan,-1.1885414,0.91925234,0.0,nan,nan,-0.0,nan,nan,nan,nan,nan,nan,-0.16427842,0.12528588,nan
189212386,nan,nan,-1.1885414,0.91925234,0.0,nan,nan,-0.0,nan,nan,nan,nan,nan,nan,-0.13808563,0.10531013,nan
189412957,nan,nan,-1.1885414,0.91925234,0.0,nan,nan,-0.0,nan,nan,nan,nan,nan,nan,-0.117296554,0.08945547,nan
189612944,nan,nan,-1.1885414,0.91925234,0.0,nan,nan,-0.0,nan,nan,nan,nan,nan,nan,-0.044392888,0.03385595,nan
189813003,nan,nan,-1.1885414,0.91925234,0.0,nan,nan,-0.0,nan,nan,nan,nan,nan,nan,2.6984315e-05,-2.0579415e-05,nan
190013178,nan,nan,-1.1885414,0.91925234,0.0,nan,nan,-0.0,nan,nan,nan,nan,nan,nan,-2.2574413e-08,1.7216232e-08,nan
190213562,nan,nan,-1.1885414,0.91925234,0.0,nan,nan,-0.0,nan,nan,nan,nan,nan,nan,8.275414e-12,-6.311192e-12,nan
190413693,nan,nan,-1.1885414,0.91925234,0.0,nan,nan,-0.0,nan,nan,nan,nan,nan,nan,-0.04220302,0.032185864,nan
190633804,nan,nan,-1.1885414,0.91925234,0.0,nan,nan,-0.0,nan,nan,nan,nan,nan,nan,-0.055020396,0.021290274,nan
190834029,nan,nan,-1.1885414,0.91925234,0.0,nan,nan,-0.0,nan,nan,nan,nan,nan,nan,-0.06281495,0.047846537,nan
191034585,nan,nan,-1.1885414,0.91925234,0.0,nan,nan,-0.0,nan,nan,nan,nan,nan,nan,-0.019081498,0.014552448,nan
191234606,nan,nan,-1.1885414,0.91925234,0.0,nan,nan,-0.0,nan,nan,nan,nan,nan,nan,4.752233e-06,-3.6243264e-06,nan
191434701,nan,nan,-1.1885414,0.91925234,0.0,nan,nan,-0.0,nan,nan,nan,nan,nan,nan,3.8304844e-09,-2.9213014e-09,nan
191635623,nan,nan,-1.1885414,0.91925234,0.0,nan,nan,-0.0,nan,nan,nan,nan,nan,nan,-5.440869e-12,4.149446e-12,nan
191835251,nan,nan,-1.1885414,0.91925234,0.0,nan,nan,-0.0,nan,nan,nan,nan,nan,nan,-2.2800496e-16,1.7387933e-16,nan
192035287,nan,nan,-1.1885414,0.91925234,0.0,nan,nan,-0.0,nan,nan,nan,nan,nan,nan,8.748748e-19,-6.6721634e-19,nan
192235409,nan,nan,-1.1885414,0.91925234,0.0,nan,nan,-0.0,nan,nan,nan,nan,nan,nan,-9.669535e-22,7.3743677e-22,nan
192455619,nan,nan,-1.1885414,0.91925234,0.0,nan,nan,-0.0,nan,nan,nan,nan,nan,nan,2.1155558e-25,-1.6134371e-25,nan
192655959,nan,nan,-1.1885414,0.91925234,0.0,nan,nan,-0.0,nan,nan,nan,nan,nan,nan,1.2815151e-28,-9.773409e-29,nan
192856130,nan,nan,-1.1885414,0.91925234,0.0,nan,nan,-0.0,nan,nan,nan,nan,nan,nan,-0.08048017,-0.1055279,nan
193056231,nan,nan,-1.1885414,0.91925234,0.0,nan,nan,-0.0,nan,nan,nan,nan,nan,nan,-0.119489156,-0.12595747,nan
193257008,nan,nan,-1.1885414,0.91925234,0.0,nan,nan,-0.0,nan,nan,nan,nan,nan,nan,-0.17979047,-0.0067980057,nan
193457052,nan,nan,-1.1885414,0.91925234,0.0,nan,nan,-0.0,nan,nan,nan,nan,nan,nan,-0.19982378,-0.02542111,nan
193657360,nan,nan,-1.1885414,0.91925234,0.0,nan,nan,-0.0,nan,nan,nan,nan,nan,nan,-0.21335252,-0.025190651,nan
193857163,nan,nan,-1.1885414,0.91925234,0.0,nan,nan,-0.0,nan,nan,nan,nan,nan,nan,-0.20698322,-0.034683216,nan
194077387,nan,nan,-1.1885414,0.91925234,0.0,nan,nan,-0.0,nan,nan,nan,nan,nan,nan,-0.19835801,-0.063877255,nan
194277573,nan,nan,-1.1885414,0.91925234,0.0,nan,nan,-0.0,nan,nan,nan,nan,nan,nan,-0.16091481,-0.1405724,nan
194477706,nan,nan,-1.1885414,0.91925234,0.0,nan,nan,-0.0,nan,nan,nan,nan,nan,nan,-0.15564393,-0.18463455,nan
194677870,nan,nan,-1.1885414,0.91925234,0.0,nan,nan,-0.0,nan,nan,nan,nan,nan,nan,-0.14926606,-0.19570863,nan
194878108,nan,nan,-1.1885414,0.91925234,0.0,nan,nan,-0.0,nan,nan,nan,nan,nan,nan,-0.13766626,-0.15872683,nan
195078570,nan,nan,-1.1885414,0.91925234,0.0,nan,nan,-0.0,nan,nan,nan,nan,nan,nan,-0.14689146,-0.13401547,nan
195278658,nan,nan,-1.1885414,0.91925234,0.0,nan,nan,-0.0,nan,nan,nan,nan,nan,nan,-0.14917253,-0.10600026,nan
195478824,nan,nan,-1.1885414,0.91925234,0.0,nan,nan,-0.0,nan,nan,nan,nan,nan,nan,-0.13075645,-0.094778046,nan
195679470,nan,nan,-1.1885414,0.91925234,0.0,nan,nan,-0.0,nan,nan,nan,nan,nan,nan,-0.14027855,-0.09047894,nan
195879304,nan,nan,-1.1885414,0.91925234,0.0,nan,nan,-0.0,nan,nan,nan,nan,nan,nan,-0.23552461,-0.098586775,nan
196099404,nan,nan,-1.1885414,0.91925234,0.0,nan,nan,-0.0,nan,nan,nan,nan,nan,nan,-0.22306134,-0.088333465,nan
196299510,nan,nan,-1.1885414,0.91925234,0.0,nan,nan,-0.0,nan,nan,nan,nan,nan,nan,-0.19808728,-0.093776785,nan
196499650,nan,nan,-1.1885414,0.91925234,0.0,nan,nan,-0.0,nan,nan,nan,nan,nan,nan,-0.20074849,-0.09179605,nan
196699957,nan,nan,-1.1885414,0.91925234,0.0,nan,nan,-0.0,nan,nan,nan,nan,nan,nan,-0.2980552,0.0041915034,nan
196900225,nan,nan,-1.1885414,0.91925234,0.0,nan,nan,-0.0,nan,nan,nan,nan,nan,nan,-0.2400611,0.05722253,nan
197100329,nan,nan,-1.1885414,0.91925234,0.0,nan,nan,-0.0,nan,nan,nan,nan,nan,nan,0.0092352405,-0.0071120416,nan
197300540,nan,nan,-1.1885414,0.91925234,0.0,nan,nan,-0.0,nan,nan,nan,nan,nan,nan,1.2528408e-06,-8.4034923e-07,nan
197521094,nan,nan,-1.1885414,0.91925234,0.0,nan,nan,-0.0,nan,nan,nan,nan,nan,nan,0.14237045,-0.10857791,nan
197720963,nan,nan,-1.1885414,0.91925234,0.0,nan,nan,-0.0,nan,nan,nan,nan,nan,nan,0.3219375,-0.08676053,nan
197921101,nan,nan,-1.1885414,0.91925234,0.0,nan,nan,-0.0,nan,nan,nan,nan,nan,nan,0.09343265,0.14587706,nan
198121343,nan,nan,-1.1885414,0.91925234,0.0,nan,nan,-0.0,nan,nan,nan,nan,nan,nan,0.111790396,0.14654823,nan
198321812,nan,nan,-1.1885414,0.91925234,0.0,nan,nan,-0.0,nan,nan,nan,nan,nan,nan,0.18637331,0.24437802,nan
198521716,nan,nan,-1.1885414,0.91925234,0.0,nan,nan,-0.0,nan,nan,nan,nan,nan,nan,0.008193213,0.010743174,nan
198721890,nan,nan,-1.1885414,0.91925234,0.0,nan,nan,-0.0,nan,nan,nan,nan,nan,nan,-0.00909379,-0.011924038,nan
198922154,nan,nan,-1.1885414,0.91925234,0.0,nan,nan,-0.0,nan,nan,nan,nan,nan,nan,-0.01783333,-0.02338357,nan
199142936,nan,nan,-1.1885414,0.91925234,0.0,nan,nan,-0.0,nan,nan,nan,nan,nan,nan,-2.2963616e-06,-3.0110548e-06,nan
199343241,nan,nan,-1.1885414,0.91925234,0.0,nan,nan,-0.0,nan,nan,nan,nan,nan,nan,1.1943498e-09,1.5660656e-09,nan
199543303,nan,nan,-1.1885414,0.91925234,0.0,nan,nan,-0.0,nan,nan,nan,nan,nan,nan,-1.8400286e-12,-2.4126979e-12,nan
199743040,nan,nan,-1.1885414,0.91925234,0.0,nan,nan,-0.0,nan,nan,nan,nan,nan,nan,3.0933518e-15,4.056091e-15,nan
199943259,nan,nan,-1.1885414,0.91925234,0.0,nan,nan,-0.0,nan,nan,nan,nan,nan,nan,-9.53262e-19,-1.2499442e-18,nan
200143333,nan,nan,-1.1885414,0.91925234,0.0,nan,nan,-0.0,nan,nan,nan,nan,nan,nan,-4.7758397e-22,-6.2622167e-22,nan
200343505,nan,nan,-1.1885414,0.91925234,0.0,nan,nan,-0.0,nan,nan,nan,nan,nan,nan,8.202134e-25,1.0754871e-24,nan
200543770,nan,nan,-1.1885414,0.91925234,0.0,nan,nan,-0.0,nan,nan,nan,nan,nan,nan,-5.135266e-28,-6.733507e-28,nan
200744181,nan,nan,-1.1885414,0.91925234,0.0,nan,nan,0.0,nan,nan,nan,nan,nan,nan,1.0089845e-31,1.3230093e-31,nan
200944320,nan,nan,-1.1885414,0.91925234,0.0,nan,nan,-0.0,nan,nan,nan,nan,nan,nan,1.2932648e-34,1.6957656e-34,nan
201164341,nan,nan,-1.1885414,0.91925234,0.0,nan,nan,-0.0,nan,nan,nan,nan,nan,nan,-0.22107597,-0.029485416,nan
201364568,nan,nan,-1.1885414,0.91925234,0.0,nan,nan,-0.0,nan,nan,nan,nan,nan,nan,-0.35972646,0.00027029624,nan
201564868,nan,nan,-1.1885414,0.91925234,0.0,nan,nan,-0.0,nan,nan,nan,nan,nan,nan,-0.46874124,0.048513338,nan
201764934,nan,nan,-1.1885414,0.91925234,0.0,nan,nan,-0.0,nan,nan,nan,nan,nan,nan,-0.4585989,0.017322773,nan
201965120,nan,nan,-1.1885414,0.91925234,0.0,nan,nan,-0.0,nan,nan,nan,nan,nan,nan,-0.43283826,-0.010787269,nan
202165408,nan,nan,-1.1885414,0.91925234,0.0,nan,nan,-0.0,nan,nan,nan,nan,nan,nan,0.09167439,-0.06837918,nan
202365650,nan,nan,-1.1885414,0.91925234,0.0,nan,nan,-0.0,nan,nan,nan,nan,nan,nan,0.37029096,-0.3972431,nan
202565741,nan,nan,-1.1885414,0.91925234,0.0,nan,nan,-0.0,nan,nan,nan,nan,nan,nan,0.40358925,-0.3283419,nan
202786011,nan,nan,-1.1885414,0.91925234,0.0,nan,nan,-0.0,nan,nan,nan,nan,nan,nan,0.22874476,-0.12363382,nan
202986302,nan,nan,-1.1885414,0.91925234,0.0,nan,nan,-0.0,nan,nan,nan,nan,nan,nan,0.030263726,0.039083153,nan
203186486,nan,nan,-1.1885414,0.91925234,0.0,nan,nan,-0.0,nan,nan,nan,nan,nan,nan,0.178306,-0.02326167,nan
203386581,nan,nan,-1.1885414,0.91925234,0.0,nan,nan,-0.0,nan,nan,nan,nan,nan,nan,0.3600576,-0.010910301,nan
203586735,nan,nan,-1.1885414,0.91925234,0.0,nan,nan,-0.0,nan,nan,nan,nan,nan,nan,0.36349487,-0.018625354,nan
203787107,nan,nan,-1.1885414,0.91925234,0.0,nan,nan,-0.0,nan,nan,nan,nan,nan,nan,0.103700384,0.13525109,nan
203987311,nan,nan,-1.1885414,0.91925234,0.0,nan,nan,-0.0,nan,nan,nan,nan,nan,nan,0.22463492,0.14722286,nan
204187363,nan,nan,-1.1885414,0.91925234,0.0,nan,nan,-0.0,nan,nan,nan,nan,nan,nan,0.37983406,0.073370546,nan
204387545,nan,nan,-1.1885414,0.91925234,0.0,nan,nan,-0.0,nan,nan,nan,nan,nan,nan,0.3890646,0.077081144,nan
204588118,nan,nan,-1.1885414,0.91925234,0.0,nan,nan,-0.0,nan,nan,nan,nan,nan,nan,0.37174335,0.110083476,nan
204808326,nan,nan,-1.1885414,0.91925234,0.0,nan,nan,-0.0,nan,nan,nan,nan,nan,nan,0.3814166,0.09992428,nan
205008174,nan,nan,-1.1885414,0.91925234,0.0,nan,nan,-0.0,nan,nan,nan,nan,nan,nan,0.34943965,0.13060111,nan
205208379,nan,nan,-1.1885414,0.91925234,0.0,nan,nan,-0.0,nan,nan,nan,nan,nan,nan,0.22336951,0.25102028,nan
205408709,nan,nan,-1.1885414,0.91925234,0.0,nan,nan,-0.0,nan,nan,nan,nan,nan,nan,0.10157176,0.1336311,nan
205608885,nan,nan,-1.1885414,0.91925234,0.0,nan,nan,-0.0,nan,nan,nan,nan,nan,nan,-0.00035664995,-0.00046743808,nan
205809001,nan,nan,-1.1885414,0.91925234,0.0,nan,nan,-0.0,nan,nan,nan,nan,nan,nan,1.0274566e-07,1.3434914e-07,nan
206009174,nan,nan,-1.1885414,0.91925234,0.0,nan,nan,-0.0,nan,nan,nan,nan,nan,nan,6.1311935e-11,8.063067e-11,nan
206229495,nan,nan,-1.1885414,0.91925234,0.0,nan,nan,-0.0,nan,nan,nan,nan,nan,nan,-3.1550636e-14,-4.1313087e-14,nan
206429802,nan,nan,-1.1885414,0.91925234,0.0,nan,nan,-0.0,nan,nan,nan,nan,nan,nan,-2.0343717e-18,-2.7163869e-18,nan
206629886,nan,nan,-1.1885414,0.91925234,0.0,nan,nan,-0.0,nan,nan,nan,nan,nan,nan,-0.06311713,0.04185054,nan
206829975,nan,nan,-1.1885414,0.91925234,0.0,nan,nan,-0.0,nan,nan,nan,nan,nan,nan,-0.00559968,0.004274007,nan
207031264,nan,nan,-1.1885414,0.91925234,0.0,nan,nan,-0.0,nan,nan,nan,nan,nan,nan,-0.069294624,0.052847102,nan
207230479,nan,nan,-1.1885414,0.91925234,0.0,nan,nan,-0.0,nan,nan,nan,nan,nan,nan,-0.17922167,0.13668226,nan
207430653,nan,nan,-1.1885414,0.91925234,0.0,nan,nan,-0.0,nan,nan,nan,nan,nan,nan,-0.017463088,0.013318112,nan
207630827,nan,nan,-1.1885414,0.91925234,0.0,nan,nan,-0.0,nan,nan,nan,nan,nan,nan,-0.15688263,0.119645536,nan
207831384,nan,nan,-1.1885414,0.91925234,0.0,nan,nan,-0.0,nan,nan,nan,nan,nan,nan,-0.07138334,0.054440048,nan
208051273,nan,nan,-1.1885414,0.91925234,0.0,nan,nan,-0.0,nan,nan,nan,nan,nan,nan,-0.19751349,0.1506324,nan
208251438,nan,nan,-1.1885414,0.91925234,0.0,nan,nan,-0.0,nan,nan,nan,nan,nan,nan,-0.15269521,0.11645202,nan
208451614,nan,nan,-1.1885414,0.91925234,0.0,nan,nan,-0.0,nan,nan,nan,nan,nan,nan,-0.06654681,0.050751504,nan
208651991,nan,nan,-1.1885414,0.91925234,0.0,nan,nan,-0.0,nan,nan,nan,nan,nan,nan,-0.03567795,0.027209561,nan
208852097,nan,nan,-1.1885414,0.91925234,0.0,nan,nan,-0.0,nan,nan,nan,nan,nan,nan,-0.029780738,0.02271209,nan
209052197,nan,nan,-1.1885414,0.91925234,0.0,nan,nan,-0.0,nan,nan,nan,nan,nan,nan,-0.088288665,0.06733278,nan
209252395,nan,nan,-1.1885414,0.91925234,0.0,nan,nan,-0.0,nan,nan,nan,nan,nan,nan,-0.12579347,0.09593558,nan
209452799,nan,nan,-1.1885414,0.91925234,0.0,nan,nan,-0.0,nan,nan,nan,nan,nan,nan,-0.16344059,0.12688573,nan
209672986,nan,nan,-1.1885414,0.91925234,0.0,nan,nan,-0.0,nan,nan,nan,nan,nan,nan,-0.020746114,0.03648378,nan
209873026,nan,nan,-1.1885414,0.91925234,0.0,nan,nan,-0.0,nan,nan,nan,nan,nan,nan,0.102238744,0.13318913,nan
210073251,nan,nan,-1.1885414,0.91925234,0.0,nan,nan,-0.0,nan,nan,nan,nan,nan,nan,0.16332704,0.21415882,nan
210273801,nan,nan,-1.1885414,0.91925234,0.0,nan,nan,-0.0,nan,nan,nan,nan,nan,nan,0.12832111,0.16825831,nan
210473845,nan,nan,-1.1885414,0.91925234,0.0,nan,nan,-0.0,nan,nan,nan,nan,nan,nan,-0.0007220022,-0.0009467098,nan
210673925,nan,nan,-1.1885414,0.91925234,0.0,nan,nan,-0.0,nan,nan,nan,nan,nan,nan,1.643906e-07,2.1555364e-07,nan
210874030,nan,nan,-1.1885414,0.91925234,0.0,nan,nan,-0.0,nan,nan,nan,nan,nan,nan,1.6216989e-10,2.1264178e-10,nan
211074385,nan,nan,-1.1885414,0.91925234,0.0,nan,nan,-0.0,nan,nan,nan,nan,nan,nan,-0.069112666,-0.0906225,nan
211294535,nan,nan,-1.1885414,0.91925234,0.0,nan,nan,-0.0,nan,nan,nan,nan,nan,nan,-0.13804097,-0.18100326,nan
211494664,nan,nan,-1.1885414,0.91925234,0.0,nan,nan,-0.0,nan,nan,nan,nan,nan,nan,-0.12607975,-0.16531937,nan
211694845,nan,nan,-1.1885414,0.91925234,0.0,nan,nan,-0.0,nan,nan,nan,nan,nan,nan,-0.12890688,-0.16902637,nan
211895159,nan,nan,-1.1885414,0.91925234,0.0,nan,nan,-0.0,nan,nan,nan,nan,nan,nan,-0.13223512,-0.17339048,nan
212095286,nan,nan,-1.1885414,0.91925234,0.0,nan,nan,-0.0,nan,nan,nan,nan,nan,nan,-0.24428815,-0.15688364,nan
212295501,nan,nan,-1.1885414,0.91925234,0.0,nan,nan,-0.0,nan,nan,nan,nan,nan,nan,-0.28729746,-0.1639666,nan
212495644,nan,nan,-1.1885414,0.91925234,0.0,nan,nan,-0.0,nan,nan,nan,nan,nan,nan,-0.25804636,-0.18055627,nan
212697008,nan,nan,-1.1885414,0.91925234,0.0,nan,nan,-0.0,nan,nan,nan,nan,nan,nan,-0.249536,-0.18487053,nan
212896101,nan,nan,-1.1885414,0.91925234,0.0,nan,nan,-0.0,nan,nan,nan,nan,nan,nan,-0.25069726,-0.1861845,nan
213096259,nan,nan,-1.1885414,0.91925234,0.0,nan,nan,-0.0,nan,nan,nan,nan,nan,nan,-0.24630618,-0.2025758,nan
213316568,nan,nan,-1.1885414,0.91925234,0.0,nan,nan,-0.0,nan,nan,nan,nan,nan,nan,-0.21940592,-0.21707198,nan
